---
- name: Andorra la Vella
  state_code: '07'
  state_name: Andorra la Vella
  latitude: '42.50779000'
  longitude: '1.52109000'
- name: Canillo
  state_code: '02'
  state_name: Canillo
  latitude: '42.56760000'
  longitude: '1.59756000'
- name: El Tarter
  state_code: '02'
  state_name: Canillo
  latitude: '42.57952000'
  longitude: '1.65362000'
- name: Encamp
  state_code: '03'
  state_name: Encamp
  latitude: '42.53474000'
  longitude: '1.58014000'
- name: Pas de la Casa
  state_code: '03'
  state_name: Encamp
  latitude: '42.54277000'
  longitude: '1.73361000'
- name: les Escaldes
  state_code: '08'
  state_name: Escaldes-Engordany
  latitude: '42.50729000'
  longitude: '1.53414000'
- name: Arinsal
  state_code: '04'
  state_name: La Massana
  latitude: '42.57205000'
  longitude: '1.48453000'
- name: la Massana
  state_code: '04'
  state_name: La Massana
  latitude: '42.54499000'
  longitude: '1.51483000'
- name: Ordino
  state_code: '05'
  state_name: Ordino
  latitude: '42.55623000'
  longitude: '1.53319000'
- name: Sant Julià de Lòria
  state_code: '06'
  state_name: Sant Julià de Lòria
  latitude: '42.46372000'
  longitude: '1.49129000'
