---
- name: Banaj
  state_code: BR
  state_name: Berat
  latitude: '40.82492000'
  longitude: '19.84074000'
- name: Bashkia Berat
  state_code: BR
  state_name: Berat
  latitude: '40.69997000'
  longitude: '19.94983000'
- name: Bashkia Kuçovë
  state_code: BR
  state_name: Berat
  latitude: '40.82489000'
  longitude: '19.95350000'
- name: Bashkia Poliçan
  state_code: BR
  state_name: Berat
  latitude: '40.58608000'
  longitude: '20.04535000'
- name: Bashkia Skrapar
  state_code: BR
  state_name: Berat
  latitude: '40.56036000'
  longitude: '20.25477000'
- name: Berat
  state_code: BR
  state_name: Berat
  latitude: '40.70583000'
  longitude: '19.95222000'
- name: Çorovodë
  state_code: BR
  state_name: Berat
  latitude: '40.50417000'
  longitude: '20.22722000'
- name: Kuçovë
  state_code: BR
  state_name: Berat
  latitude: '40.80028000'
  longitude: '19.91667000'
- name: Poliçan
  state_code: BR
  state_name: Berat
  latitude: '40.61222000'
  longitude: '20.09806000'
- name: Rrethi i Beratit
  state_code: BR
  state_name: Berat
  latitude: '40.66667000'
  longitude: '20.00000000'
- name: Rrethi i Kuçovës
  state_code: BR
  state_name: Berat
  latitude: '40.83333000'
  longitude: '19.91667000'
- name: Rrethi i Skraparit
  state_code: BR
  state_name: Berat
  latitude: '40.55000000'
  longitude: '20.26667000'
- name: Ura Vajgurore
  state_code: BR
  state_name: Berat
  latitude: '40.76889000'
  longitude: '19.87778000'
- name: Bashkia Bulqizë
  state_code: '09'
  state_name: Dibër
  latitude: '41.47152000'
  longitude: '20.33192000'
- name: Bashkia Klos
  state_code: '09'
  state_name: Dibër
  latitude: '41.50826000'
  longitude: '20.07107000'
- name: Bashkia Mat
  state_code: '09'
  state_name: Dibër
  latitude: '41.63317000'
  longitude: '20.01228000'
- name: Bulqizë
  state_code: '09'
  state_name: Dibër
  latitude: '41.49167000'
  longitude: '20.22194000'
- name: Burrel
  state_code: '09'
  state_name: Dibër
  latitude: '41.61028000'
  longitude: '20.00889000'
- name: Klos
  state_code: '09'
  state_name: Dibër
  latitude: '41.50694000'
  longitude: '20.08667000'
- name: Peshkopi
  state_code: '09'
  state_name: Dibër
  latitude: '41.68500000'
  longitude: '20.42889000'
- name: Rrethi i Bulqizës
  state_code: '09'
  state_name: Dibër
  latitude: '41.50000000'
  longitude: '20.33333000'
- name: Rrethi i Dibrës
  state_code: '09'
  state_name: Dibër
  latitude: '41.75000000'
  longitude: '20.33333000'
- name: Rrethi i Matit
  state_code: '09'
  state_name: Dibër
  latitude: '41.58333000'
  longitude: '20.08333000'
- name: Ulëz
  state_code: '09'
  state_name: Dibër
  latitude: '41.68278000'
  longitude: '19.89333000'
- name: Bashkia Durrës
  state_code: DR
  state_name: Durrës
  latitude: '41.42743000'
  longitude: '19.48690000'
- name: Bashkia Krujë
  state_code: DR
  state_name: Durrës
  latitude: '41.50091000'
  longitude: '19.72571000'
- name: Bashkia Shijak
  state_code: DR
  state_name: Durrës
  latitude: '41.33558000'
  longitude: '19.58977000'
- name: Durrës
  state_code: DR
  state_name: Durrës
  latitude: '41.32355000'
  longitude: '19.45469000'
- name: Durrës District
  state_code: DR
  state_name: Durrës
  latitude: '41.31660000'
  longitude: '19.45000000'
- name: Fushë-Krujë
  state_code: DR
  state_name: Durrës
  latitude: '41.47833000'
  longitude: '19.71778000'
- name: Krujë
  state_code: DR
  state_name: Durrës
  latitude: '41.50917000'
  longitude: '19.79278000'
- name: Rrethi i Krujës
  state_code: DR
  state_name: Durrës
  latitude: '41.55000000'
  longitude: '19.75000000'
- name: Shijak
  state_code: DR
  state_name: Durrës
  latitude: '41.34556000'
  longitude: '19.56722000'
- name: Sukth
  state_code: DR
  state_name: Durrës
  latitude: '41.38056000'
  longitude: '19.53778000'
- name: Ballsh
  state_code: '04'
  state_name: Fier
  latitude: '40.59889000'
  longitude: '19.73472000'
- name: Bashkia Divjakë
  state_code: '04'
  state_name: Fier
  latitude: '40.95716000'
  longitude: '19.52364000'
- name: Bashkia Fier
  state_code: '04'
  state_name: Fier
  latitude: '40.72937000'
  longitude: '19.48690000'
- name: Bashkia Mallakastër
  state_code: '04'
  state_name: Fier
  latitude: '40.55669000'
  longitude: '19.77347000'
- name: Bashkia Patos
  state_code: '04'
  state_name: Fier
  latitude: '40.67793000'
  longitude: '19.65591000'
- name: Divjakë
  state_code: '04'
  state_name: Fier
  latitude: '40.99667000'
  longitude: '19.52944000'
- name: Fier
  state_code: '04'
  state_name: Fier
  latitude: '40.72389000'
  longitude: '19.55611000'
- name: Fier-Çifçi
  state_code: '04'
  state_name: Fier
  latitude: '40.71667000'
  longitude: '19.56667000'
- name: Lushnjë
  state_code: '04'
  state_name: Fier
  latitude: '40.94194000'
  longitude: '19.70500000'
- name: Patos
  state_code: '04'
  state_name: Fier
  latitude: '40.68333000'
  longitude: '19.61944000'
- name: Patos Fshat
  state_code: '04'
  state_name: Fier
  latitude: '40.64278000'
  longitude: '19.65083000'
- name: Roskovec
  state_code: '04'
  state_name: Fier
  latitude: '40.73750000'
  longitude: '19.70222000'
- name: Rrethi i Mallakastrës
  state_code: '04'
  state_name: Fier
  latitude: '40.55000000'
  longitude: '19.78333000'
- name: Bashkia Dropull
  state_code: GJ
  state_name: Gjirokastër
  latitude: '39.98584000'
  longitude: '20.30529000'
- name: Bashkia Kelcyrë
  state_code: GJ
  state_name: Gjirokastër
  latitude: '40.36196000'
  longitude: '20.16476000'
- name: Bashkia Libohovë
  state_code: GJ
  state_name: Gjirokastër
  latitude: '40.10754000'
  longitude: '20.25753000'
- name: Bashkia Memaliaj
  state_code: GJ
  state_name: Gjirokastër
  latitude: '40.41524000'
  longitude: '19.96911000'
- name: Bashkia Përmet
  state_code: GJ
  state_name: Gjirokastër
  latitude: '40.23246000'
  longitude: '20.41091000'
- name: Bashkia Tepelenë
  state_code: GJ
  state_name: Gjirokastër
  latitude: '40.26736000'
  longitude: '19.97003000'
- name: Gjinkar
  state_code: GJ
  state_name: Gjirokastër
  latitude: '40.19944000'
  longitude: '20.40611000'
- name: Gjirokastër
  state_code: GJ
  state_name: Gjirokastër
  latitude: '40.07583000'
  longitude: '20.13889000'
- name: Këlcyrë
  state_code: GJ
  state_name: Gjirokastër
  latitude: '40.31306000'
  longitude: '20.18944000'
- name: Lazarat
  state_code: GJ
  state_name: Gjirokastër
  latitude: '40.04667000'
  longitude: '20.14750000'
- name: Libohovë
  state_code: GJ
  state_name: Gjirokastër
  latitude: '40.03111000'
  longitude: '20.26306000'
- name: Memaliaj
  state_code: GJ
  state_name: Gjirokastër
  latitude: '40.35167000'
  longitude: '19.98028000'
- name: Përmet
  state_code: GJ
  state_name: Gjirokastër
  latitude: '40.23361000'
  longitude: '20.35167000'
- name: Tepelenë
  state_code: GJ
  state_name: Gjirokastër
  latitude: '40.29583000'
  longitude: '20.01917000'
- name: Bashkia Devoll
  state_code: '06'
  state_name: Korçë
  latitude: '40.60078000'
  longitude: '20.93814000'
- name: Bashkia Kolonjë
  state_code: '06'
  state_name: Korçë
  latitude: '40.31420000'
  longitude: '20.61482000'
- name: Bashkia Maliq
  state_code: '06'
  state_name: Korçë
  latitude: '40.75508000'
  longitude: '20.60748000'
- name: Bashkia Pustec
  state_code: '06'
  state_name: Korçë
  latitude: '40.83591000'
  longitude: '20.89405000'
- name: Bilisht
  state_code: '06'
  state_name: Korçë
  latitude: '40.62750000'
  longitude: '20.99000000'
- name: Ersekë
  state_code: '06'
  state_name: Korçë
  latitude: '40.33778000'
  longitude: '20.67889000'
- name: Korçë
  state_code: '06'
  state_name: Korçë
  latitude: '40.61861000'
  longitude: '20.78083000'
- name: Leskovik
  state_code: '06'
  state_name: Korçë
  latitude: '40.15139000'
  longitude: '20.59722000'
- name: Libonik
  state_code: '06'
  state_name: Korçë
  latitude: '40.70444000'
  longitude: '20.70861000'
- name: Maliq
  state_code: '06'
  state_name: Korçë
  latitude: '40.70583000'
  longitude: '20.69972000'
- name: Mborje
  state_code: '06'
  state_name: Korçë
  latitude: '40.60333000'
  longitude: '20.80306000'
- name: Pogradec
  state_code: '06'
  state_name: Korçë
  latitude: '40.90250000'
  longitude: '20.65250000'
- name: Rrethi i Devollit
  state_code: '06'
  state_name: Korçë
  latitude: '40.58333000'
  longitude: '20.91667000'
- name: Rrethi i Kolonjës
  state_code: '06'
  state_name: Korçë
  latitude: '40.25000000'
  longitude: '20.66667000'
- name: Velçan
  state_code: '06'
  state_name: Korçë
  latitude: '40.95472000'
  longitude: '20.46222000'
- name: Voskopojë
  state_code: '06'
  state_name: Korçë
  latitude: '40.63306000'
  longitude: '20.58889000'
- name: Bajram Curri
  state_code: KU
  state_name: Kukës
  latitude: '42.35734000'
  longitude: '20.07679000'
- name: Krumë
  state_code: KU
  state_name: Kukës
  latitude: '42.19694000'
  longitude: '20.41333000'
- name: Kukës
  state_code: KU
  state_name: Kukës
  latitude: '42.07694000'
  longitude: '20.42194000'
- name: Rrethi i Hasit
  state_code: KU
  state_name: Kukës
  latitude: '42.16667000'
  longitude: '20.33333000'
- name: Rrethi i Kukësit
  state_code: KU
  state_name: Kukës
  latitude: '42.00000000'
  longitude: '20.33333000'
- name: Bashkia Kurbin
  state_code: '08'
  state_name: Lezhë
  latitude: '41.62215000'
  longitude: '19.70734000'
- name: Bashkia Lezhë
  state_code: '08'
  state_name: Lezhë
  latitude: '41.81320000'
  longitude: '19.64121000'
- name: Bashkia Mirditë
  state_code: '08'
  state_name: Lezhë
  latitude: '41.80953000'
  longitude: '19.99024000'
- name: Kurbnesh
  state_code: '08'
  state_name: Lezhë
  latitude: '41.77972000'
  longitude: '20.08361000'
- name: Laç
  state_code: '08'
  state_name: Lezhë
  latitude: '41.63556000'
  longitude: '19.71306000'
- name: Lezhë
  state_code: '08'
  state_name: Lezhë
  latitude: '41.78361000'
  longitude: '19.64361000'
- name: Mamurras
  state_code: '08'
  state_name: Lezhë
  latitude: '41.57750000'
  longitude: '19.69222000'
- name: Milot
  state_code: '08'
  state_name: Lezhë
  latitude: '41.68389000'
  longitude: '19.71556000'
- name: Rrëshen
  state_code: '08'
  state_name: Lezhë
  latitude: '41.76750000'
  longitude: '19.87556000'
- name: Rrethi i Kurbinit
  state_code: '08'
  state_name: Lezhë
  latitude: '41.63333000'
  longitude: '19.71667000'
- name: Rubik
  state_code: '08'
  state_name: Lezhë
  latitude: '41.77444000'
  longitude: '19.78611000'
- name: Shëngjin
  state_code: '08'
  state_name: Lezhë
  latitude: '41.81361000'
  longitude: '19.59389000'
- name: Bashkia Malësi e Madhe
  state_code: SH
  state_name: Shkodër
  latitude: '42.36798000'
  longitude: '19.58977000'
- name: Bashkia Pukë
  state_code: SH
  state_name: Shkodër
  latitude: '42.02997000'
  longitude: '19.92778000'
- name: Bashkia Vau i Dejës
  state_code: SH
  state_name: Shkodër
  latitude: '42.04834000'
  longitude: '19.69999000'
- name: Fushë-Arrëz
  state_code: SH
  state_name: Shkodër
  latitude: '42.06222000'
  longitude: '20.01667000'
- name: Koplik
  state_code: SH
  state_name: Shkodër
  latitude: '42.21361000'
  longitude: '19.43639000'
- name: Pukë
  state_code: SH
  state_name: Shkodër
  latitude: '42.04444000'
  longitude: '19.89972000'
- name: Rrethi i Malësia e Madhe
  state_code: SH
  state_name: Shkodër
  latitude: '42.33333000'
  longitude: '19.58333000'
- name: Rrethi i Shkodrës
  state_code: SH
  state_name: Shkodër
  latitude: '42.06917000'
  longitude: '19.53506000'
- name: Shkodër
  state_code: SH
  state_name: Shkodër
  latitude: '42.06828000'
  longitude: '19.51258000'
- name: Vau i Dejës
  state_code: SH
  state_name: Shkodër
  latitude: '42.01000000'
  longitude: '19.62472000'
- name: Vukatanë
  state_code: SH
  state_name: Shkodër
  latitude: '42.02806000'
  longitude: '19.54778000'
- name: Bashkia Kavajë
  state_code: TR
  state_name: Tirana
  latitude: '41.18127000'
  longitude: '19.55579000'
- name: Bashkia Vorë
  state_code: TR
  state_name: Tirana
  latitude: '41.39804000'
  longitude: '19.67703000'
- name: Kamëz
  state_code: TR
  state_name: Tirana
  latitude: '41.38167000'
  longitude: '19.76028000'
- name: Kavajë
  state_code: TR
  state_name: Tirana
  latitude: '41.18556000'
  longitude: '19.55694000'
- name: Krrabë
  state_code: TR
  state_name: Tirana
  latitude: '41.21556000'
  longitude: '19.97139000'
- name: Rrethi i Kavajës
  state_code: TR
  state_name: Tirana
  latitude: '41.16667000'
  longitude: '19.58333000'
- name: Rrethi i Tiranës
  state_code: TR
  state_name: Tirana
  latitude: '41.33333000'
  longitude: '19.91667000'
- name: Rrogozhinë
  state_code: TR
  state_name: Tirana
  latitude: '41.07639000'
  longitude: '19.66528000'
- name: Sinaballaj
  state_code: TR
  state_name: Tirana
  latitude: '41.06889000'
  longitude: '19.69944000'
- name: Tirana
  state_code: TR
  state_name: Tirana
  latitude: '41.32750000'
  longitude: '19.81889000'
- name: Vorë
  state_code: TR
  state_name: Tirana
  latitude: '41.39083000'
  longitude: '19.65500000'
- name: Bashkia Finiq
  state_code: '12'
  state_name: Vlorë
  latitude: '39.84393000'
  longitude: '20.16659000'
- name: Bashkia Himarë
  state_code: '12'
  state_name: Vlorë
  latitude: '40.11581000'
  longitude: '19.81389000'
- name: Bashkia Konispol
  state_code: '12'
  state_name: Vlorë
  latitude: '39.70064000'
  longitude: '20.13353000'
- name: Bashkia Selenicë
  state_code: '12'
  state_name: Vlorë
  latitude: '40.39503000'
  longitude: '19.65958000'
- name: Bashkia Vlorë
  state_code: '12'
  state_name: Vlorë
  latitude: '40.41340000'
  longitude: '19.49792000'
- name: Delvinë
  state_code: '12'
  state_name: Vlorë
  latitude: '39.95111000'
  longitude: '20.09778000'
- name: Himarë
  state_code: '12'
  state_name: Vlorë
  latitude: '40.10167000'
  longitude: '19.74472000'
- name: Konispol
  state_code: '12'
  state_name: Vlorë
  latitude: '39.65889000'
  longitude: '20.18139000'
- name: Ksamil
  state_code: '12'
  state_name: Vlorë
  latitude: '39.76889000'
  longitude: '19.99972000'
- name: Orikum
  state_code: '12'
  state_name: Vlorë
  latitude: '40.32528000'
  longitude: '19.47139000'
- name: Rrethi i Delvinës
  state_code: '12'
  state_name: Vlorë
  latitude: '39.91667000'
  longitude: '20.08333000'
- name: Sarandë
  state_code: '12'
  state_name: Vlorë
  latitude: '39.87534000'
  longitude: '20.00477000'
- name: Selenicë
  state_code: '12'
  state_name: Vlorë
  latitude: '40.53056000'
  longitude: '19.63583000'
- name: Vlorë
  state_code: '12'
  state_name: Vlorë
  latitude: '40.46860000'
  longitude: '19.48318000'
