---
- name: Agarakavan
  state_code: AG
  state_name: Aragatsotn
  latitude: '40.33069000'
  longitude: '44.07233000'
- name: Aparan
  state_code: AG
  state_name: Aragatsotn
  latitude: '40.59323000'
  longitude: '44.35890000'
- name: Aragats
  state_code: AG
  state_name: Aragatsotn
  latitude: '40.48889000'
  longitude: '44.35290000'
- name: Arteni
  state_code: AG
  state_name: Aragatsotn
  latitude: '40.29730000'
  longitude: '43.76672000'
- name: Ashnak
  state_code: AG
  state_name: Aragatsotn
  latitude: '40.33069000'
  longitude: '43.91669000'
- name: Ashtarak
  state_code: AG
  state_name: Aragatsotn
  latitude: '40.29910000'
  longitude: '44.36204000'
- name: Byurakan
  state_code: AG
  state_name: Aragatsotn
  latitude: '40.33894000'
  longitude: '44.27275000'
- name: Hnaberd
  state_code: AG
  state_name: Aragatsotn
  latitude: '40.63721000'
  longitude: '44.14058000'
- name: Karbi
  state_code: AG
  state_name: Aragatsotn
  latitude: '40.33069000'
  longitude: '44.37793000'
- name: Kasakh
  state_code: AG
  state_name: Aragatsotn
  latitude: '40.53697000'
  longitude: '44.41046000'
- name: Kosh
  state_code: AG
  state_name: Aragatsotn
  latitude: '40.30011000'
  longitude: '44.16107000'
- name: Nor Yerznka
  state_code: AG
  state_name: Aragatsotn
  latitude: '40.30011000'
  longitude: '44.38892000'
- name: Oshakan
  state_code: AG
  state_name: Aragatsotn
  latitude: '40.26392000'
  longitude: '44.31671000'
- name: Sasunik
  state_code: AG
  state_name: Aragatsotn
  latitude: '40.25012000'
  longitude: '44.34448000'
- name: Shenavan
  state_code: AG
  state_name: Aragatsotn
  latitude: '40.48328000'
  longitude: '44.38348000'
- name: T’alin
  state_code: AG
  state_name: Aragatsotn
  latitude: '40.39172000'
  longitude: '43.87793000'
- name: Tsaghkahovit
  state_code: AG
  state_name: Aragatsotn
  latitude: '40.63428000'
  longitude: '44.22241000'
- name: Ushi
  state_code: AG
  state_name: Aragatsotn
  latitude: '40.34729000'
  longitude: '44.37512000'
- name: Voskevaz
  state_code: AG
  state_name: Aragatsotn
  latitude: '40.27508000'
  longitude: '44.30011000'
- name: Zovuni
  state_code: AG
  state_name: Aragatsotn
  latitude: '40.51111000'
  longitude: '44.43890000'
- name: Abovyan
  state_code: AR
  state_name: Ararat
  latitude: '40.04851000'
  longitude: '44.54742000'
- name: Aralez
  state_code: AR
  state_name: Ararat
  latitude: '39.90008000'
  longitude: '44.65570000'
- name: Ararat
  state_code: AR
  state_name: Ararat
  latitude: '39.83069000'
  longitude: '44.70569000'
- name: Arevabuyr
  state_code: AR
  state_name: Ararat
  latitude: '40.03607000'
  longitude: '44.46948000'
- name: Arevshat
  state_code: AR
  state_name: Ararat
  latitude: '40.03963000'
  longitude: '44.54179000'
- name: Armash
  state_code: AR
  state_name: Ararat
  latitude: '39.76672000'
  longitude: '44.81110000'
- name: Artashat
  state_code: AR
  state_name: Ararat
  latitude: '39.96144000'
  longitude: '44.54447000'
- name: Avshar
  state_code: AR
  state_name: Ararat
  latitude: '39.85553000'
  longitude: '44.65832000'
- name: Aygavan
  state_code: AR
  state_name: Ararat
  latitude: '39.87327000'
  longitude: '44.66984000'
- name: Aygepat
  state_code: AR
  state_name: Ararat
  latitude: '39.95845000'
  longitude: '44.59981000'
- name: Aygestan
  state_code: AR
  state_name: Ararat
  latitude: '40.00293000'
  longitude: '44.55829000'
- name: Aygezard
  state_code: AR
  state_name: Ararat
  latitude: '39.95436000'
  longitude: '44.60229000'
- name: Bardzrashen
  state_code: AR
  state_name: Ararat
  latitude: '40.08533000'
  longitude: '44.57957000'
- name: Berk’anush
  state_code: AR
  state_name: Ararat
  latitude: '39.97790000'
  longitude: '44.51672000'
- name: Burastan
  state_code: AR
  state_name: Ararat
  latitude: '39.99157000'
  longitude: '44.49681000'
- name: Byuravan
  state_code: AR
  state_name: Ararat
  latitude: '40.01604000'
  longitude: '44.51889000'
- name: Dalar
  state_code: AR
  state_name: Ararat
  latitude: '39.97653000'
  longitude: '44.52649000'
- name: Darakert
  state_code: AR
  state_name: Ararat
  latitude: '40.10553000'
  longitude: '44.41388000'
- name: Dashtavan
  state_code: AR
  state_name: Ararat
  latitude: '40.10010000'
  longitude: '44.39172000'
- name: Dimitrov
  state_code: AR
  state_name: Ararat
  latitude: '40.00848000'
  longitude: '44.49170000'
- name: Dvin
  state_code: AR
  state_name: Ararat
  latitude: '40.01984000'
  longitude: '44.58376000'
- name: Getazat
  state_code: AR
  state_name: Ararat
  latitude: '40.03844000'
  longitude: '44.56369000'
- name: Ghukasavan
  state_code: AR
  state_name: Ararat
  latitude: '40.12793000'
  longitude: '44.41669000'
- name: Goravan
  state_code: AR
  state_name: Ararat
  latitude: '39.90832000'
  longitude: '44.73328000'
- name: Hayanist
  state_code: AR
  state_name: Ararat
  latitude: '40.12231000'
  longitude: '44.37793000'
- name: Hovtashat
  state_code: AR
  state_name: Ararat
  latitude: '40.09729000'
  longitude: '44.34448000'
- name: Hovtashen
  state_code: AR
  state_name: Ararat
  latitude: '40.02508000'
  longitude: '44.45007000'
- name: Jrahovit
  state_code: AR
  state_name: Ararat
  latitude: '40.04730000'
  longitude: '44.47510000'
- name: Lusarrat
  state_code: AR
  state_name: Ararat
  latitude: '39.87403000'
  longitude: '44.58678000'
- name: Marmarashen
  state_code: AR
  state_name: Ararat
  latitude: '40.05829000'
  longitude: '44.47229000'
- name: Masis
  state_code: AR
  state_name: Ararat
  latitude: '40.06542000'
  longitude: '44.41618000'
- name: Mrganush
  state_code: AR
  state_name: Ararat
  latitude: '40.02857000'
  longitude: '44.55831000'
- name: Mrgavan
  state_code: AR
  state_name: Ararat
  latitude: '39.97251000'
  longitude: '44.53565000'
- name: Mrgavet
  state_code: AR
  state_name: Ararat
  latitude: '40.02789000'
  longitude: '44.48328000'
- name: Nizami
  state_code: AR
  state_name: Ararat
  latitude: '40.09168000'
  longitude: '44.40570000'
- name: Norabats’
  state_code: AR
  state_name: Ararat
  latitude: '40.10553000'
  longitude: '44.43329000'
- name: Noramarg
  state_code: AR
  state_name: Ararat
  latitude: '40.02228000'
  longitude: '44.42511000'
- name: Norashen
  state_code: AR
  state_name: Ararat
  latitude: '40.00130000'
  longitude: '44.59296000'
- name: Noyakert
  state_code: AR
  state_name: Ararat
  latitude: '39.83069000'
  longitude: '44.66949000'
- name: Nshavan
  state_code: AR
  state_name: Ararat
  latitude: '40.02787000'
  longitude: '44.52565000'
- name: Sayat’-Nova
  state_code: AR
  state_name: Ararat
  latitude: '40.07507000'
  longitude: '44.40008000'
- name: Shahumyan
  state_code: AR
  state_name: Ararat
  latitude: '39.94171000'
  longitude: '44.57233000'
- name: Sis
  state_code: AR
  state_name: Ararat
  latitude: '40.05829000'
  longitude: '44.38892000'
- name: Sisavan
  state_code: AR
  state_name: Ararat
  latitude: '39.90802000'
  longitude: '44.66721000'
- name: Surenavan
  state_code: AR
  state_name: Ararat
  latitude: '39.79449000'
  longitude: '44.77508000'
- name: Vedi
  state_code: AR
  state_name: Ararat
  latitude: '39.91388000'
  longitude: '44.72510000'
- name: Verin Artashat
  state_code: AR
  state_name: Ararat
  latitude: '39.99731000'
  longitude: '44.58893000'
- name: Verin Dvin
  state_code: AR
  state_name: Ararat
  latitude: '40.02434000'
  longitude: '44.59038000'
- name: Vosketap’
  state_code: AR
  state_name: Ararat
  latitude: '39.88114000'
  longitude: '44.64917000'
- name: Vostan
  state_code: AR
  state_name: Ararat
  latitude: '39.96515000'
  longitude: '44.55937000'
- name: Yeghegnavan
  state_code: AR
  state_name: Ararat
  latitude: '39.83893000'
  longitude: '44.61951000'
- name: Zangakatun
  state_code: AR
  state_name: Ararat
  latitude: '39.82233000'
  longitude: '45.04169000'
- name: Zorak
  state_code: AR
  state_name: Ararat
  latitude: '40.09168000'
  longitude: '44.39447000'
- name: Aghavnatun
  state_code: AV
  state_name: Armavir
  latitude: '40.23330000'
  longitude: '44.25295000'
- name: Aknalich
  state_code: AV
  state_name: Armavir
  latitude: '40.14728000'
  longitude: '44.16669000'
- name: Aknashen
  state_code: AV
  state_name: Armavir
  latitude: '40.09551000'
  longitude: '44.28604000'
- name: Alashkert
  state_code: AV
  state_name: Armavir
  latitude: '40.10712000'
  longitude: '44.05108000'
- name: Apaga
  state_code: AV
  state_name: Armavir
  latitude: '40.09729000'
  longitude: '44.25293000'
- name: Arak’s
  state_code: AV
  state_name: Armavir
  latitude: '40.05548000'
  longitude: '44.30292000'
- name: Arazap’
  state_code: AV
  state_name: Armavir
  latitude: '40.04169000'
  longitude: '44.14728000'
- name: Arbat’
  state_code: AV
  state_name: Armavir
  latitude: '40.13892000'
  longitude: '44.40289000'
- name: Arevashat
  state_code: AV
  state_name: Armavir
  latitude: '40.14447000'
  longitude: '44.37512000'
- name: Arevik
  state_code: AV
  state_name: Armavir
  latitude: '40.10010000'
  longitude: '44.09448000'
- name: Argavand
  state_code: AV
  state_name: Armavir
  latitude: '40.06110000'
  longitude: '44.09448000'
- name: Armavir
  state_code: AV
  state_name: Armavir
  latitude: '40.15446000'
  longitude: '44.03815000'
- name: Arshaluys
  state_code: AV
  state_name: Armavir
  latitude: '40.16949000'
  longitude: '44.21393000'
- name: Artimet
  state_code: AV
  state_name: Armavir
  latitude: '40.15008000'
  longitude: '44.26672000'
- name: Aygek
  state_code: AV
  state_name: Armavir
  latitude: '40.18890000'
  longitude: '44.38611000'
- name: Aygeshat
  state_code: AV
  state_name: Armavir
  latitude: '40.07507000'
  longitude: '44.06110000'
- name: Baghramyan
  state_code: AV
  state_name: Armavir
  latitude: '40.19452000'
  longitude: '44.36951000'
- name: Bambakashat
  state_code: AV
  state_name: Armavir
  latitude: '40.10828000'
  longitude: '44.01947000'
- name: Dalarik
  state_code: AV
  state_name: Armavir
  latitude: '40.22790000'
  longitude: '43.87793000'
- name: Doghs
  state_code: AV
  state_name: Armavir
  latitude: '40.22229000'
  longitude: '44.27228000'
- name: Gay
  state_code: AV
  state_name: Armavir
  latitude: '40.08444000'
  longitude: '44.30528000'
- name: Geghakert
  state_code: AV
  state_name: Armavir
  latitude: '40.18516000'
  longitude: '44.24331000'
- name: Geghanist
  state_code: AV
  state_name: Armavir
  latitude: '40.14587000'
  longitude: '44.43048000'
- name: Getashen
  state_code: AV
  state_name: Armavir
  latitude: '40.04449000'
  longitude: '43.94171000'
- name: Gmbet’
  state_code: AV
  state_name: Armavir
  latitude: '40.22369000'
  longitude: '44.25409000'
- name: Griboyedov
  state_code: AV
  state_name: Armavir
  latitude: '40.11307000'
  longitude: '44.27169000'
- name: Haykashen
  state_code: AV
  state_name: Armavir
  latitude: '40.07233000'
  longitude: '44.30829000'
- name: Hovtamej
  state_code: AV
  state_name: Armavir
  latitude: '40.18329000'
  longitude: '44.25848000'
- name: Janfida
  state_code: AV
  state_name: Armavir
  latitude: '40.04449000'
  longitude: '44.02789000'
- name: Khoronk’
  state_code: AV
  state_name: Armavir
  latitude: '40.13611000'
  longitude: '44.24731000'
- name: Lenughi
  state_code: AV
  state_name: Armavir
  latitude: '40.12512000'
  longitude: '43.96393000'
- name: Lukashin
  state_code: AV
  state_name: Armavir
  latitude: '40.18726000'
  longitude: '44.00390000'
- name: Margara
  state_code: AV
  state_name: Armavir
  latitude: '40.03332000'
  longitude: '44.18048000'
- name: Mayisyan
  state_code: AV
  state_name: Armavir
  latitude: '40.15701000'
  longitude: '44.09192000'
- name: Merdzavan
  state_code: AV
  state_name: Armavir
  latitude: '40.18140000'
  longitude: '44.40033000'
- name: Metsamor
  state_code: AV
  state_name: Armavir
  latitude: '40.14447000'
  longitude: '44.11670000'
- name: Mrgashat
  state_code: AV
  state_name: Armavir
  latitude: '40.13068000'
  longitude: '44.08069000'
- name: Musalerr
  state_code: AV
  state_name: Armavir
  latitude: '40.15570000'
  longitude: '44.37793000'
- name: Myasnikyan
  state_code: AV
  state_name: Armavir
  latitude: '40.18048000'
  longitude: '43.91949000'
- name: Nalbandyan
  state_code: AV
  state_name: Armavir
  latitude: '40.06390000'
  longitude: '43.98889000'
- name: Nor Armavir
  state_code: AV
  state_name: Armavir
  latitude: '40.08612000'
  longitude: '43.99451000'
- name: Norakert
  state_code: AV
  state_name: Armavir
  latitude: '40.19733000'
  longitude: '44.35010000'
- name: P’shatavan
  state_code: AV
  state_name: Armavir
  latitude: '40.03888000'
  longitude: '44.06671000'
- name: Ptghunk’
  state_code: AV
  state_name: Armavir
  latitude: '40.16388000'
  longitude: '44.36389000'
- name: Sardarapat
  state_code: AV
  state_name: Armavir
  latitude: '40.13206000'
  longitude: '44.00969000'
- name: Shenavan
  state_code: AV
  state_name: Armavir
  latitude: '40.05548000'
  longitude: '43.93048000'
- name: Tandzut
  state_code: AV
  state_name: Armavir
  latitude: '40.06952000'
  longitude: '44.07788000'
- name: Taronik
  state_code: AV
  state_name: Armavir
  latitude: '40.13367000'
  longitude: '44.19957000'
- name: Tsaghkunk’
  state_code: AV
  state_name: Armavir
  latitude: '40.18048000'
  longitude: '44.27228000'
- name: Tsiatsan
  state_code: AV
  state_name: Armavir
  latitude: '40.18610000'
  longitude: '44.26947000'
- name: Vagharshapat
  state_code: AV
  state_name: Armavir
  latitude: '40.16557000'
  longitude: '44.29462000'
- name: Voskehat
  state_code: AV
  state_name: Armavir
  latitude: '40.14172000'
  longitude: '44.33069000'
- name: Yeghegnut
  state_code: AV
  state_name: Armavir
  latitude: '40.08893000'
  longitude: '44.16669000'
- name: Yeraskhahun
  state_code: AV
  state_name: Armavir
  latitude: '40.07233000'
  longitude: '44.21948000'
- name: Akunk’
  state_code: GR
  state_name: Gegharkunik
  latitude: '40.15886000'
  longitude: '45.72568000'
- name: Astghadzor
  state_code: GR
  state_name: Gegharkunik
  latitude: '40.12231000'
  longitude: '45.35553000'
- name: Chambarak
  state_code: GR
  state_name: Gegharkunik
  latitude: '40.59655000'
  longitude: '45.35498000'
- name: Ddmashen
  state_code: GR
  state_name: Gegharkunik
  latitude: '40.57028000'
  longitude: '44.82295000'
- name: Drakhtik
  state_code: GR
  state_name: Gegharkunik
  latitude: '40.56497000'
  longitude: '45.23670000'
- name: Dzoragyugh
  state_code: GR
  state_name: Gegharkunik
  latitude: '40.16957000'
  longitude: '45.18337000'
- name: Gagarin
  state_code: GR
  state_name: Gegharkunik
  latitude: '40.54026000'
  longitude: '44.86962000'
- name: Gandzak
  state_code: GR
  state_name: Gegharkunik
  latitude: '40.31472000'
  longitude: '45.11139000'
- name: Gavarr
  state_code: GR
  state_name: Gegharkunik
  latitude: '40.35398000'
  longitude: '45.12386000'
- name: Geghamasar
  state_code: GR
  state_name: Gegharkunik
  latitude: '40.31091000'
  longitude: '45.67924000'
- name: Geghamavan
  state_code: GR
  state_name: Gegharkunik
  latitude: '40.56250000'
  longitude: '44.88892000'
- name: Karanlukh
  state_code: GR
  state_name: Gegharkunik
  latitude: '40.10444000'
  longitude: '45.28972000'
- name: Karchaghbyur
  state_code: GR
  state_name: Gegharkunik
  latitude: '40.17048000'
  longitude: '45.57785000'
- name: Lanjaghbyur
  state_code: GR
  state_name: Gegharkunik
  latitude: '40.26947000'
  longitude: '45.14447000'
- name: Lchap’
  state_code: GR
  state_name: Gegharkunik
  latitude: '40.45569000'
  longitude: '45.07507000'
- name: Lchashen
  state_code: GR
  state_name: Gegharkunik
  latitude: '40.51947000'
  longitude: '44.93048000'
- name: Lichk’
  state_code: GR
  state_name: Gegharkunik
  latitude: '40.15933000'
  longitude: '45.23467000'
- name: Madina
  state_code: GR
  state_name: Gegharkunik
  latitude: '40.07637000'
  longitude: '45.25507000'
- name: Martuni
  state_code: GR
  state_name: Gegharkunik
  latitude: '40.08333000'
  longitude: '45.25000000'
- name: Mets Masrik
  state_code: GR
  state_name: Gegharkunik
  latitude: '40.21948000'
  longitude: '45.76391000'
- name: Nerk’in Getashen
  state_code: GR
  state_name: Gegharkunik
  latitude: '40.14172000'
  longitude: '45.27087000'
- name: Noratus
  state_code: GR
  state_name: Gegharkunik
  latitude: '40.37793000'
  longitude: '45.18048000'
- name: Sarukhan
  state_code: GR
  state_name: Gegharkunik
  latitude: '40.29169000'
  longitude: '45.13068000'
- name: Sevan
  state_code: GR
  state_name: Gegharkunik
  latitude: '40.54730000'
  longitude: '44.94171000'
- name: Tsovagyugh
  state_code: GR
  state_name: Gegharkunik
  latitude: '40.63348000'
  longitude: '44.96112000'
- name: Tsovak
  state_code: GR
  state_name: Gegharkunik
  latitude: '40.18254000'
  longitude: '45.63286000'
- name: Tsovasar
  state_code: GR
  state_name: Gegharkunik
  latitude: '40.13820000'
  longitude: '45.19096000'
- name: Tsovazard
  state_code: GR
  state_name: Gegharkunik
  latitude: '40.47510000'
  longitude: '45.05011000'
- name: Tsovinar
  state_code: GR
  state_name: Gegharkunik
  latitude: '40.15959000'
  longitude: '45.46786000'
- name: Vaghashen
  state_code: GR
  state_name: Gegharkunik
  latitude: '40.13611000'
  longitude: '45.33069000'
- name: Vahan
  state_code: GR
  state_name: Gegharkunik
  latitude: '40.57549000'
  longitude: '45.39769000'
- name: Vardenik
  state_code: GR
  state_name: Gegharkunik
  latitude: '40.13348000'
  longitude: '45.44311000'
- name: Vardenis
  state_code: GR
  state_name: Gegharkunik
  latitude: '40.18329000'
  longitude: '45.73053000'
- name: Varser
  state_code: GR
  state_name: Gegharkunik
  latitude: '40.55548000'
  longitude: '44.90832000'
- name: Verin Getashen
  state_code: GR
  state_name: Gegharkunik
  latitude: '40.13068000'
  longitude: '45.25293000'
- name: Yeranos
  state_code: GR
  state_name: Gegharkunik
  latitude: '40.20428000'
  longitude: '45.19209000'
- name: Abovyan
  state_code: KT
  state_name: Kotayk
  latitude: '40.27368000'
  longitude: '44.63348000'
- name: Aghavnadzor
  state_code: KT
  state_name: Kotayk
  latitude: '40.58195000'
  longitude: '44.69581000'
- name: Akunk’
  state_code: KT
  state_name: Kotayk
  latitude: '40.26672000'
  longitude: '44.68610000'
- name: Aramus
  state_code: KT
  state_name: Kotayk
  latitude: '40.25095000'
  longitude: '44.66351000'
- name: Argel
  state_code: KT
  state_name: Kotayk
  latitude: '40.37793000'
  longitude: '44.60010000'
- name: Arzakan
  state_code: KT
  state_name: Kotayk
  latitude: '40.45007000'
  longitude: '44.60828000'
- name: Arzni
  state_code: KT
  state_name: Kotayk
  latitude: '40.29730000'
  longitude: '44.59869000'
- name: Balahovit
  state_code: KT
  state_name: Kotayk
  latitude: '40.25153000'
  longitude: '44.60828000'
- name: Bjni
  state_code: KT
  state_name: Kotayk
  latitude: '40.45831000'
  longitude: '44.65008000'
- name: Buzhakan
  state_code: KT
  state_name: Kotayk
  latitude: '40.45569000'
  longitude: '44.51947000'
- name: Byureghavan
  state_code: KT
  state_name: Kotayk
  latitude: '40.31417000'
  longitude: '44.59333000'
- name: Dzoraghbyur
  state_code: KT
  state_name: Kotayk
  latitude: '40.20412000'
  longitude: '44.64150000'
- name: Fantan
  state_code: KT
  state_name: Kotayk
  latitude: '40.39447000'
  longitude: '44.68610000'
- name: Garrni
  state_code: KT
  state_name: Kotayk
  latitude: '40.11931000'
  longitude: '44.73442000'
- name: Goght’
  state_code: KT
  state_name: Kotayk
  latitude: '40.13470000'
  longitude: '44.78332000'
- name: Hrazdan
  state_code: KT
  state_name: Kotayk
  latitude: '40.49748000'
  longitude: '44.76620000'
- name: Kaputan
  state_code: KT
  state_name: Kotayk
  latitude: '40.32507000'
  longitude: '44.70007000'
- name: Kotayk’
  state_code: KT
  state_name: Kotayk
  latitude: '40.27789000'
  longitude: '44.66388000'
- name: Lerrnanist
  state_code: KT
  state_name: Kotayk
  latitude: '40.46676000'
  longitude: '44.79249000'
- name: Mayakovski
  state_code: KT
  state_name: Kotayk
  latitude: '40.25293000'
  longitude: '44.63892000'
- name: Meghradzor
  state_code: KT
  state_name: Kotayk
  latitude: '40.60611000'
  longitude: '44.65147000'
- name: Mrgashen
  state_code: KT
  state_name: Kotayk
  latitude: '40.28607000'
  longitude: '44.54449000'
- name: Nor Geghi
  state_code: KT
  state_name: Kotayk
  latitude: '40.32233000'
  longitude: '44.58331000'
- name: Nor Gyugh
  state_code: KT
  state_name: Kotayk
  latitude: '40.26672000'
  longitude: '44.65832000'
- name: Prroshyan
  state_code: KT
  state_name: Kotayk
  latitude: '40.24731000'
  longitude: '44.41949000'
- name: Ptghni
  state_code: KT
  state_name: Kotayk
  latitude: '40.25568000'
  longitude: '44.58612000'
- name: Solak
  state_code: KT
  state_name: Kotayk
  latitude: '40.46252000'
  longitude: '44.70709000'
- name: Tsaghkadzor
  state_code: KT
  state_name: Kotayk
  latitude: '40.53259000'
  longitude: '44.72025000'
- name: Yeghvard
  state_code: KT
  state_name: Kotayk
  latitude: '40.32507000'
  longitude: '44.48608000'
- name: Zarr
  state_code: KT
  state_name: Kotayk
  latitude: '40.25848000'
  longitude: '44.73328000'
- name: Zoravan
  state_code: KT
  state_name: Kotayk
  latitude: '40.35553000'
  longitude: '44.52228000'
- name: Zovaber
  state_code: KT
  state_name: Kotayk
  latitude: '40.56671000'
  longitude: '44.79028000'
- name: Agarak
  state_code: LO
  state_name: Lori
  latitude: '41.01072000'
  longitude: '44.46845000'
- name: Akht’ala
  state_code: LO
  state_name: Lori
  latitude: '41.16838000'
  longitude: '44.75811000'
- name: Alaverdi
  state_code: LO
  state_name: Lori
  latitude: '41.09766000'
  longitude: '44.67316000'
- name: Arevashogh
  state_code: LO
  state_name: Lori
  latitude: '40.86039000'
  longitude: '44.27438000'
- name: Bazum
  state_code: LO
  state_name: Lori
  latitude: '40.86763000'
  longitude: '44.43978000'
- name: Chochkan
  state_code: LO
  state_name: Lori
  latitude: '41.18118000'
  longitude: '44.83217000'
- name: Darpas
  state_code: LO
  state_name: Lori
  latitude: '40.83674000'
  longitude: '44.42494000'
- name: Dsegh
  state_code: LO
  state_name: Lori
  latitude: '40.96170000'
  longitude: '44.65003000'
- name: Fioletovo
  state_code: LO
  state_name: Lori
  latitude: '40.72241000'
  longitude: '44.71769000'
- name: Gogaran
  state_code: LO
  state_name: Lori
  latitude: '40.89255000'
  longitude: '44.19915000'
- name: Gugark’
  state_code: LO
  state_name: Lori
  latitude: '40.80460000'
  longitude: '44.54025000'
- name: Gyulagarak
  state_code: LO
  state_name: Lori
  latitude: '40.96715000'
  longitude: '44.47144000'
- name: Jrashen
  state_code: LO
  state_name: Lori
  latitude: '40.79028000'
  longitude: '44.18664000'
- name: Lerrnants’k’
  state_code: LO
  state_name: Lori
  latitude: '40.79532000'
  longitude: '44.27435000'
- name: Lerrnapat
  state_code: LO
  state_name: Lori
  latitude: '40.81538000'
  longitude: '44.39344000'
- name: Lerrnavan
  state_code: LO
  state_name: Lori
  latitude: '40.78820000'
  longitude: '44.16024000'
- name: Lorut
  state_code: LO
  state_name: Lori
  latitude: '40.93717000'
  longitude: '44.77142000'
- name: Margahovit
  state_code: LO
  state_name: Lori
  latitude: '40.73381000'
  longitude: '44.68474000'
- name: Mets Parni
  state_code: LO
  state_name: Lori
  latitude: '40.83472000'
  longitude: '44.11108000'
- name: Metsavan
  state_code: LO
  state_name: Lori
  latitude: '41.20156000'
  longitude: '44.22877000'
- name: Norashen
  state_code: LO
  state_name: Lori
  latitude: '41.18886000'
  longitude: '44.33336000'
- name: Odzun
  state_code: LO
  state_name: Lori
  latitude: '41.05321000'
  longitude: '44.61341000'
- name: Sarahart’
  state_code: LO
  state_name: Lori
  latitude: '40.87043000'
  longitude: '44.21407000'
- name: Saramej
  state_code: LO
  state_name: Lori
  latitude: '40.77487000'
  longitude: '44.22220000'
- name: Shahumyan
  state_code: LO
  state_name: Lori
  latitude: '40.77482000'
  longitude: '44.54596000'
- name: Shirakamut
  state_code: LO
  state_name: Lori
  latitude: '40.86056000'
  longitude: '44.15278000'
- name: Shnogh
  state_code: LO
  state_name: Lori
  latitude: '41.14693000'
  longitude: '44.84043000'
- name: Spitak
  state_code: LO
  state_name: Lori
  latitude: '40.83221000'
  longitude: '44.26731000'
- name: Step’anavan
  state_code: LO
  state_name: Lori
  latitude: '41.00995000'
  longitude: '44.38531000'
- name: Tashir
  state_code: LO
  state_name: Lori
  latitude: '41.12072000'
  longitude: '44.28462000'
- name: Tsaghkaber
  state_code: LO
  state_name: Lori
  latitude: '40.79849000'
  longitude: '44.10144000'
- name: Urrut
  state_code: LO
  state_name: Lori
  latitude: '41.06778000'
  longitude: '44.39628000'
- name: Vahagni
  state_code: LO
  state_name: Lori
  latitude: '40.90698000'
  longitude: '44.60873000'
- name: Vanadzor
  state_code: LO
  state_name: Lori
  latitude: '40.80456000'
  longitude: '44.49390000'
- name: Vardablur
  state_code: LO
  state_name: Lori
  latitude: '40.97083000'
  longitude: '44.50889000'
- name: Yeghegnut
  state_code: LO
  state_name: Lori
  latitude: '40.90302000'
  longitude: '44.63155000'
- name: Akhuryan
  state_code: SH
  state_name: Shirak
  latitude: '40.78003000'
  longitude: '43.90027000'
- name: Amasia
  state_code: SH
  state_name: Shirak
  latitude: '40.95442000'
  longitude: '43.78720000'
- name: Anushavan
  state_code: SH
  state_name: Shirak
  latitude: '40.65008000'
  longitude: '43.98053000'
- name: Arevik
  state_code: SH
  state_name: Shirak
  latitude: '40.74170000'
  longitude: '43.90430000'
- name: Arevshat
  state_code: SH
  state_name: Shirak
  latitude: '40.65345000'
  longitude: '44.04419000'
- name: Arrap’i
  state_code: SH
  state_name: Shirak
  latitude: '40.78276000'
  longitude: '43.80583000'
- name: Azatan
  state_code: SH
  state_name: Shirak
  latitude: '40.71959000'
  longitude: '43.82727000'
- name: Basen
  state_code: SH
  state_name: Shirak
  latitude: '40.75767000'
  longitude: '43.99274000'
- name: Dzit’hank’ov
  state_code: SH
  state_name: Shirak
  latitude: '40.50848000'
  longitude: '43.82092000'
- name: Gyumri
  state_code: SH
  state_name: Shirak
  latitude: '40.79420000'
  longitude: '43.84528000'
- name: Haykavan
  state_code: SH
  state_name: Shirak
  latitude: '40.80312000'
  longitude: '43.75173000'
- name: Horrom
  state_code: SH
  state_name: Shirak
  latitude: '40.65973000'
  longitude: '43.89032000'
- name: Kamo
  state_code: SH
  state_name: Shirak
  latitude: '40.82572000'
  longitude: '43.95071000'
- name: Lerrnakert
  state_code: SH
  state_name: Shirak
  latitude: '40.56250000'
  longitude: '43.93890000'
- name: Maralik
  state_code: SH
  state_name: Shirak
  latitude: '40.57507000'
  longitude: '43.87231000'
- name: Marmashen
  state_code: SH
  state_name: Shirak
  latitude: '40.83486000'
  longitude: '43.77790000'
- name: Mayisyan
  state_code: SH
  state_name: Shirak
  latitude: '40.84715000'
  longitude: '43.83938000'
- name: Meghrashen
  state_code: SH
  state_name: Shirak
  latitude: '40.67230000'
  longitude: '43.95831000'
- name: Mets Mant’ash
  state_code: SH
  state_name: Shirak
  latitude: '40.64376000'
  longitude: '44.05653000'
- name: P’ok’r Mant’ash
  state_code: SH
  state_name: Shirak
  latitude: '40.64026000'
  longitude: '44.04666000'
- name: Pemzashen
  state_code: SH
  state_name: Shirak
  latitude: '40.58612000'
  longitude: '43.94311000'
- name: Saratak
  state_code: SH
  state_name: Shirak
  latitude: '40.67090000'
  longitude: '43.87231000'
- name: Shirak
  state_code: SH
  state_name: Shirak
  latitude: '40.84042000'
  longitude: '43.91582000'
- name: Spandaryan
  state_code: SH
  state_name: Shirak
  latitude: '40.66105000'
  longitude: '44.01551000'
- name: Voskehask
  state_code: SH
  state_name: Shirak
  latitude: '40.76426000'
  longitude: '43.77474000'
- name: Yerazgavors
  state_code: SH
  state_name: Shirak
  latitude: '40.69505000'
  longitude: '43.74722000'
- name: Agarak
  state_code: SU
  state_name: Syunik
  latitude: '39.20684000'
  longitude: '46.54460000'
- name: Akner
  state_code: SU
  state_name: Syunik
  latitude: '39.53491000'
  longitude: '46.30732000'
- name: Angeghakot’
  state_code: SU
  state_name: Syunik
  latitude: '39.56952000'
  longitude: '45.94452000'
- name: Brrnakot’
  state_code: SU
  state_name: Syunik
  latitude: '39.49742000'
  longitude: '45.97241000'
- name: Dzorastan
  state_code: SU
  state_name: Syunik
  latitude: '39.27059000'
  longitude: '46.35720000'
- name: Goris
  state_code: SU
  state_name: Syunik
  latitude: '39.51111000'
  longitude: '46.34168000'
- name: Hats’avan
  state_code: SU
  state_name: Syunik
  latitude: '39.46405000'
  longitude: '45.97047000'
- name: Kapan
  state_code: SU
  state_name: Syunik
  latitude: '39.20755000'
  longitude: '46.40576000'
- name: Khndzoresk
  state_code: SU
  state_name: Syunik
  latitude: '39.50568000'
  longitude: '46.43610000'
- name: Meghri
  state_code: SU
  state_name: Syunik
  latitude: '38.90292000'
  longitude: '46.24458000'
- name: Shaghat
  state_code: SU
  state_name: Syunik
  latitude: '39.55698000'
  longitude: '45.90727000'
- name: Shinuhayr
  state_code: SU
  state_name: Syunik
  latitude: '39.43670000'
  longitude: '46.31787000'
- name: Tegh
  state_code: SU
  state_name: Syunik
  latitude: '39.55826000'
  longitude: '46.48054000'
- name: Verishen
  state_code: SU
  state_name: Syunik
  latitude: '39.53543000'
  longitude: '46.32063000'
- name: Archis
  state_code: TV
  state_name: Tavush
  latitude: '41.16351000'
  longitude: '44.87631000'
- name: Artsvaberd
  state_code: TV
  state_name: Tavush
  latitude: '40.83947000'
  longitude: '45.47033000'
- name: Aygehovit
  state_code: TV
  state_name: Tavush
  latitude: '40.97951000'
  longitude: '45.25033000'
- name: Azatamut
  state_code: TV
  state_name: Tavush
  latitude: '40.98204000'
  longitude: '45.18551000'
- name: Bagratashen
  state_code: TV
  state_name: Tavush
  latitude: '41.24358000'
  longitude: '44.81737000'
- name: Berd
  state_code: TV
  state_name: Tavush
  latitude: '40.88135000'
  longitude: '45.38901000'
- name: Berdavan
  state_code: TV
  state_name: Tavush
  latitude: '41.20503000'
  longitude: '44.99967000'
- name: Dilijan
  state_code: TV
  state_name: Tavush
  latitude: '40.74170000'
  longitude: '44.85010000'
- name: Haghartsin
  state_code: TV
  state_name: Tavush
  latitude: '40.77614000'
  longitude: '44.96847000'
- name: Ijevan
  state_code: TV
  state_name: Tavush
  latitude: '40.87877000'
  longitude: '45.14851000'
- name: Khasht’arrak
  state_code: TV
  state_name: Tavush
  latitude: '40.93668000'
  longitude: '45.18210000'
- name: Mosesgegh
  state_code: TV
  state_name: Tavush
  latitude: '40.90534000'
  longitude: '45.48838000'
- name: Navur
  state_code: TV
  state_name: Tavush
  latitude: '40.86695000'
  longitude: '45.34179000'
- name: Noyemberyan
  state_code: TV
  state_name: Tavush
  latitude: '41.17244000'
  longitude: '44.99917000'
- name: Parravak’ar
  state_code: TV
  state_name: Tavush
  latitude: '40.98248000'
  longitude: '45.36696000'
- name: Sarigyugh
  state_code: TV
  state_name: Tavush
  latitude: '41.03531000'
  longitude: '45.14486000'
- name: Voskevan
  state_code: TV
  state_name: Tavush
  latitude: '41.12081000'
  longitude: '45.06381000'
- name: Agarakadzor
  state_code: VD
  state_name: Vayots Dzor
  latitude: '39.73608000'
  longitude: '45.35553000'
- name: Aghavnadzor
  state_code: VD
  state_name: Vayots Dzor
  latitude: '39.78607000'
  longitude: '45.22790000'
- name: Areni
  state_code: VD
  state_name: Vayots Dzor
  latitude: '39.71668000'
  longitude: '45.18329000'
- name: Getap’
  state_code: VD
  state_name: Vayots Dzor
  latitude: '39.76392000'
  longitude: '45.30829000'
- name: Gladzor
  state_code: VD
  state_name: Vayots Dzor
  latitude: '39.78070000'
  longitude: '45.34729000'
- name: Jermuk
  state_code: VD
  state_name: Vayots Dzor
  latitude: '39.84168000'
  longitude: '45.66949000'
- name: Malishka
  state_code: VD
  state_name: Vayots Dzor
  latitude: '39.74731000'
  longitude: '45.40570000'
- name: Rrind
  state_code: VD
  state_name: Vayots Dzor
  latitude: '39.76111000'
  longitude: '45.17792000'
- name: Shatin
  state_code: VD
  state_name: Vayots Dzor
  latitude: '39.83612000'
  longitude: '45.30292000'
- name: Vayk’
  state_code: VD
  state_name: Vayots Dzor
  latitude: '39.68890000'
  longitude: '45.46668000'
- name: Vernashen
  state_code: VD
  state_name: Vayots Dzor
  latitude: '39.79236000'
  longitude: '45.36389000'
- name: Yeghegis
  state_code: VD
  state_name: Vayots Dzor
  latitude: '39.87231000'
  longitude: '45.35010000'
- name: Yeghegnadzor
  state_code: VD
  state_name: Vayots Dzor
  latitude: '39.76389000'
  longitude: '45.33239000'
- name: Zarrit’ap’
  state_code: VD
  state_name: Vayots Dzor
  latitude: '39.63892000'
  longitude: '45.51111000'
- name: Arabkir
  state_code: ER
  state_name: Yerevan
  latitude: '40.20549000'
  longitude: '44.50699000'
- name: Argavand
  state_code: ER
  state_name: Yerevan
  latitude: '40.15289000'
  longitude: '44.43890000'
- name: Jrashen
  state_code: ER
  state_name: Yerevan
  latitude: '40.05275000'
  longitude: '44.51259000'
- name: K’anak’erravan
  state_code: ER
  state_name: Yerevan
  latitude: '40.24739000'
  longitude: '44.53511000'
- name: Vardadzor
  state_code: ER
  state_name: Yerevan
  latitude: '40.18701000'
  longitude: '45.19212000'
- name: Yerevan
  state_code: ER
  state_name: Yerevan
  latitude: '40.18111000'
  longitude: '44.51361000'
