---
- name: Bansko
  state_code: '01'
  state_name: Blagoevgrad
  latitude: '41.83830000'
  longitude: '23.48851000'
- name: Belitsa
  state_code: '01'
  state_name: Blagoevgrad
  latitude: '41.95694000'
  longitude: '23.57250000'
- name: Blagoevgrad
  state_code: '01'
  state_name: Blagoevgrad
  latitude: '42.01667000'
  longitude: '23.10000000'
- name: Garmen
  state_code: '01'
  state_name: Blagoevgrad
  latitude: '41.60000000'
  longitude: '23.81667000'
- name: Gotse Delchev
  state_code: '01'
  state_name: Blagoevgrad
  latitude: '41.56667000'
  longitude: '23.73333000'
- name: Hadzhidimovo
  state_code: '01'
  state_name: Blagoevgrad
  latitude: '41.52222000'
  longitude: '23.86861000'
- name: Kolarovo
  state_code: '01'
  state_name: Blagoevgrad
  latitude: '41.36385000'
  longitude: '23.10669000'
- name: Kresna
  state_code: '01'
  state_name: Blagoevgrad
  latitude: '41.73333000'
  longitude: '23.15000000'
- name: Obshtina Bansko
  state_code: '01'
  state_name: Blagoevgrad
  latitude: '41.80000000'
  longitude: '23.60000000'
- name: Obshtina Belitsa
  state_code: '01'
  state_name: Blagoevgrad
  latitude: '42.01667000'
  longitude: '23.58333000'
- name: Obshtina Blagoevgrad
  state_code: '01'
  state_name: Blagoevgrad
  latitude: '42.01667000'
  longitude: '23.16667000'
- name: Obshtina Garmen
  state_code: '01'
  state_name: Blagoevgrad
  latitude: '41.70000000'
  longitude: '23.85000000'
- name: Obshtina Gotse Delchev
  state_code: '01'
  state_name: Blagoevgrad
  latitude: '41.63333000'
  longitude: '23.68333000'
- name: Obshtina Kresna
  state_code: '01'
  state_name: Blagoevgrad
  latitude: '41.76667000'
  longitude: '23.23333000'
- name: Obshtina Petrich
  state_code: '01'
  state_name: Blagoevgrad
  latitude: '41.45000000'
  longitude: '23.16667000'
- name: Obshtina Razlog
  state_code: '01'
  state_name: Blagoevgrad
  latitude: '41.95000000'
  longitude: '23.46667000'
- name: Obshtina Sandanski
  state_code: '01'
  state_name: Blagoevgrad
  latitude: '41.56667000'
  longitude: '23.45000000'
- name: Obshtina Satovcha
  state_code: '01'
  state_name: Blagoevgrad
  latitude: '41.59848000'
  longitude: '24.00781000'
- name: Obshtina Simitli
  state_code: '01'
  state_name: Blagoevgrad
  latitude: '41.88333000'
  longitude: '23.16667000'
- name: Obshtina Strumyani
  state_code: '01'
  state_name: Blagoevgrad
  latitude: '41.63333000'
  longitude: '23.20000000'
- name: Obshtina Yakoruda
  state_code: '01'
  state_name: Blagoevgrad
  latitude: '42.08333000'
  longitude: '23.70000000'
- name: Petrich
  state_code: '01'
  state_name: Blagoevgrad
  latitude: '41.39846000'
  longitude: '23.20702000'
- name: Razlog
  state_code: '01'
  state_name: Blagoevgrad
  latitude: '41.88630000'
  longitude: '23.46714000'
- name: Sandanski
  state_code: '01'
  state_name: Blagoevgrad
  latitude: '41.56667000'
  longitude: '23.28333000'
- name: Satovcha
  state_code: '01'
  state_name: Blagoevgrad
  latitude: '41.61667000'
  longitude: '23.98333000'
- name: Simitli
  state_code: '01'
  state_name: Blagoevgrad
  latitude: '41.88333000'
  longitude: '23.11667000'
- name: Stara Kresna
  state_code: '01'
  state_name: Blagoevgrad
  latitude: '41.80000000'
  longitude: '23.18333000'
- name: Strumyani
  state_code: '01'
  state_name: Blagoevgrad
  latitude: '41.63333000'
  longitude: '23.20000000'
- name: Yakoruda
  state_code: '01'
  state_name: Blagoevgrad
  latitude: '42.02528000'
  longitude: '23.68417000'
- name: Aheloy
  state_code: '02'
  state_name: Burgas
  latitude: '42.64987000'
  longitude: '27.64838000'
- name: Ahtopol
  state_code: '02'
  state_name: Burgas
  latitude: '42.09768000'
  longitude: '27.93961000'
- name: Aytos
  state_code: '02'
  state_name: Burgas
  latitude: '42.70000000'
  longitude: '27.25000000'
- name: Bata
  state_code: '02'
  state_name: Burgas
  latitude: '42.73802000'
  longitude: '27.49643000'
- name: Burgas
  state_code: '02'
  state_name: Burgas
  latitude: '42.50606000'
  longitude: '27.46781000'
- name: Chernomorets
  state_code: '02'
  state_name: Burgas
  latitude: '42.44408000'
  longitude: '27.63902000'
- name: Kameno
  state_code: '02'
  state_name: Burgas
  latitude: '42.57084000'
  longitude: '27.29875000'
- name: Karnobat
  state_code: '02'
  state_name: Burgas
  latitude: '42.65000000'
  longitude: '26.98333000'
- name: Kiten
  state_code: '02'
  state_name: Burgas
  latitude: '42.23424000'
  longitude: '27.77490000'
- name: Malko Tarnovo
  state_code: '02'
  state_name: Burgas
  latitude: '41.97958000'
  longitude: '27.52477000'
- name: Nesebar
  state_code: '02'
  state_name: Burgas
  latitude: '42.65921000'
  longitude: '27.73602000'
- name: Obshtina Aytos
  state_code: '02'
  state_name: Burgas
  latitude: '42.70000000'
  longitude: '27.25000000'
- name: Obshtina Burgas
  state_code: '02'
  state_name: Burgas
  latitude: '42.50000000'
  longitude: '27.46667000'
- name: Obshtina Kameno
  state_code: '02'
  state_name: Burgas
  latitude: '42.51667000'
  longitude: '27.18333000'
- name: Obshtina Karnobat
  state_code: '02'
  state_name: Burgas
  latitude: '42.65000000'
  longitude: '26.98333000'
- name: Obshtina Malko Tarnovo
  state_code: '02'
  state_name: Burgas
  latitude: '42.08333000'
  longitude: '27.53333000'
- name: Obshtina Nesebar
  state_code: '02'
  state_name: Burgas
  latitude: '42.78333000'
  longitude: '27.73333000'
- name: Obshtina Pomorie
  state_code: '02'
  state_name: Burgas
  latitude: '42.73333000'
  longitude: '27.55000000'
- name: Obshtina Primorsko
  state_code: '02'
  state_name: Burgas
  latitude: '42.25000000'
  longitude: '27.63333000'
- name: Obshtina Sozopol
  state_code: '02'
  state_name: Burgas
  latitude: '42.31123000'
  longitude: '27.51733000'
- name: Obshtina Sungurlare
  state_code: '02'
  state_name: Burgas
  latitude: '42.83333000'
  longitude: '26.83333000'
- name: Obzor
  state_code: '02'
  state_name: Burgas
  latitude: '42.81998000'
  longitude: '27.88007000'
- name: Pomorie
  state_code: '02'
  state_name: Burgas
  latitude: '42.56326000'
  longitude: '27.62986000'
- name: Primorsko
  state_code: '02'
  state_name: Burgas
  latitude: '42.26791000'
  longitude: '27.75611000'
- name: Ravda
  state_code: '02'
  state_name: Burgas
  latitude: '42.64185000'
  longitude: '27.67713000'
- name: Ruen
  state_code: '02'
  state_name: Burgas
  latitude: '42.80000000'
  longitude: '27.28333000'
- name: Sarafovo
  state_code: '02'
  state_name: Burgas
  latitude: '42.56079000'
  longitude: '27.52195000'
- name: Sozopol
  state_code: '02'
  state_name: Burgas
  latitude: '42.41801000'
  longitude: '27.69560000'
- name: Sredets
  state_code: '02'
  state_name: Burgas
  latitude: '42.34747000'
  longitude: '27.17898000'
- name: Sungurlare
  state_code: '02'
  state_name: Burgas
  latitude: '42.76667000'
  longitude: '26.78333000'
- name: Sveti Vlas
  state_code: '02'
  state_name: Burgas
  latitude: '42.71360000'
  longitude: '27.75867000'
- name: Tsarevo
  state_code: '02'
  state_name: Burgas
  latitude: '42.16955000'
  longitude: '27.84541000'
- name: Balchik
  state_code: '08'
  state_name: Dobrich
  latitude: '43.42166000'
  longitude: '28.15848000'
- name: Dobrich
  state_code: '08'
  state_name: Dobrich
  latitude: '43.56667000'
  longitude: '27.83333000'
- name: General Toshevo
  state_code: '08'
  state_name: Dobrich
  latitude: '43.70123000'
  longitude: '28.03787000'
- name: Kavarna
  state_code: '08'
  state_name: Dobrich
  latitude: '43.43601000'
  longitude: '28.33953000'
- name: Krushari
  state_code: '08'
  state_name: Dobrich
  latitude: '43.81675000'
  longitude: '27.75552000'
- name: Obshtina Balchik
  state_code: '08'
  state_name: Dobrich
  latitude: '43.50000000'
  longitude: '28.13333000'
- name: Obshtina Dobrich
  state_code: '08'
  state_name: Dobrich
  latitude: '43.57763000'
  longitude: '27.80628000'
- name: Obshtina Dobrich-Selska
  state_code: '08'
  state_name: Dobrich
  latitude: '43.63333000'
  longitude: '27.73333000'
- name: Obshtina General Toshevo
  state_code: '08'
  state_name: Dobrich
  latitude: '43.73333000'
  longitude: '28.08333000'
- name: Obshtina Kavarna
  state_code: '08'
  state_name: Dobrich
  latitude: '43.50000000'
  longitude: '28.38333000'
- name: Obshtina Krushari
  state_code: '08'
  state_name: Dobrich
  latitude: '43.88333000'
  longitude: '27.75000000'
- name: Obshtina Shabla
  state_code: '08'
  state_name: Dobrich
  latitude: '43.61667000'
  longitude: '28.51667000'
- name: Obshtina Tervel
  state_code: '08'
  state_name: Dobrich
  latitude: '43.75000000'
  longitude: '27.40000000'
- name: Shabla
  state_code: '08'
  state_name: Dobrich
  latitude: '43.53983000'
  longitude: '28.53429000'
- name: Tervel
  state_code: '08'
  state_name: Dobrich
  latitude: '43.74789000'
  longitude: '27.40911000'
- name: Dryanovo
  state_code: '07'
  state_name: Gabrovo
  latitude: '42.97897000'
  longitude: '25.47850000'
- name: Gabrovo
  state_code: '07'
  state_name: Gabrovo
  latitude: '42.87472000'
  longitude: '25.33417000'
- name: Obshtina Dryanovo
  state_code: '07'
  state_name: Gabrovo
  latitude: '43.00000000'
  longitude: '25.46667000'
- name: Obshtina Gabrovo
  state_code: '07'
  state_name: Gabrovo
  latitude: '42.90000000'
  longitude: '25.30000000'
- name: Obshtina Sevlievo
  state_code: '07'
  state_name: Gabrovo
  latitude: '43.01667000'
  longitude: '25.10000000'
- name: Obshtina Tryavna
  state_code: '07'
  state_name: Gabrovo
  latitude: '42.85000000'
  longitude: '25.55000000'
- name: Sevlievo
  state_code: '07'
  state_name: Gabrovo
  latitude: '43.02583000'
  longitude: '25.11361000'
- name: Tryavna
  state_code: '07'
  state_name: Gabrovo
  latitude: '42.86667000'
  longitude: '25.50000000'
- name: Dimitrovgrad
  state_code: '26'
  state_name: Haskovo
  latitude: '42.05000000'
  longitude: '25.60000000'
- name: Harmanli
  state_code: '26'
  state_name: Haskovo
  latitude: '41.93333000'
  longitude: '25.90000000'
- name: Haskovo
  state_code: '26'
  state_name: Haskovo
  latitude: '41.93415000'
  longitude: '25.55557000'
- name: Ivaylovgrad
  state_code: '26'
  state_name: Haskovo
  latitude: '41.52672000'
  longitude: '26.12490000'
- name: Lyubimets
  state_code: '26'
  state_name: Haskovo
  latitude: '41.83333000'
  longitude: '26.08333000'
- name: Madzharovo
  state_code: '26'
  state_name: Haskovo
  latitude: '41.63461000'
  longitude: '25.86439000'
- name: Mineralni Bani
  state_code: '26'
  state_name: Haskovo
  latitude: '41.91667000'
  longitude: '25.35000000'
- name: Obshtina Dimitrovgrad
  state_code: '26'
  state_name: Haskovo
  latitude: '42.05000000'
  longitude: '25.60000000'
- name: Obshtina Harmanli
  state_code: '26'
  state_name: Haskovo
  latitude: '41.93333000'
  longitude: '25.98333000'
- name: Obshtina Haskovo
  state_code: '26'
  state_name: Haskovo
  latitude: '41.88333000'
  longitude: '25.61667000'
- name: Obshtina Ivaylovgrad
  state_code: '26'
  state_name: Haskovo
  latitude: '41.48333000'
  longitude: '26.00000000'
- name: Obshtina Madzharovo
  state_code: '26'
  state_name: Haskovo
  latitude: '41.68333000'
  longitude: '25.90000000'
- name: Obshtina Mineralni Bani
  state_code: '26'
  state_name: Haskovo
  latitude: '41.90000000'
  longitude: '25.33333000'
- name: Obshtina Stambolovo
  state_code: '26'
  state_name: Haskovo
  latitude: '41.73333000'
  longitude: '25.70000000'
- name: Obshtina Svilengrad
  state_code: '26'
  state_name: Haskovo
  latitude: '41.86667000'
  longitude: '26.31667000'
- name: Obshtina Topolovgrad
  state_code: '26'
  state_name: Haskovo
  latitude: '42.08333000'
  longitude: '26.33333000'
- name: Simeonovgrad
  state_code: '26'
  state_name: Haskovo
  latitude: '42.03333000'
  longitude: '25.83333000'
- name: Svilengrad
  state_code: '26'
  state_name: Haskovo
  latitude: '41.76667000'
  longitude: '26.20000000'
- name: Topolovgrad
  state_code: '26'
  state_name: Haskovo
  latitude: '42.08333000'
  longitude: '26.33333000'
- name: Ardino
  state_code: '09'
  state_name: Kardzhali
  latitude: '41.58333000'
  longitude: '25.13333000'
- name: Dzhebel
  state_code: '09'
  state_name: Kardzhali
  latitude: '41.49566000'
  longitude: '25.30363000'
- name: Kardzhali
  state_code: '09'
  state_name: Kardzhali
  latitude: '41.65000000'
  longitude: '25.36667000'
- name: Kirkovo
  state_code: '09'
  state_name: Kardzhali
  latitude: '41.32715000'
  longitude: '25.36379000'
- name: Krumovgrad
  state_code: '09'
  state_name: Kardzhali
  latitude: '41.47127000'
  longitude: '25.65485000'
- name: Obshtina Ardino
  state_code: '09'
  state_name: Kardzhali
  latitude: '41.60000000'
  longitude: '25.15000000'
- name: Obshtina Chernoochene
  state_code: '09'
  state_name: Kardzhali
  latitude: '41.78333000'
  longitude: '25.25000000'
- name: Obshtina Dzhebel
  state_code: '09'
  state_name: Kardzhali
  latitude: '41.50000000'
  longitude: '25.26667000'
- name: Obshtina Kardzhali
  state_code: '09'
  state_name: Kardzhali
  latitude: '41.68333000'
  longitude: '25.43333000'
- name: Obshtina Kirkovo
  state_code: '09'
  state_name: Kardzhali
  latitude: '41.35816000'
  longitude: '25.33731000'
- name: Obshtina Momchilgrad
  state_code: '09'
  state_name: Kardzhali
  latitude: '41.53333000'
  longitude: '25.50000000'
- name: Boboshevo
  state_code: '10'
  state_name: Kyustendil
  latitude: '42.15296000'
  longitude: '23.00146000'
- name: Bobov Dol
  state_code: '10'
  state_name: Kyustendil
  latitude: '42.36256000'
  longitude: '23.00324000'
- name: Dupnitsa
  state_code: '10'
  state_name: Kyustendil
  latitude: '42.26667000'
  longitude: '23.11667000'
- name: Kocherinovo
  state_code: '10'
  state_name: Kyustendil
  latitude: '42.08439000'
  longitude: '23.05710000'
- name: Kyustendil
  state_code: '10'
  state_name: Kyustendil
  latitude: '42.28389000'
  longitude: '22.69111000'
- name: Nevestino
  state_code: '10'
  state_name: Kyustendil
  latitude: '42.25551000'
  longitude: '22.85175000'
- name: Obshtina Boboshevo
  state_code: '10'
  state_name: Kyustendil
  latitude: '42.18333000'
  longitude: '23.02731000'
- name: Obshtina Bobov Dol
  state_code: '10'
  state_name: Kyustendil
  latitude: '42.31667000'
  longitude: '22.98333000'
- name: Obshtina Dupnitsa
  state_code: '10'
  state_name: Kyustendil
  latitude: '42.28333000'
  longitude: '23.15000000'
- name: Obshtina Kocherinovo
  state_code: '10'
  state_name: Kyustendil
  latitude: '42.09909000'
  longitude: '23.02942000'
- name: Obshtina Kyustendil
  state_code: '10'
  state_name: Kyustendil
  latitude: '42.28333000'
  longitude: '22.68333000'
- name: Obshtina Nevestino
  state_code: '10'
  state_name: Kyustendil
  latitude: '42.16667000'
  longitude: '22.83333000'
- name: Obshtina Rila
  state_code: '10'
  state_name: Kyustendil
  latitude: '42.15000000'
  longitude: '23.31667000'
- name: Obshtina Sapareva Banya
  state_code: '10'
  state_name: Kyustendil
  latitude: '42.28333000'
  longitude: '23.31667000'
- name: Obshtina Treklyano
  state_code: '10'
  state_name: Kyustendil
  latitude: '42.55000000'
  longitude: '22.60000000'
- name: Rila
  state_code: '10'
  state_name: Kyustendil
  latitude: '42.13333000'
  longitude: '23.13333000'
- name: Sapareva Banya
  state_code: '10'
  state_name: Kyustendil
  latitude: '42.28333000'
  longitude: '23.26667000'
- name: Apriltsi
  state_code: '11'
  state_name: Lovech
  latitude: '42.84142000'
  longitude: '24.91759000'
- name: Letnitsa
  state_code: '11'
  state_name: Lovech
  latitude: '43.31167000'
  longitude: '25.07333000'
- name: Lovech
  state_code: '11'
  state_name: Lovech
  latitude: '43.13333000'
  longitude: '24.71667000'
- name: Lukovit
  state_code: '11'
  state_name: Lovech
  latitude: '43.20000000'
  longitude: '24.16667000'
- name: Obshtina Lovech
  state_code: '11'
  state_name: Lovech
  latitude: '43.16667000'
  longitude: '24.80000000'
- name: Obshtina Teteven
  state_code: '11'
  state_name: Lovech
  latitude: '42.91667000'
  longitude: '24.26667000'
- name: Obshtina Ugarchin
  state_code: '11'
  state_name: Lovech
  latitude: '43.10000000'
  longitude: '24.41667000'
- name: Teteven
  state_code: '11'
  state_name: Lovech
  latitude: '42.91667000'
  longitude: '24.26667000'
- name: Troyan
  state_code: '11'
  state_name: Lovech
  latitude: '42.89427000'
  longitude: '24.71589000'
- name: Ugarchin
  state_code: '11'
  state_name: Lovech
  latitude: '43.10000000'
  longitude: '24.41667000'
- name: Yablanitsa
  state_code: '11'
  state_name: Lovech
  latitude: '43.03139000'
  longitude: '24.11278000'
- name: Berkovitsa
  state_code: '12'
  state_name: Montana
  latitude: '43.23581000'
  longitude: '23.12738000'
- name: Boychinovtsi
  state_code: '12'
  state_name: Montana
  latitude: '43.47222000'
  longitude: '23.33583000'
- name: Brusartsi
  state_code: '12'
  state_name: Montana
  latitude: '43.66075000'
  longitude: '23.06732000'
- name: Chiprovtsi
  state_code: '12'
  state_name: Montana
  latitude: '43.38417000'
  longitude: '22.88083000'
- name: Lom
  state_code: '12'
  state_name: Montana
  latitude: '43.82106000'
  longitude: '23.23677000'
- name: Medkovets
  state_code: '12'
  state_name: Montana
  latitude: '43.62403000'
  longitude: '23.16876000'
- name: Montana
  state_code: '12'
  state_name: Montana
  latitude: '43.41250000'
  longitude: '23.22500000'
- name: Obshtina Boychinovtsi
  state_code: '12'
  state_name: Montana
  latitude: '43.53333000'
  longitude: '23.43333000'
- name: Obshtina Chiprovtsi
  state_code: '12'
  state_name: Montana
  latitude: '43.41667000'
  longitude: '22.90000000'
- name: Obshtina Georgi Damyanovo
  state_code: '12'
  state_name: Montana
  latitude: '43.35000000'
  longitude: '23.00000000'
- name: Obshtina Lom
  state_code: '12'
  state_name: Montana
  latitude: '43.81667000'
  longitude: '23.23333000'
- name: Obshtina Montana
  state_code: '12'
  state_name: Montana
  latitude: '43.46667000'
  longitude: '23.20000000'
- name: Obshtina Valchedram
  state_code: '12'
  state_name: Montana
  latitude: '43.71667000'
  longitude: '23.51667000'
- name: Obshtina Varshets
  state_code: '12'
  state_name: Montana
  latitude: '43.21667000'
  longitude: '23.33333000'
- name: Obshtina Yakimovo
  state_code: '12'
  state_name: Montana
  latitude: '43.63333000'
  longitude: '23.33333000'
- name: Valchedram
  state_code: '12'
  state_name: Montana
  latitude: '43.69281000'
  longitude: '23.44518000'
- name: Varshets
  state_code: '12'
  state_name: Montana
  latitude: '43.19356000'
  longitude: '23.28680000'
- name: Yakimovo
  state_code: '12'
  state_name: Montana
  latitude: '43.63472000'
  longitude: '23.35350000'
- name: Batak
  state_code: '13'
  state_name: Pazardzhik
  latitude: '41.94225000'
  longitude: '24.21843000'
- name: Belovo
  state_code: '13'
  state_name: Pazardzhik
  latitude: '42.21239000'
  longitude: '24.02081000'
- name: Bratsigovo
  state_code: '13'
  state_name: Pazardzhik
  latitude: '42.01667000'
  longitude: '24.36667000'
- name: Lesichovo
  state_code: '13'
  state_name: Pazardzhik
  latitude: '42.35626000'
  longitude: '24.11190000'
- name: Obshtina Batak
  state_code: '13'
  state_name: Pazardzhik
  latitude: '41.86667000'
  longitude: '24.21667000'
- name: Obshtina Belovo
  state_code: '13'
  state_name: Pazardzhik
  latitude: '42.20000000'
  longitude: '23.93333000'
- name: Obshtina Bratsigovo
  state_code: '13'
  state_name: Pazardzhik
  latitude: '42.00000000'
  longitude: '24.40000000'
- name: Obshtina Lesichovo
  state_code: '13'
  state_name: Pazardzhik
  latitude: '42.36667000'
  longitude: '24.15000000'
- name: Obshtina Panagyurishte
  state_code: '13'
  state_name: Pazardzhik
  latitude: '42.50000000'
  longitude: '24.16667000'
- name: Obshtina Pazardzhik
  state_code: '13'
  state_name: Pazardzhik
  latitude: '42.20000000'
  longitude: '24.33333000'
- name: Obshtina Peshtera
  state_code: '13'
  state_name: Pazardzhik
  latitude: '42.03333000'
  longitude: '24.30000000'
- name: Obshtina Rakitovo
  state_code: '13'
  state_name: Pazardzhik
  latitude: '41.99965000'
  longitude: '24.10877000'
- name: Obshtina Septemvri
  state_code: '13'
  state_name: Pazardzhik
  latitude: '42.26667000'
  longitude: '24.13333000'
- name: Obshtina Strelcha
  state_code: '13'
  state_name: Pazardzhik
  latitude: '42.46667000'
  longitude: '24.36667000'
- name: Obshtina Velingrad
  state_code: '13'
  state_name: Pazardzhik
  latitude: '41.96667000'
  longitude: '23.93333000'
- name: Panagyurishte
  state_code: '13'
  state_name: Pazardzhik
  latitude: '42.49518000'
  longitude: '24.19021000'
- name: Pazardzhik
  state_code: '13'
  state_name: Pazardzhik
  latitude: '42.20000000'
  longitude: '24.33333000'
- name: Peshtera
  state_code: '13'
  state_name: Pazardzhik
  latitude: '42.03372000'
  longitude: '24.29995000'
- name: Rakitovo
  state_code: '13'
  state_name: Pazardzhik
  latitude: '41.99012000'
  longitude: '24.08730000'
- name: Sarnitsa
  state_code: '13'
  state_name: Pazardzhik
  latitude: '41.73835000'
  longitude: '24.02435000'
- name: Sarnitsa Obshtina
  state_code: '13'
  state_name: Pazardzhik
  latitude: '41.73333000'
  longitude: '24.03333000'
- name: Septemvri
  state_code: '13'
  state_name: Pazardzhik
  latitude: '42.21138000'
  longitude: '24.12946000'
- name: Strelcha
  state_code: '13'
  state_name: Pazardzhik
  latitude: '42.50000000'
  longitude: '24.31667000'
- name: Velingrad
  state_code: '13'
  state_name: Pazardzhik
  latitude: '42.02754000'
  longitude: '23.99155000'
- name: Batanovtsi
  state_code: '14'
  state_name: Pernik
  latitude: '42.59692000'
  longitude: '22.95634000'
- name: Breznik
  state_code: '14'
  state_name: Pernik
  latitude: '42.74085000'
  longitude: '22.90723000'
- name: Obshtina Kovachevtsi
  state_code: '14'
  state_name: Pernik
  latitude: '42.55000000'
  longitude: '22.83333000'
- name: Obshtina Pernik
  state_code: '14'
  state_name: Pernik
  latitude: '42.61667000'
  longitude: '23.08333000'
- name: Obshtina Radomir
  state_code: '14'
  state_name: Pernik
  latitude: '42.46667000'
  longitude: '23.01667000'
- name: Obshtina Zemen
  state_code: '14'
  state_name: Pernik
  latitude: '42.55067000'
  longitude: '22.71440000'
- name: Pernik
  state_code: '14'
  state_name: Pernik
  latitude: '42.60000000'
  longitude: '23.03333000'
- name: Radomir
  state_code: '14'
  state_name: Pernik
  latitude: '42.54565000'
  longitude: '22.96553000'
- name: Tran
  state_code: '14'
  state_name: Pernik
  latitude: '42.83528000'
  longitude: '22.65167000'
- name: Zemen
  state_code: '14'
  state_name: Pernik
  latitude: '42.47889000'
  longitude: '22.74917000'
- name: Belene
  state_code: '15'
  state_name: Pleven
  latitude: '43.64594000'
  longitude: '25.12627000'
- name: Cherven Bryag
  state_code: '15'
  state_name: Pleven
  latitude: '43.26667000'
  longitude: '24.10000000'
- name: Dolna Mitropolia
  state_code: '15'
  state_name: Pleven
  latitude: '43.46667000'
  longitude: '24.53333000'
- name: Dolni Dabnik
  state_code: '15'
  state_name: Pleven
  latitude: '43.40000000'
  longitude: '24.43333000'
- name: Gulyantsi
  state_code: '15'
  state_name: Pleven
  latitude: '43.64109000'
  longitude: '24.69368000'
- name: Iskar
  state_code: '15'
  state_name: Pleven
  latitude: '43.45000000'
  longitude: '24.26667000'
- name: Knezha
  state_code: '15'
  state_name: Pleven
  latitude: '43.50000000'
  longitude: '24.08333000'
- name: Koynare
  state_code: '15'
  state_name: Pleven
  latitude: '43.35000000'
  longitude: '24.13333000'
- name: Levski
  state_code: '15'
  state_name: Pleven
  latitude: '43.36667000'
  longitude: '25.13333000'
- name: Nikopol
  state_code: '15'
  state_name: Pleven
  latitude: '43.70528000'
  longitude: '24.89521000'
- name: Obshtina Belene
  state_code: '15'
  state_name: Pleven
  latitude: '43.63333000'
  longitude: '25.13333000'
- name: Obshtina Cherven Bryag
  state_code: '15'
  state_name: Pleven
  latitude: '43.33333000'
  longitude: '24.13333000'
- name: Obshtina Dolna Mitropolia
  state_code: '15'
  state_name: Pleven
  latitude: '43.58333000'
  longitude: '24.41667000'
- name: Obshtina Dolni Dabnik
  state_code: '15'
  state_name: Pleven
  latitude: '43.36667000'
  longitude: '24.41667000'
- name: Obshtina Gulyantsi
  state_code: '15'
  state_name: Pleven
  latitude: '43.68333000'
  longitude: '24.65000000'
- name: Obshtina Iskar
  state_code: '15'
  state_name: Pleven
  latitude: '43.50000000'
  longitude: '24.28333000'
- name: Obshtina Knezha
  state_code: '15'
  state_name: Pleven
  latitude: '43.50000000'
  longitude: '24.11667000'
- name: Obshtina Levski
  state_code: '15'
  state_name: Pleven
  latitude: '43.43333000'
  longitude: '25.10000000'
- name: Obshtina Nikopol
  state_code: '15'
  state_name: Pleven
  latitude: '43.60000000'
  longitude: '24.93333000'
- name: Obshtina Pleven
  state_code: '15'
  state_name: Pleven
  latitude: '43.40000000'
  longitude: '24.70000000'
- name: Obshtina Pordim
  state_code: '15'
  state_name: Pleven
  latitude: '43.38333000'
  longitude: '24.90000000'
- name: Pleven
  state_code: '15'
  state_name: Pleven
  latitude: '43.41667000'
  longitude: '24.61667000'
- name: Pordim
  state_code: '15'
  state_name: Pleven
  latitude: '43.38333000'
  longitude: '24.85000000'
- name: Slavyanovo
  state_code: '15'
  state_name: Pleven
  latitude: '43.46667000'
  longitude: '24.86667000'
- name: Asenovgrad
  state_code: '16'
  state_name: Plovdiv
  latitude: '42.01667000'
  longitude: '24.86667000'
- name: Brezovo
  state_code: '16'
  state_name: Plovdiv
  latitude: '42.35000000'
  longitude: '25.08333000'
- name: Hisarya
  state_code: '16'
  state_name: Plovdiv
  latitude: '42.50000000'
  longitude: '24.70000000'
- name: Kalofer
  state_code: '16'
  state_name: Plovdiv
  latitude: '42.61667000'
  longitude: '24.98333000'
- name: Kaloyanovo
  state_code: '16'
  state_name: Plovdiv
  latitude: '42.35000000'
  longitude: '24.73333000'
- name: Karlovo
  state_code: '16'
  state_name: Plovdiv
  latitude: '42.63333000'
  longitude: '24.80000000'
- name: Klisura
  state_code: '16'
  state_name: Plovdiv
  latitude: '42.70000000'
  longitude: '24.45000000'
- name: Krichim
  state_code: '16'
  state_name: Plovdiv
  latitude: '42.05000000'
  longitude: '24.46667000'
- name: Laki
  state_code: '16'
  state_name: Plovdiv
  latitude: '41.85000000'
  longitude: '24.81667000'
- name: Obshtina Asenovgrad
  state_code: '16'
  state_name: Plovdiv
  latitude: '41.95000000'
  longitude: '24.96667000'
- name: Obshtina Hisarya
  state_code: '16'
  state_name: Plovdiv
  latitude: '42.50000000'
  longitude: '24.60000000'
- name: Obshtina Kaloyanovo
  state_code: '16'
  state_name: Plovdiv
  latitude: '42.38333000'
  longitude: '24.81667000'
- name: Obshtina Karlovo
  state_code: '16'
  state_name: Plovdiv
  latitude: '42.68333000'
  longitude: '24.66667000'
- name: Obshtina Krichim
  state_code: '16'
  state_name: Plovdiv
  latitude: '42.00439000'
  longitude: '24.47235000'
- name: Obshtina Kuklen
  state_code: '16'
  state_name: Plovdiv
  latitude: '42.03725000'
  longitude: '24.77949000'
- name: Obshtina Laki
  state_code: '16'
  state_name: Plovdiv
  latitude: '41.81667000'
  longitude: '24.85000000'
- name: Obshtina Maritsa
  state_code: '16'
  state_name: Plovdiv
  latitude: '42.23333000'
  longitude: '24.80000000'
- name: Obshtina Parvomay
  state_code: '16'
  state_name: Plovdiv
  latitude: '42.03333000'
  longitude: '25.20000000'
- name: Obshtina Perushtitsa
  state_code: '16'
  state_name: Plovdiv
  latitude: '42.06667000'
  longitude: '24.55000000'
- name: Obshtina Plovdiv
  state_code: '16'
  state_name: Plovdiv
  latitude: '42.15000000'
  longitude: '24.75000000'
- name: Obshtina Rakovski
  state_code: '16'
  state_name: Plovdiv
  latitude: '42.26667000'
  longitude: '24.98333000'
- name: Obshtina Rodopi
  state_code: '16'
  state_name: Plovdiv
  latitude: '42.03333000'
  longitude: '24.68333000'
- name: Obshtina Sadovo
  state_code: '16'
  state_name: Plovdiv
  latitude: '42.13333000'
  longitude: '25.00000000'
- name: Obshtina Saedinenie
  state_code: '16'
  state_name: Plovdiv
  latitude: '42.31667000'
  longitude: '24.58333000'
- name: Obshtina Sopot
  state_code: '16'
  state_name: Plovdiv
  latitude: '42.65214000'
  longitude: '24.74310000'
- name: Obshtina Stamboliyski
  state_code: '16'
  state_name: Plovdiv
  latitude: '42.11667000'
  longitude: '24.51667000'
- name: Parvomay
  state_code: '16'
  state_name: Plovdiv
  latitude: '42.10000000'
  longitude: '25.21667000'
- name: Perushtitsa
  state_code: '16'
  state_name: Plovdiv
  latitude: '42.05000000'
  longitude: '24.55000000'
- name: Plovdiv
  state_code: '16'
  state_name: Plovdiv
  latitude: '42.15000000'
  longitude: '24.75000000'
- name: Rakovski
  state_code: '16'
  state_name: Plovdiv
  latitude: '42.27408000'
  longitude: '24.94083000'
- name: Sadovo
  state_code: '16'
  state_name: Plovdiv
  latitude: '42.13178000'
  longitude: '24.93999000'
- name: Saedinenie
  state_code: '16'
  state_name: Plovdiv
  latitude: '42.26667000'
  longitude: '24.55000000'
- name: Stamboliyski
  state_code: '16'
  state_name: Plovdiv
  latitude: '42.13333000'
  longitude: '24.53333000'
- name: Topolovo
  state_code: '16'
  state_name: Plovdiv
  latitude: '41.90000000'
  longitude: '25.00000000'
- name: Isperih
  state_code: '17'
  state_name: Razgrad
  latitude: '43.71667000'
  longitude: '26.83333000'
- name: Kubrat
  state_code: '17'
  state_name: Razgrad
  latitude: '43.79658000'
  longitude: '26.50063000'
- name: Loznitsa
  state_code: '17'
  state_name: Razgrad
  latitude: '43.36667000'
  longitude: '26.60000000'
- name: Medovene
  state_code: '17'
  state_name: Razgrad
  latitude: '43.76667000'
  longitude: '26.51667000'
- name: Obshtina Isperih
  state_code: '17'
  state_name: Razgrad
  latitude: '43.71667000'
  longitude: '26.83333000'
- name: Obshtina Kubrat
  state_code: '17'
  state_name: Razgrad
  latitude: '43.86667000'
  longitude: '26.48333000'
- name: Obshtina Loznitsa
  state_code: '17'
  state_name: Razgrad
  latitude: '43.41667000'
  longitude: '26.58333000'
- name: Obshtina Razgrad
  state_code: '17'
  state_name: Razgrad
  latitude: '43.53333000'
  longitude: '26.51667000'
- name: Obshtina Samuil
  state_code: '17'
  state_name: Razgrad
  latitude: '43.60000000'
  longitude: '26.80000000'
- name: Obshtina Tsar Kaloyan
  state_code: '17'
  state_name: Razgrad
  latitude: '43.60000000'
  longitude: '26.21667000'
- name: Obshtina Zavet
  state_code: '17'
  state_name: Razgrad
  latitude: '43.76667000'
  longitude: '26.68333000'
- name: Razgrad
  state_code: '17'
  state_name: Razgrad
  latitude: '43.53333000'
  longitude: '26.51667000'
- name: Samuil
  state_code: '17'
  state_name: Razgrad
  latitude: '43.51667000'
  longitude: '26.75000000'
- name: Tsar Kaloyan
  state_code: '17'
  state_name: Razgrad
  latitude: '43.61667000'
  longitude: '26.25000000'
- name: Zavet
  state_code: '17'
  state_name: Razgrad
  latitude: '43.76036000'
  longitude: '26.68063000'
- name: Borovo
  state_code: '18'
  state_name: Ruse
  latitude: '43.50086000'
  longitude: '25.80992000'
- name: Dve Mogili
  state_code: '18'
  state_name: Ruse
  latitude: '43.59258000'
  longitude: '25.87486000'
- name: Ivanovo
  state_code: '18'
  state_name: Ruse
  latitude: '43.68568000'
  longitude: '25.95565000'
- name: Obshtina Borovo
  state_code: '18'
  state_name: Ruse
  latitude: '43.60000000'
  longitude: '25.80000000'
- name: Obshtina Byala
  state_code: '18'
  state_name: Ruse
  latitude: '43.41667000'
  longitude: '25.83333000'
- name: Obshtina Dve Mogili
  state_code: '18'
  state_name: Ruse
  latitude: '43.51667000'
  longitude: '25.96667000'
- name: Obshtina Ivanovo
  state_code: '18'
  state_name: Ruse
  latitude: '43.70000000'
  longitude: '25.98333000'
- name: Obshtina Ruse
  state_code: '18'
  state_name: Ruse
  latitude: '43.85000000'
  longitude: '26.08333000'
- name: Obshtina Slivo Pole
  state_code: '18'
  state_name: Ruse
  latitude: '43.96667000'
  longitude: '26.30000000'
- name: Obshtina Tsenovo
  state_code: '18'
  state_name: Ruse
  latitude: '43.58333000'
  longitude: '25.61667000'
- name: Obshtina Vetovo
  state_code: '18'
  state_name: Ruse
  latitude: '43.71667000'
  longitude: '26.33333000'
- name: Ruse
  state_code: '18'
  state_name: Ruse
  latitude: '43.84872000'
  longitude: '25.95340000'
- name: Senovo
  state_code: '18'
  state_name: Ruse
  latitude: '43.65000000'
  longitude: '26.36667000'
- name: Slivo Pole
  state_code: '18'
  state_name: Ruse
  latitude: '43.94248000'
  longitude: '26.20464000'
- name: Tsenovo
  state_code: '18'
  state_name: Ruse
  latitude: '43.53588000'
  longitude: '25.65764000'
- name: Vetovo
  state_code: '18'
  state_name: Ruse
  latitude: '43.70000000'
  longitude: '26.26667000'
- name: Shumen
  state_code: '27'
  state_name: Shumen
  latitude: '43.28333300'
  longitude: '26.93333300'
- name: Alfatar
  state_code: '19'
  state_name: Silistra
  latitude: '43.94525000'
  longitude: '27.28751000'
- name: Dulovo
  state_code: '19'
  state_name: Silistra
  latitude: '43.81667000'
  longitude: '27.15000000'
- name: Glavinitsa
  state_code: '19'
  state_name: Silistra
  latitude: '43.91667000'
  longitude: '26.83333000'
- name: Kaynardzha
  state_code: '19'
  state_name: Silistra
  latitude: '43.99278000'
  longitude: '27.50713000'
- name: Obshtina Alfatar
  state_code: '19'
  state_name: Silistra
  latitude: '43.90000000'
  longitude: '27.33333000'
- name: Obshtina Dulovo
  state_code: '19'
  state_name: Silistra
  latitude: '43.81667000'
  longitude: '27.08333000'
- name: Obshtina Glavinitsa
  state_code: '19'
  state_name: Silistra
  latitude: '43.95000000'
  longitude: '26.85000000'
- name: Obshtina Kaynardzha
  state_code: '19'
  state_name: Silistra
  latitude: '43.95000000'
  longitude: '27.53333000'
- name: Obshtina Silistra
  state_code: '19'
  state_name: Silistra
  latitude: '44.03333000'
  longitude: '27.20000000'
- name: Obshtina Sitovo
  state_code: '19'
  state_name: Silistra
  latitude: '44.01667000'
  longitude: '27.00000000'
- name: Obshtina Tutrakan
  state_code: '19'
  state_name: Silistra
  latitude: '44.00000000'
  longitude: '26.60000000'
- name: Silistra
  state_code: '19'
  state_name: Silistra
  latitude: '44.11710000'
  longitude: '27.26056000'
- name: Sitovo
  state_code: '19'
  state_name: Silistra
  latitude: '44.02730000'
  longitude: '27.01982000'
- name: Tutrakan
  state_code: '19'
  state_name: Silistra
  latitude: '44.04906000'
  longitude: '26.61206000'
- name: Kermen
  state_code: '20'
  state_name: Sliven
  latitude: '42.50000000'
  longitude: '26.25000000'
- name: Kotel
  state_code: '20'
  state_name: Sliven
  latitude: '42.88333000'
  longitude: '26.45000000'
- name: Nova Zagora
  state_code: '20'
  state_name: Sliven
  latitude: '42.48333000'
  longitude: '26.01667000'
- name: Obshtina Kotel
  state_code: '20'
  state_name: Sliven
  latitude: '42.88333000'
  longitude: '26.45000000'
- name: Obshtina Nova Zagora
  state_code: '20'
  state_name: Sliven
  latitude: '42.45000000'
  longitude: '26.05000000'
- name: Obshtina Sliven
  state_code: '20'
  state_name: Sliven
  latitude: '42.66667000'
  longitude: '26.31667000'
- name: Obshtina Tvarditsa
  state_code: '20'
  state_name: Sliven
  latitude: '42.73333000'
  longitude: '26.00000000'
- name: Sliven
  state_code: '20'
  state_name: Sliven
  latitude: '42.68583000'
  longitude: '26.32917000'
- name: Tvarditsa
  state_code: '20'
  state_name: Sliven
  latitude: '42.70000000'
  longitude: '25.90000000'
- name: Banite
  state_code: '21'
  state_name: Smolyan
  latitude: '41.61667000'
  longitude: '25.01667000'
- name: Borino
  state_code: '21'
  state_name: Smolyan
  latitude: '41.68408000'
  longitude: '24.29300000'
- name: Chepelare
  state_code: '21'
  state_name: Smolyan
  latitude: '41.73333000'
  longitude: '24.68333000'
- name: Devin
  state_code: '21'
  state_name: Smolyan
  latitude: '41.74327000'
  longitude: '24.40003000'
- name: Dospat
  state_code: '21'
  state_name: Smolyan
  latitude: '41.64462000'
  longitude: '24.15857000'
- name: Gyovren
  state_code: '21'
  state_name: Smolyan
  latitude: '41.66326000'
  longitude: '24.37557000'
- name: Madan
  state_code: '21'
  state_name: Smolyan
  latitude: '41.49869000'
  longitude: '24.93973000'
- name: Nedelino
  state_code: '21'
  state_name: Smolyan
  latitude: '41.45602000'
  longitude: '25.08008000'
- name: Obshtina Banite
  state_code: '21'
  state_name: Smolyan
  latitude: '41.70000000'
  longitude: '25.00000000'
- name: Obshtina Borino
  state_code: '21'
  state_name: Smolyan
  latitude: '41.64834000'
  longitude: '24.31694000'
- name: Obshtina Chepelare
  state_code: '21'
  state_name: Smolyan
  latitude: '41.80000000'
  longitude: '24.68333000'
- name: Obshtina Devin
  state_code: '21'
  state_name: Smolyan
  latitude: '41.74346000'
  longitude: '24.40192000'
- name: Obshtina Dospat
  state_code: '21'
  state_name: Smolyan
  latitude: '41.63228000'
  longitude: '24.18765000'
- name: Obshtina Madan
  state_code: '21'
  state_name: Smolyan
  latitude: '41.53333000'
  longitude: '24.96667000'
- name: Obshtina Nedelino
  state_code: '21'
  state_name: Smolyan
  latitude: '41.46894000'
  longitude: '25.09481000'
- name: Obshtina Rudozem
  state_code: '21'
  state_name: Smolyan
  latitude: '41.45439000'
  longitude: '24.83690000'
- name: Obshtina Smolyan
  state_code: '21'
  state_name: Smolyan
  latitude: '41.57516000'
  longitude: '24.71302000'
- name: Obshtina Zlatograd
  state_code: '21'
  state_name: Smolyan
  latitude: '41.40028000'
  longitude: '25.04591000'
- name: Rudozem
  state_code: '21'
  state_name: Smolyan
  latitude: '41.48751000'
  longitude: '24.84945000'
- name: Smolyan
  state_code: '21'
  state_name: Smolyan
  latitude: '41.57439000'
  longitude: '24.71204000'
- name: Zlatograd
  state_code: '21'
  state_name: Smolyan
  latitude: '41.37950000'
  longitude: '25.09605000'
- name: Anton
  state_code: '23'
  state_name: Sofia
  latitude: '42.75000000'
  longitude: '24.28333000'
- name: Botevgrad
  state_code: '23'
  state_name: Sofia
  latitude: '42.90000000'
  longitude: '23.78333000'
- name: Bozhurishte
  state_code: '23'
  state_name: Sofia
  latitude: '42.75000000'
  longitude: '23.20000000'
- name: Chavdar
  state_code: '23'
  state_name: Sofia
  latitude: '42.65000000'
  longitude: '24.05000000'
- name: Chelopech
  state_code: '23'
  state_name: Sofia
  latitude: '42.70000000'
  longitude: '24.08333000'
- name: Dolna Banya
  state_code: '23'
  state_name: Sofia
  latitude: '42.30000000'
  longitude: '23.76667000'
- name: Dragoman
  state_code: '23'
  state_name: Sofia
  latitude: '42.92191000'
  longitude: '22.93109000'
- name: Elin Pelin
  state_code: '23'
  state_name: Sofia
  latitude: '42.66667000'
  longitude: '23.60000000'
- name: Etropole
  state_code: '23'
  state_name: Sofia
  latitude: '42.83333000'
  longitude: '24.00000000'
- name: Godech
  state_code: '23'
  state_name: Sofia
  latitude: '43.01682000'
  longitude: '23.04852000'
- name: Gorna Malina
  state_code: '23'
  state_name: Sofia
  latitude: '42.68333000'
  longitude: '23.70000000'
- name: Ihtiman
  state_code: '23'
  state_name: Sofia
  latitude: '42.43333000'
  longitude: '23.81667000'
- name: Koprivshtitsa
  state_code: '23'
  state_name: Sofia
  latitude: '42.63333000'
  longitude: '24.35000000'
- name: Kostinbrod
  state_code: '23'
  state_name: Sofia
  latitude: '42.81667000'
  longitude: '23.21667000'
- name: Lakatnik
  state_code: '23'
  state_name: Sofia
  latitude: '43.05000000'
  longitude: '23.40000000'
- name: Mirkovo
  state_code: '23'
  state_name: Sofia
  latitude: '42.70000000'
  longitude: '23.98333000'
- name: Obshtina Anton
  state_code: '23'
  state_name: Sofia
  latitude: '42.76667000'
  longitude: '24.30000000'
- name: Obshtina Botevgrad
  state_code: '23'
  state_name: Sofia
  latitude: '42.95000000'
  longitude: '23.75000000'
- name: Obshtina Bozhurishte
  state_code: '23'
  state_name: Sofia
  latitude: '42.78333000'
  longitude: '23.11667000'
- name: Obshtina Chavdar
  state_code: '23'
  state_name: Sofia
  latitude: '42.61667000'
  longitude: '24.08333000'
- name: Obshtina Chelopech
  state_code: '23'
  state_name: Sofia
  latitude: '42.71667000'
  longitude: '24.06667000'
- name: Obshtina Dolna Banya
  state_code: '23'
  state_name: Sofia
  latitude: '42.30000000'
  longitude: '23.76667000'
- name: Obshtina Dragoman
  state_code: '23'
  state_name: Sofia
  latitude: '42.93333000'
  longitude: '22.93333000'
- name: Obshtina Elin Pelin
  state_code: '23'
  state_name: Sofia
  latitude: '42.66667000'
  longitude: '23.60000000'
- name: Obshtina Etropole
  state_code: '23'
  state_name: Sofia
  latitude: '42.85000000'
  longitude: '24.03333000'
- name: Obshtina Gorna Malina
  state_code: '23'
  state_name: Sofia
  latitude: '42.71667000'
  longitude: '23.80000000'
- name: Obshtina Koprivshtitsa
  state_code: '23'
  state_name: Sofia
  latitude: '42.61667000'
  longitude: '24.38333000'
- name: Obshtina Kostenets
  state_code: '23'
  state_name: Sofia
  latitude: '42.30000000'
  longitude: '23.86667000'
- name: Obshtina Kostinbrod
  state_code: '23'
  state_name: Sofia
  latitude: '42.88333000'
  longitude: '23.20000000'
- name: Obshtina Mirkovo
  state_code: '23'
  state_name: Sofia
  latitude: '42.66667000'
  longitude: '23.96667000'
- name: Obshtina Pirdop
  state_code: '23'
  state_name: Sofia
  latitude: '42.70000000'
  longitude: '24.23333000'
- name: Obshtina Pravets
  state_code: '23'
  state_name: Sofia
  latitude: '42.96667000'
  longitude: '23.98333000'
- name: Obshtina Samokov
  state_code: '23'
  state_name: Sofia
  latitude: '42.33333000'
  longitude: '23.55000000'
- name: Obshtina Slivnitsa
  state_code: '23'
  state_name: Sofia
  latitude: '42.85000000'
  longitude: '22.98333000'
- name: Obshtina Svoge
  state_code: '23'
  state_name: Sofia
  latitude: '43.00000000'
  longitude: '23.40000000'
- name: Obshtina Zlatitsa
  state_code: '23'
  state_name: Sofia
  latitude: '42.70000000'
  longitude: '24.13333000'
- name: Pirdop
  state_code: '23'
  state_name: Sofia
  latitude: '42.70000000'
  longitude: '24.18333000'
- name: Pravets
  state_code: '23'
  state_name: Sofia
  latitude: '42.88333000'
  longitude: '23.91667000'
- name: Samokov
  state_code: '23'
  state_name: Sofia
  latitude: '42.33700000'
  longitude: '23.55280000'
- name: Slivnitsa
  state_code: '23'
  state_name: Sofia
  latitude: '42.85182000'
  longitude: '23.03792000'
- name: Svoge
  state_code: '23'
  state_name: Sofia
  latitude: '42.96667000'
  longitude: '23.35000000'
- name: Zlatitsa
  state_code: '23'
  state_name: Sofia
  latitude: '42.71667000'
  longitude: '24.13333000'
- name: Buhovo
  state_code: '22'
  state_name: Sofia City
  latitude: '42.76667000'
  longitude: '23.56667000'
- name: Sofia
  state_code: '22'
  state_name: Sofia City
  latitude: '42.69751000'
  longitude: '23.32415000'
- name: Stolichna Obshtina
  state_code: '22'
  state_name: Sofia City
  latitude: '42.68647000'
  longitude: '23.30561000'
- name: Asen
  state_code: '24'
  state_name: Stara Zagora
  latitude: '42.65000000'
  longitude: '25.20000000'
- name: Chirpan
  state_code: '24'
  state_name: Stara Zagora
  latitude: '42.20000000'
  longitude: '25.33333000'
- name: Gŭlŭbovo
  state_code: '24'
  state_name: Stara Zagora
  latitude: '42.13333000'
  longitude: '25.85000000'
- name: Gurkovo
  state_code: '24'
  state_name: Stara Zagora
  latitude: '42.66667000'
  longitude: '25.80000000'
- name: Kazanlak
  state_code: '24'
  state_name: Stara Zagora
  latitude: '42.61667000'
  longitude: '25.40000000'
- name: Maglizh
  state_code: '24'
  state_name: Stara Zagora
  latitude: '42.60000000'
  longitude: '25.55000000'
- name: Nikolaevo
  state_code: '24'
  state_name: Stara Zagora
  latitude: '42.63333000'
  longitude: '25.80000000'
- name: Obshtina Bratya Daskalovi
  state_code: '24'
  state_name: Stara Zagora
  latitude: '42.30000000'
  longitude: '25.21667000'
- name: Obshtina Chirpan
  state_code: '24'
  state_name: Stara Zagora
  latitude: '42.23333000'
  longitude: '25.38333000'
- name: Obshtina Galabovo
  state_code: '24'
  state_name: Stara Zagora
  latitude: '42.15000000'
  longitude: '25.96667000'
- name: Obshtina Gurkovo
  state_code: '24'
  state_name: Stara Zagora
  latitude: '42.71667000'
  longitude: '25.80000000'
- name: Obshtina Kazanlŭk
  state_code: '24'
  state_name: Stara Zagora
  latitude: '42.61943000'
  longitude: '25.39885000'
- name: Obshtina Maglizh
  state_code: '24'
  state_name: Stara Zagora
  latitude: '42.63333000'
  longitude: '25.61667000'
- name: Obshtina Nikolaevo
  state_code: '24'
  state_name: Stara Zagora
  latitude: '42.60000000'
  longitude: '25.78333000'
- name: Obshtina Opan
  state_code: '24'
  state_name: Stara Zagora
  latitude: '42.21667000'
  longitude: '25.70000000'
- name: Obshtina Pavel Banya
  state_code: '24'
  state_name: Stara Zagora
  latitude: '42.63333000'
  longitude: '25.13333000'
- name: Obshtina Radnevo
  state_code: '24'
  state_name: Stara Zagora
  latitude: '42.30000000'
  longitude: '25.93333000'
- name: Obshtina Stara Zagora
  state_code: '24'
  state_name: Stara Zagora
  latitude: '42.41667000'
  longitude: '25.63333000'
- name: Pavel Banya
  state_code: '24'
  state_name: Stara Zagora
  latitude: '42.60000000'
  longitude: '25.20000000'
- name: Radnevo
  state_code: '24'
  state_name: Stara Zagora
  latitude: '42.30000000'
  longitude: '25.93333000'
- name: Shipka
  state_code: '24'
  state_name: Stara Zagora
  latitude: '42.71667000'
  longitude: '25.33333000'
- name: Stara Zagora
  state_code: '24'
  state_name: Stara Zagora
  latitude: '42.43278000'
  longitude: '25.64194000'
- name: Antonovo
  state_code: '25'
  state_name: Targovishte
  latitude: '43.15000000'
  longitude: '26.16667000'
- name: Obshtina Antonovo
  state_code: '25'
  state_name: Targovishte
  latitude: '43.11667000'
  longitude: '26.20000000'
- name: Obshtina Omurtag
  state_code: '25'
  state_name: Targovishte
  latitude: '43.08333000'
  longitude: '26.48333000'
- name: Obshtina Opaka
  state_code: '25'
  state_name: Targovishte
  latitude: '43.46667000'
  longitude: '26.15000000'
- name: Obshtina Popovo
  state_code: '25'
  state_name: Targovishte
  latitude: '43.35000000'
  longitude: '26.23333000'
- name: Obshtina Targovishte
  state_code: '25'
  state_name: Targovishte
  latitude: '43.25000000'
  longitude: '26.56667000'
- name: Omurtag
  state_code: '25'
  state_name: Targovishte
  latitude: '43.10000000'
  longitude: '26.41667000'
- name: Opaka
  state_code: '25'
  state_name: Targovishte
  latitude: '43.45000000'
  longitude: '26.16667000'
- name: Popovo
  state_code: '25'
  state_name: Targovishte
  latitude: '43.35000000'
  longitude: '26.23333000'
- name: Targovishte
  state_code: '25'
  state_name: Targovishte
  latitude: '43.25120000'
  longitude: '26.57215000'
- name: Aksakovo
  state_code: '03'
  state_name: Varna
  latitude: '43.25615000'
  longitude: '27.82105000'
- name: Asparuhovo
  state_code: '03'
  state_name: Varna
  latitude: '43.18067000'
  longitude: '27.88823000'
- name: Balgarevo
  state_code: '03'
  state_name: Varna
  latitude: '43.40296000'
  longitude: '28.41189000'
- name: Beloslav
  state_code: '03'
  state_name: Varna
  latitude: '43.18960000'
  longitude: '27.70429000'
- name: Byala
  state_code: '03'
  state_name: Varna
  latitude: '42.87426000'
  longitude: '27.88865000'
- name: Dalgopol
  state_code: '03'
  state_name: Varna
  latitude: '43.05000000'
  longitude: '27.35000000'
- name: Devnya
  state_code: '03'
  state_name: Varna
  latitude: '43.22222000'
  longitude: '27.56944000'
- name: Dolni Chiflik
  state_code: '03'
  state_name: Varna
  latitude: '42.99296000'
  longitude: '27.71596000'
- name: Kiten
  state_code: '03'
  state_name: Varna
  latitude: '43.08333000'
  longitude: '27.31667000'
- name: Obshtina Aksakovo
  state_code: '03'
  state_name: Varna
  latitude: '43.31667000'
  longitude: '27.85000000'
- name: Obshtina Avren
  state_code: '03'
  state_name: Varna
  latitude: '43.10000000'
  longitude: '27.71667000'
- name: Obshtina Beloslav
  state_code: '03'
  state_name: Varna
  latitude: '43.20000000'
  longitude: '27.73333000'
- name: Obshtina Byala
  state_code: '03'
  state_name: Varna
  latitude: '42.88333000'
  longitude: '27.81667000'
- name: Obshtina Dalgopol
  state_code: '03'
  state_name: Varna
  latitude: '43.05000000'
  longitude: '27.35000000'
- name: Obshtina Devnya
  state_code: '03'
  state_name: Varna
  latitude: '43.22056000'
  longitude: '27.60052000'
- name: Obshtina Dolni Chiflik
  state_code: '03'
  state_name: Varna
  latitude: '42.96667000'
  longitude: '27.68333000'
- name: Obshtina Provadia
  state_code: '03'
  state_name: Varna
  latitude: '43.18333000'
  longitude: '27.40000000'
- name: Obshtina Suvorovo
  state_code: '03'
  state_name: Varna
  latitude: '43.33333000'
  longitude: '27.65000000'
- name: Obshtina Valchidol
  state_code: '03'
  state_name: Varna
  latitude: '43.45000000'
  longitude: '27.50000000'
- name: Obshtina Varna
  state_code: '03'
  state_name: Varna
  latitude: '43.21667000'
  longitude: '27.91667000'
- name: Obshtina Vetrino
  state_code: '03'
  state_name: Varna
  latitude: '43.31667000'
  longitude: '27.43333000'
- name: Provadia
  state_code: '03'
  state_name: Varna
  latitude: '43.18333000'
  longitude: '27.43333000'
- name: Suvorovo
  state_code: '03'
  state_name: Varna
  latitude: '43.33058000'
  longitude: '27.59908000'
- name: Valchidol
  state_code: '03'
  state_name: Varna
  latitude: '43.40000000'
  longitude: '27.55000000'
- name: Varna
  state_code: '03'
  state_name: Varna
  latitude: '43.21667000'
  longitude: '27.91667000'
- name: Vetrino
  state_code: '03'
  state_name: Varna
  latitude: '43.31667000'
  longitude: '27.43333000'
- name: Zlatni Pyasatsi
  state_code: '03'
  state_name: Varna
  latitude: '43.28500000'
  longitude: '28.04180000'
- name: Byala Cherkva
  state_code: '04'
  state_name: Veliko Tarnovo
  latitude: '43.20000000'
  longitude: '25.30000000'
- name: Debelets
  state_code: '04'
  state_name: Veliko Tarnovo
  latitude: '43.03333000'
  longitude: '25.61667000'
- name: Elena
  state_code: '04'
  state_name: Veliko Tarnovo
  latitude: '42.93333000'
  longitude: '25.88333000'
- name: Gorna Oryahovitsa
  state_code: '04'
  state_name: Veliko Tarnovo
  latitude: '43.12778000'
  longitude: '25.70167000'
- name: Kilifarevo
  state_code: '04'
  state_name: Veliko Tarnovo
  latitude: '42.98333000'
  longitude: '25.63333000'
- name: Lyaskovets
  state_code: '04'
  state_name: Veliko Tarnovo
  latitude: '43.11111000'
  longitude: '25.72833000'
- name: Obshtina Elena
  state_code: '04'
  state_name: Veliko Tarnovo
  latitude: '42.91667000'
  longitude: '25.95000000'
- name: Obshtina Gorna Oryahovitsa
  state_code: '04'
  state_name: Veliko Tarnovo
  latitude: '43.21667000'
  longitude: '25.75000000'
- name: Obshtina Lyaskovets
  state_code: '04'
  state_name: Veliko Tarnovo
  latitude: '43.13333000'
  longitude: '25.85000000'
- name: Obshtina Pavlikeni
  state_code: '04'
  state_name: Veliko Tarnovo
  latitude: '43.28333000'
  longitude: '25.35000000'
- name: Obshtina Polski Trambesh
  state_code: '04'
  state_name: Veliko Tarnovo
  latitude: '43.35000000'
  longitude: '25.58333000'
- name: Obshtina Strazhitsa
  state_code: '04'
  state_name: Veliko Tarnovo
  latitude: '43.26667000'
  longitude: '25.98333000'
- name: Obshtina Suhindol
  state_code: '04'
  state_name: Veliko Tarnovo
  latitude: '43.16667000'
  longitude: '25.20000000'
- name: Obshtina Svishtov
  state_code: '04'
  state_name: Veliko Tarnovo
  latitude: '43.53333000'
  longitude: '25.35000000'
- name: Obshtina Veliko Tŭrnovo
  state_code: '04'
  state_name: Veliko Tarnovo
  latitude: '43.08241000'
  longitude: '25.63202000'
- name: Obshtina Zlataritsa
  state_code: '04'
  state_name: Veliko Tarnovo
  latitude: '43.06667000'
  longitude: '25.98333000'
- name: Parvomaytsi
  state_code: '04'
  state_name: Veliko Tarnovo
  latitude: '43.15000000'
  longitude: '25.65000000'
- name: Pavlikeni
  state_code: '04'
  state_name: Veliko Tarnovo
  latitude: '43.24278000'
  longitude: '25.32194000'
- name: Polski Trambesh
  state_code: '04'
  state_name: Veliko Tarnovo
  latitude: '43.37233000'
  longitude: '25.63525000'
- name: Strazhitsa
  state_code: '04'
  state_name: Veliko Tarnovo
  latitude: '43.23333000'
  longitude: '25.96667000'
- name: Suhindol
  state_code: '04'
  state_name: Veliko Tarnovo
  latitude: '43.19167000'
  longitude: '25.18111000'
- name: Svishtov
  state_code: '04'
  state_name: Veliko Tarnovo
  latitude: '43.61875000'
  longitude: '25.35033000'
- name: Veliko Tŭrnovo
  state_code: '04'
  state_name: Veliko Tarnovo
  latitude: '43.08124000'
  longitude: '25.62904000'
- name: Zlataritsa
  state_code: '04'
  state_name: Veliko Tarnovo
  latitude: '43.05000000'
  longitude: '25.90000000'
- name: Belogradchik
  state_code: '05'
  state_name: Vidin
  latitude: '43.62722000'
  longitude: '22.68361000'
- name: Boynitsa
  state_code: '05'
  state_name: Vidin
  latitude: '43.95650000'
  longitude: '22.53255000'
- name: Bregovo
  state_code: '05'
  state_name: Vidin
  latitude: '44.15167000'
  longitude: '22.64250000'
- name: Chuprene
  state_code: '05'
  state_name: Vidin
  latitude: '43.51806000'
  longitude: '22.66611000'
- name: Dimovo
  state_code: '05'
  state_name: Vidin
  latitude: '43.74167000'
  longitude: '22.72694000'
- name: Drenovets
  state_code: '05'
  state_name: Vidin
  latitude: '43.69134000'
  longitude: '22.97365000'
- name: Dunavtsi
  state_code: '05'
  state_name: Vidin
  latitude: '43.92111000'
  longitude: '22.82111000'
- name: Gramada
  state_code: '05'
  state_name: Vidin
  latitude: '43.83738000'
  longitude: '22.65279000'
- name: Kula
  state_code: '05'
  state_name: Vidin
  latitude: '43.88833000'
  longitude: '22.52139000'
- name: Makresh
  state_code: '05'
  state_name: Vidin
  latitude: '43.76794000'
  longitude: '22.66406000'
- name: Novo Selo
  state_code: '05'
  state_name: Vidin
  latitude: '44.16214000'
  longitude: '22.78376000'
- name: Obshtina Belogradchik
  state_code: '05'
  state_name: Vidin
  latitude: '43.65000000'
  longitude: '22.60000000'
- name: Obshtina Boynitsa
  state_code: '05'
  state_name: Vidin
  latitude: '44.00000000'
  longitude: '22.55000000'
- name: Obshtina Dimovo
  state_code: '05'
  state_name: Vidin
  latitude: '43.75000000'
  longitude: '22.81667000'
- name: Obshtina Gramada
  state_code: '05'
  state_name: Vidin
  latitude: '43.83333000'
  longitude: '22.65000000'
- name: Obshtina Kula
  state_code: '05'
  state_name: Vidin
  latitude: '43.90000000'
  longitude: '22.56667000'
- name: Obshtina Ruzhintsi
  state_code: '05'
  state_name: Vidin
  latitude: '43.65000000'
  longitude: '22.90000000'
- name: Obshtina Vidin
  state_code: '05'
  state_name: Vidin
  latitude: '44.00000000'
  longitude: '22.83333000'
- name: Ruzhintsi
  state_code: '05'
  state_name: Vidin
  latitude: '43.62179000'
  longitude: '22.83286000'
- name: Vidin
  state_code: '05'
  state_name: Vidin
  latitude: '43.99159000'
  longitude: '22.88236000'
- name: Borovan
  state_code: '06'
  state_name: Vratsa
  latitude: '43.43333000'
  longitude: '23.75000000'
- name: Byala Slatina
  state_code: '06'
  state_name: Vratsa
  latitude: '43.46667000'
  longitude: '23.93333000'
- name: Hayredin
  state_code: '06'
  state_name: Vratsa
  latitude: '43.60193000'
  longitude: '23.66135000'
- name: Kozloduy
  state_code: '06'
  state_name: Vratsa
  latitude: '43.77864000'
  longitude: '23.72058000'
- name: Krivodol
  state_code: '06'
  state_name: Vratsa
  latitude: '43.37444000'
  longitude: '23.48444000'
- name: Mezdra
  state_code: '06'
  state_name: Vratsa
  latitude: '43.15000000'
  longitude: '23.70000000'
- name: Mizia
  state_code: '06'
  state_name: Vratsa
  latitude: '43.68623000'
  longitude: '23.85371000'
- name: Obshtina Borovan
  state_code: '06'
  state_name: Vratsa
  latitude: '43.43333000'
  longitude: '23.75000000'
- name: Obshtina Hayredin
  state_code: '06'
  state_name: Vratsa
  latitude: '43.58333000'
  longitude: '23.66667000'
- name: Obshtina Kozloduy
  state_code: '06'
  state_name: Vratsa
  latitude: '43.71667000'
  longitude: '23.73333000'
- name: Obshtina Krivodol
  state_code: '06'
  state_name: Vratsa
  latitude: '43.38333000'
  longitude: '23.48333000'
- name: Obshtina Mezdra
  state_code: '06'
  state_name: Vratsa
  latitude: '43.13333000'
  longitude: '23.73333000'
- name: Obshtina Mizia
  state_code: '06'
  state_name: Vratsa
  latitude: '43.63333000'
  longitude: '23.85000000'
- name: Obshtina Oryahovo
  state_code: '06'
  state_name: Vratsa
  latitude: '43.69038000'
  longitude: '23.98643000'
- name: Obshtina Roman
  state_code: '06'
  state_name: Vratsa
  latitude: '43.15000000'
  longitude: '23.91667000'
- name: Obshtina Vratsa
  state_code: '06'
  state_name: Vratsa
  latitude: '43.28333000'
  longitude: '23.60000000'
- name: Oryahovo
  state_code: '06'
  state_name: Vratsa
  latitude: '43.73618000'
  longitude: '23.96052000'
- name: Roman
  state_code: '06'
  state_name: Vratsa
  latitude: '43.15000000'
  longitude: '23.91667000'
- name: Vratsa
  state_code: '06'
  state_name: Vratsa
  latitude: '43.21000000'
  longitude: '23.56250000'
- name: Bolyarovo
  state_code: '28'
  state_name: Yambol
  latitude: '42.14962000'
  longitude: '26.81116000'
- name: Elhovo
  state_code: '28'
  state_name: Yambol
  latitude: '42.16667000'
  longitude: '26.56667000'
- name: Obshtina Bolyarovo
  state_code: '28'
  state_name: Yambol
  latitude: '42.15000000'
  longitude: '26.85000000'
- name: Obshtina Elhovo
  state_code: '28'
  state_name: Yambol
  latitude: '42.11667000'
  longitude: '26.61667000'
- name: Obshtina Straldzha
  state_code: '28'
  state_name: Yambol
  latitude: '42.48333000'
  longitude: '26.78333000'
- name: Obshtina Tundzha
  state_code: '28'
  state_name: Yambol
  latitude: '42.35000000'
  longitude: '26.45000000'
- name: Obshtina Yambol
  state_code: '28'
  state_name: Yambol
  latitude: '42.48333000'
  longitude: '26.50000000'
- name: Straldzha
  state_code: '28'
  state_name: Yambol
  latitude: '42.60000000'
  longitude: '26.68333000'
- name: Yambol
  state_code: '28'
  state_name: Yambol
  latitude: '42.48333000'
  longitude: '26.50000000'
