---
- name: Bubanza
  state_code: BB
  state_name: Bubanza
  latitude: "-3.08040000"
  longitude: '29.39100000'
- name: Bujumbura
  state_code: BM
  state_name: Bujumbura Mairie
  latitude: "-3.38193000"
  longitude: '29.36142000'
- name: Bururi
  state_code: BR
  state_name: Bururi
  latitude: "-3.94877000"
  longitude: '29.62438000'
- name: Cankuzo
  state_code: CA
  state_name: Cankuzo
  latitude: "-3.21860000"
  longitude: '30.55280000'
- name: Cibitoke
  state_code: CI
  state_name: Cibitoke
  latitude: "-2.88690000"
  longitude: '29.12480000'
- name: Gitega
  state_code: GI
  state_name: Gitega
  latitude: "-3.42708000"
  longitude: '29.92463000'
- name: Karuzi
  state_code: KR
  state_name: Karuzi
  latitude: "-3.10139000"
  longitude: '30.16278000'
- name: Kayanza
  state_code: KY
  state_name: Kayanza
  latitude: "-2.92210000"
  longitude: '29.62930000'
- name: Kirundo
  state_code: KI
  state_name: Kirundo
  latitude: "-2.58450000"
  longitude: '30.09590000'
- name: Makamba
  state_code: MA
  state_name: Makamba
  latitude: "-4.13480000"
  longitude: '29.80400000'
- name: Muramvya
  state_code: MU
  state_name: Muramvya
  latitude: "-3.26820000"
  longitude: '29.60790000'
- name: Muyinga
  state_code: MY
  state_name: Muyinga
  latitude: "-2.84510000"
  longitude: '30.34140000'
- name: Mwaro
  state_code: MW
  state_name: Mwaro
  latitude: "-3.51128000"
  longitude: '29.70334000'
- name: Ngozi
  state_code: NG
  state_name: Ngozi
  latitude: "-2.90750000"
  longitude: '29.83060000'
- name: Rumonge
  state_code: RM
  state_name: Rumonge
  latitude: "-3.97360000"
  longitude: '29.43860000'
- name: Rutana
  state_code: RT
  state_name: Rutana
  latitude: "-3.92790000"
  longitude: '29.99200000'
- name: Ruyigi
  state_code: RY
  state_name: Ruyigi
  latitude: "-3.47639000"
  longitude: '30.24861000'
