---
- name: Banikoara
  state_code: AL
  state_name: Alibori
  latitude: '11.29845000'
  longitude: '2.43856000'
- name: Kandi
  state_code: AL
  state_name: Alibori
  latitude: '11.13417000'
  longitude: '2.93861000'
- name: Malanville
  state_code: AL
  state_name: Alibori
  latitude: '11.86819000'
  longitude: '3.38327000'
- name: Guilmaro
  state_code: AK
  state_name: Atakora
  latitude: '10.56583000'
  longitude: '1.72444000'
- name: Natitingou
  state_code: AK
  state_name: Atakora
  latitude: '10.30416000'
  longitude: '1.37962000'
- name: Tanguieta
  state_code: AK
  state_name: Atakora
  latitude: '11.03621000'
  longitude: '1.41757000'
- name: Abomey-Calavi
  state_code: AQ
  state_name: Atlantique
  latitude: '6.44852000'
  longitude: '2.35566000'
- name: Allada
  state_code: AQ
  state_name: Atlantique
  latitude: '6.66547000'
  longitude: '2.15138000'
- name: Hévié
  state_code: AQ
  state_name: Atlantique
  latitude: '6.41667000'
  longitude: '2.25000000'
- name: Hinvi
  state_code: AQ
  state_name: Atlantique
  latitude: '6.76667000'
  longitude: '2.16667000'
- name: Ouidah
  state_code: AQ
  state_name: Atlantique
  latitude: '6.36307000'
  longitude: '2.08506000'
- name: Bembèrèkè
  state_code: BO
  state_name: Borgou
  latitude: '10.22827000'
  longitude: '2.66335000'
- name: Bétérou
  state_code: BO
  state_name: Borgou
  latitude: '9.19916000'
  longitude: '2.25855000'
- name: Nikki
  state_code: BO
  state_name: Borgou
  latitude: '9.94009000'
  longitude: '3.21075000'
- name: Parakou
  state_code: BO
  state_name: Borgou
  latitude: '9.33716000'
  longitude: '2.63031000'
- name: Tchaourou
  state_code: BO
  state_name: Borgou
  latitude: '8.88649000'
  longitude: '2.59753000'
- name: Comé
  state_code: CO
  state_name: Collines
  latitude: '6.40764000'
  longitude: '1.88198000'
- name: Dassa-Zoumé
  state_code: CO
  state_name: Collines
  latitude: '7.75000000'
  longitude: '2.18333000'
- name: Savalou
  state_code: CO
  state_name: Collines
  latitude: '7.92807000'
  longitude: '1.97558000'
- name: Savé
  state_code: CO
  state_name: Collines
  latitude: '8.03424000'
  longitude: '2.48660000'
- name: Bassila
  state_code: DO
  state_name: Donga
  latitude: '9.00814000'
  longitude: '1.66540000'
- name: Commune of Djougou
  state_code: DO
  state_name: Donga
  latitude: '9.64300000'
  longitude: '1.89600000'
- name: Djougou
  state_code: DO
  state_name: Donga
  latitude: '9.70853000'
  longitude: '1.66598000'
- name: Djakotomey
  state_code: KO
  state_name: Kouffo
  latitude: '6.90000000'
  longitude: '1.71667000'
- name: Dogbo
  state_code: KO
  state_name: Kouffo
  latitude: '6.79911000'
  longitude: '1.78073000'
- name: Cotonou
  state_code: LI
  state_name: Littoral
  latitude: '6.36536000'
  longitude: '2.41833000'
- name: Commune of Athieme
  state_code: MO
  state_name: Mono
  latitude: '6.56924000'
  longitude: '1.70259000'
- name: Lokossa
  state_code: MO
  state_name: Mono
  latitude: '6.63869000'
  longitude: '1.71674000'
- name: Porto-Novo
  state_code: OU
  state_name: Ouémé
  latitude: '6.49646000'
  longitude: '2.60359000'
- name: Kétou
  state_code: PL
  state_name: Plateau
  latitude: '7.36332000'
  longitude: '2.59978000'
- name: Pobé
  state_code: PL
  state_name: Plateau
  latitude: '6.98008000'
  longitude: '2.66490000'
- name: Sakété
  state_code: PL
  state_name: Plateau
  latitude: '6.73618000'
  longitude: '2.65866000'
- name: Abomey
  state_code: ZO
  state_name: Zou
  latitude: '7.18286000'
  longitude: '1.99119000'
- name: Bohicon
  state_code: ZO
  state_name: Zou
  latitude: '7.17826000'
  longitude: '2.06670000'
- name: Commune of Agbangnizoun
  state_code: ZO
  state_name: Zou
  latitude: '7.07600000'
  longitude: '1.96100000'
- name: Cové
  state_code: ZO
  state_name: Zou
  latitude: '7.22097000'
  longitude: '2.34017000'
