---
- name: Airdrie
  state_code: AB
  state_name: Alberta
  latitude: '51.30011000'
  longitude: "-114.03528000"
- name: Athabasca
  state_code: AB
  state_name: Alberta
  latitude: '54.71687000'
  longitude: "-113.28537000"
- name: Banff
  state_code: AB
  state_name: Alberta
  latitude: '51.17622000'
  longitude: "-115.56982000"
- name: Barrhead
  state_code: AB
  state_name: Alberta
  latitude: '54.13345000'
  longitude: "-114.40211000"
- name: Bassano
  state_code: AB
  state_name: Alberta
  latitude: '50.78342000'
  longitude: "-112.46854000"
- name: Beaumont
  state_code: AB
  state_name: Alberta
  latitude: '53.35013000'
  longitude: "-113.41871000"
- name: Beaverlodge
  state_code: AB
  state_name: Alberta
  latitude: '55.21664000'
  longitude: "-119.43605000"
- name: Black Diamond
  state_code: AB
  state_name: Alberta
  latitude: '50.70011000'
  longitude: "-114.23530000"
- name: Blackfalds
  state_code: AB
  state_name: Alberta
  latitude: '52.38342000'
  longitude: "-113.78530000"
- name: Bon Accord
  state_code: AB
  state_name: Alberta
  latitude: '53.83345000'
  longitude: "-113.41872000"
- name: Bonnyville
  state_code: AB
  state_name: Alberta
  latitude: '54.26684000'
  longitude: "-110.73505000"
- name: Bow Island
  state_code: AB
  state_name: Alberta
  latitude: '49.86676000'
  longitude: "-111.36843000"
- name: Brooks
  state_code: AB
  state_name: Alberta
  latitude: '50.58341000'
  longitude: "-111.88509000"
- name: Calgary
  state_code: AB
  state_name: Alberta
  latitude: '51.05011000'
  longitude: "-114.08529000"
- name: Calmar
  state_code: AB
  state_name: Alberta
  latitude: '53.26683000'
  longitude: "-113.81874000"
- name: Camrose
  state_code: AB
  state_name: Alberta
  latitude: '53.01684000'
  longitude: "-112.83525000"
- name: Canmore
  state_code: AB
  state_name: Alberta
  latitude: '51.08335000'
  longitude: "-115.35206000"
- name: Cardston
  state_code: AB
  state_name: Alberta
  latitude: '49.19998000'
  longitude: "-113.30190000"
- name: Carstairs
  state_code: AB
  state_name: Alberta
  latitude: '51.56681000'
  longitude: "-114.10200000"
- name: Chestermere
  state_code: AB
  state_name: Alberta
  latitude: '51.03341000'
  longitude: "-113.81867000"
- name: Claresholm
  state_code: AB
  state_name: Alberta
  latitude: '50.03332000'
  longitude: "-113.58524000"
- name: Coaldale
  state_code: AB
  state_name: Alberta
  latitude: '49.71670000'
  longitude: "-112.61854000"
- name: Coalhurst
  state_code: AB
  state_name: Alberta
  latitude: '49.74640000'
  longitude: "-112.93246000"
- name: Cochrane
  state_code: AB
  state_name: Alberta
  latitude: '51.18341000'
  longitude: "-114.46871000"
- name: Cold Lake
  state_code: AB
  state_name: Alberta
  latitude: '54.46525000'
  longitude: "-110.18154000"
- name: Crossfield
  state_code: AB
  state_name: Alberta
  latitude: '51.43341000'
  longitude: "-114.03528000"
- name: Devon
  state_code: AB
  state_name: Alberta
  latitude: '53.36683000'
  longitude: "-113.73533000"
- name: Didsbury
  state_code: AB
  state_name: Alberta
  latitude: '51.66681000'
  longitude: "-114.13529000"
- name: Drayton Valley
  state_code: AB
  state_name: Alberta
  latitude: '53.21682000'
  longitude: "-114.98544000"
- name: Edmonton
  state_code: AB
  state_name: Alberta
  latitude: '53.55014000'
  longitude: "-113.46871000"
- name: Edson
  state_code: AB
  state_name: Alberta
  latitude: '53.58345000'
  longitude: "-116.43559000"
- name: Elk Point
  state_code: AB
  state_name: Alberta
  latitude: '53.90017000'
  longitude: "-110.90170000"
- name: Fairview
  state_code: AB
  state_name: Alberta
  latitude: '56.06675000'
  longitude: "-118.38606000"
- name: Falher
  state_code: AB
  state_name: Alberta
  latitude: '55.73339000'
  longitude: "-117.20262000"
- name: Fort Macleod
  state_code: AB
  state_name: Alberta
  latitude: '49.71671000'
  longitude: "-113.41857000"
- name: Fort McMurray
  state_code: AB
  state_name: Alberta
  latitude: '56.72676000'
  longitude: "-111.38103000"
- name: Fort Saskatchewan
  state_code: AB
  state_name: Alberta
  latitude: '53.71684000'
  longitude: "-113.21870000"
- name: Fox Creek
  state_code: AB
  state_name: Alberta
  latitude: '54.40007000'
  longitude: "-116.80238000"
- name: Gibbons
  state_code: AB
  state_name: Alberta
  latitude: '53.83345000'
  longitude: "-113.33531000"
- name: Grand Centre
  state_code: AB
  state_name: Alberta
  latitude: '54.41628000'
  longitude: "-110.21304000"
- name: Grande Cache
  state_code: AB
  state_name: Alberta
  latitude: '53.88335000'
  longitude: "-119.13585000"
- name: Grande Prairie
  state_code: AB
  state_name: Alberta
  latitude: '55.16667000'
  longitude: "-118.80271000"
- name: Grimshaw
  state_code: AB
  state_name: Alberta
  latitude: '56.18339000'
  longitude: "-117.60270000"
- name: Hanna
  state_code: AB
  state_name: Alberta
  latitude: '51.63343000'
  longitude: "-111.90181000"
- name: Heritage Pointe
  state_code: AB
  state_name: Alberta
  latitude: '50.84213000'
  longitude: "-114.00493000"
- name: High Level
  state_code: AB
  state_name: Alberta
  latitude: '58.51688000'
  longitude: "-117.13605000"
- name: High Prairie
  state_code: AB
  state_name: Alberta
  latitude: '55.43340000'
  longitude: "-116.48580000"
- name: High River
  state_code: AB
  state_name: Alberta
  latitude: '50.58341000'
  longitude: "-113.86867000"
- name: Hinton
  state_code: AB
  state_name: Alberta
  latitude: '53.40009000'
  longitude: "-117.58567000"
- name: Irricana
  state_code: AB
  state_name: Alberta
  latitude: '51.32372000'
  longitude: "-113.60475000"
- name: Jasper Park Lodge
  state_code: AB
  state_name: Alberta
  latitude: '52.88633000'
  longitude: "-118.05625000"
- name: Killam
  state_code: AB
  state_name: Alberta
  latitude: '52.78344000'
  longitude: "-111.85175000"
- name: Lac La Biche
  state_code: AB
  state_name: Alberta
  latitude: '54.76690000'
  longitude: "-111.96861000"
- name: Lacombe
  state_code: AB
  state_name: Alberta
  latitude: '52.46681000'
  longitude: "-113.73530000"
- name: Lamont
  state_code: AB
  state_name: Alberta
  latitude: '53.76686000'
  longitude: "-112.80195000"
- name: Larkspur
  state_code: AB
  state_name: Alberta
  latitude: '53.47942000'
  longitude: "-113.38142000"
- name: Laurel
  state_code: AB
  state_name: Alberta
  latitude: '53.44667000'
  longitude: "-113.38197000"
- name: Leduc
  state_code: AB
  state_name: Alberta
  latitude: '53.26682000'
  longitude: "-113.55201000"
- name: Lethbridge
  state_code: AB
  state_name: Alberta
  latitude: '49.69999000'
  longitude: "-112.81856000"
- name: Lloydminster
  state_code: AB
  state_name: Alberta
  latitude: '53.27237000'
  longitude: "-110.02256000"
- name: Magrath
  state_code: AB
  state_name: Alberta
  latitude: '49.41668000'
  longitude: "-112.86856000"
- name: Manning
  state_code: AB
  state_name: Alberta
  latitude: '56.91683000'
  longitude: "-117.61945000"
- name: Mannville
  state_code: AB
  state_name: Alberta
  latitude: '53.33764000'
  longitude: "-111.17750000"
- name: Maple Ridge
  state_code: AB
  state_name: Alberta
  latitude: '53.50172000'
  longitude: "-113.36274000"
- name: Mayerthorpe
  state_code: AB
  state_name: Alberta
  latitude: '53.95015000'
  longitude: "-115.13547000"
- name: Medicine Hat
  state_code: AB
  state_name: Alberta
  latitude: '50.03928000'
  longitude: "-110.67661000"
- name: Mill Woods Town Centre
  state_code: AB
  state_name: Alberta
  latitude: '53.45639000'
  longitude: "-113.42751000"
- name: Millet
  state_code: AB
  state_name: Alberta
  latitude: '53.10013000'
  longitude: "-113.46870000"
- name: Morinville
  state_code: AB
  state_name: Alberta
  latitude: '53.80014000'
  longitude: "-113.65203000"
- name: Nanton
  state_code: AB
  state_name: Alberta
  latitude: '50.35008000'
  longitude: "-113.76866000"
- name: Okotoks
  state_code: AB
  state_name: Alberta
  latitude: '50.72885000'
  longitude: "-113.98281000"
- name: Olds
  state_code: AB
  state_name: Alberta
  latitude: '51.78341000'
  longitude: "-114.10199000"
- name: Peace River
  state_code: AB
  state_name: Alberta
  latitude: '56.23715000'
  longitude: "-117.29176000"
- name: Penhold
  state_code: AB
  state_name: Alberta
  latitude: '52.13342000'
  longitude: "-113.86870000"
- name: Picture Butte
  state_code: AB
  state_name: Alberta
  latitude: '49.88330000'
  longitude: "-112.78516000"
- name: Pincher Creek
  state_code: AB
  state_name: Alberta
  latitude: '49.48328000'
  longitude: "-113.95195000"
- name: Ponoka
  state_code: AB
  state_name: Alberta
  latitude: '52.67680000'
  longitude: "-113.58147000"
- name: Provost
  state_code: AB
  state_name: Alberta
  latitude: '52.35014000'
  longitude: "-110.26828000"
- name: Raymond
  state_code: AB
  state_name: Alberta
  latitude: '49.44998000'
  longitude: "-112.65185000"
- name: Red Deer
  state_code: AB
  state_name: Alberta
  latitude: '52.26682000'
  longitude: "-113.80200000"
- name: Rideau Park
  state_code: AB
  state_name: Alberta
  latitude: '53.47899000'
  longitude: "-113.50470000"
- name: Rimbey
  state_code: AB
  state_name: Alberta
  latitude: '52.63340000'
  longitude: "-114.23532000"
- name: Rocky Mountain House
  state_code: AB
  state_name: Alberta
  latitude: '52.36683000'
  longitude: "-114.91880000"
- name: Sexsmith
  state_code: AB
  state_name: Alberta
  latitude: '55.34998000'
  longitude: "-118.78602000"
- name: Sherwood Park
  state_code: AB
  state_name: Alberta
  latitude: '53.51684000'
  longitude: "-113.31870000"
- name: Silver Berry
  state_code: AB
  state_name: Alberta
  latitude: '53.45787000'
  longitude: "-113.38170000"
- name: Slave Lake
  state_code: AB
  state_name: Alberta
  latitude: '55.28344000'
  longitude: "-114.76896000"
- name: Smoky Lake
  state_code: AB
  state_name: Alberta
  latitude: '54.11687000'
  longitude: "-112.46863000"
- name: Spirit River
  state_code: AB
  state_name: Alberta
  latitude: '55.78327000'
  longitude: "-118.83607000"
- name: Springbrook
  state_code: AB
  state_name: Alberta
  latitude: '52.17920000'
  longitude: "-113.87981000"
- name: Spruce Grove
  state_code: AB
  state_name: Alberta
  latitude: '53.53344000'
  longitude: "-113.91874000"
- name: St. Albert
  state_code: AB
  state_name: Alberta
  latitude: '53.63344000'
  longitude: "-113.63533000"
- name: Stettler
  state_code: AB
  state_name: Alberta
  latitude: '52.31683000'
  longitude: "-112.71861000"
- name: Stony Plain
  state_code: AB
  state_name: Alberta
  latitude: '53.53343000'
  longitude: "-114.00205000"
- name: Strathmore
  state_code: AB
  state_name: Alberta
  latitude: '51.05011000'
  longitude: "-113.38523000"
- name: Sundre
  state_code: AB
  state_name: Alberta
  latitude: '51.80010000'
  longitude: "-114.63532000"
- name: Swan Hills
  state_code: AB
  state_name: Alberta
  latitude: '54.71681000'
  longitude: "-115.40226000"
- name: Sylvan Lake
  state_code: AB
  state_name: Alberta
  latitude: '52.31100000'
  longitude: "-114.08375000"
- name: Taber
  state_code: AB
  state_name: Alberta
  latitude: '49.78703000'
  longitude: "-112.14603000"
- name: Tamarack
  state_code: AB
  state_name: Alberta
  latitude: '53.46441000'
  longitude: "-113.36235000"
- name: Three Hills
  state_code: AB
  state_name: Alberta
  latitude: '51.70012000'
  longitude: "-113.26863000"
- name: Tofield
  state_code: AB
  state_name: Alberta
  latitude: '53.36684000'
  longitude: "-112.66862000"
- name: Two Hills
  state_code: AB
  state_name: Alberta
  latitude: '53.71686000'
  longitude: "-111.75181000"
- name: Valleyview
  state_code: AB
  state_name: Alberta
  latitude: '55.06673000'
  longitude: "-117.28585000"
- name: Vegreville
  state_code: AB
  state_name: Alberta
  latitude: '53.50015000'
  longitude: "-112.05182000"
- name: Vermilion
  state_code: AB
  state_name: Alberta
  latitude: '53.35409000'
  longitude: "-110.85849000"
- name: Viking
  state_code: AB
  state_name: Alberta
  latitude: '53.10014000'
  longitude: "-111.76844000"
- name: Vulcan
  state_code: AB
  state_name: Alberta
  latitude: '50.40008000'
  longitude: "-113.25189000"
- name: Wainwright
  state_code: AB
  state_name: Alberta
  latitude: '52.83482000'
  longitude: "-110.85342000"
- name: Wembley
  state_code: AB
  state_name: Alberta
  latitude: '55.14995000'
  longitude: "-119.13602000"
- name: Westlake
  state_code: AB
  state_name: Alberta
  latitude: '55.22228000'
  longitude: "-118.80415000"
- name: Westlock
  state_code: AB
  state_name: Alberta
  latitude: '54.15016000'
  longitude: "-113.86876000"
- name: Wetaskiwin
  state_code: AB
  state_name: Alberta
  latitude: '52.96683000'
  longitude: "-113.36869000"
- name: Whitecourt
  state_code: AB
  state_name: Alberta
  latitude: '54.15015000'
  longitude: "-115.68548000"
- name: Wild Rose
  state_code: AB
  state_name: Alberta
  latitude: '53.47080000'
  longitude: "-113.38119000"
- name: Abbotsford
  state_code: BC
  state_name: British Columbia
  latitude: '49.05798000'
  longitude: "-122.25257000"
- name: Agassiz
  state_code: BC
  state_name: British Columbia
  latitude: '49.23298000'
  longitude: "-121.76926000"
- name: Aldergrove
  state_code: BC
  state_name: British Columbia
  latitude: '49.05801000'
  longitude: "-122.47087000"
- name: Aldergrove East
  state_code: BC
  state_name: British Columbia
  latitude: '49.05593000'
  longitude: "-122.42299000"
- name: Anmore
  state_code: BC
  state_name: British Columbia
  latitude: '49.31637000'
  longitude: "-122.85263000"
- name: Arbutus Ridge
  state_code: BC
  state_name: British Columbia
  latitude: '49.24966000'
  longitude: "-123.16934000"
- name: Armstrong
  state_code: BC
  state_name: British Columbia
  latitude: '50.44979000'
  longitude: "-119.20235000"
- name: Ashcroft
  state_code: BC
  state_name: British Columbia
  latitude: '50.72372000'
  longitude: "-121.28207000"
- name: Barrière
  state_code: BC
  state_name: British Columbia
  latitude: '51.18308000'
  longitude: "-120.11920000"
- name: Bowen Island
  state_code: BC
  state_name: British Columbia
  latitude: '49.38470000'
  longitude: "-123.33622000"
- name: Burnaby
  state_code: BC
  state_name: British Columbia
  latitude: '49.26636000'
  longitude: "-122.95263000"
- name: Burns Lake
  state_code: BC
  state_name: British Columbia
  latitude: '54.22972000'
  longitude: "-125.76084000"
- name: Cache Creek
  state_code: BC
  state_name: British Columbia
  latitude: '50.81011000'
  longitude: "-121.32460000"
- name: Campbell River
  state_code: BC
  state_name: British Columbia
  latitude: '50.01634000'
  longitude: "-125.24459000"
- name: Castlegar
  state_code: BC
  state_name: British Columbia
  latitude: '49.32317000'
  longitude: "-117.65831000"
- name: Cedar
  state_code: BC
  state_name: British Columbia
  latitude: '49.11633000'
  longitude: "-123.85270000"
- name: Central Coast Regional District
  state_code: BC
  state_name: British Columbia
  latitude: '52.16638000'
  longitude: "-127.00323000"
- name: Chase
  state_code: BC
  state_name: British Columbia
  latitude: '50.81650000'
  longitude: "-119.68571000"
- name: Chemainus
  state_code: BC
  state_name: British Columbia
  latitude: '48.91633000'
  longitude: "-123.71937000"
- name: Chetwynd
  state_code: BC
  state_name: British Columbia
  latitude: '55.69988000'
  longitude: "-121.63627000"
- name: Chilliwack
  state_code: BC
  state_name: British Columbia
  latitude: '49.16638000'
  longitude: "-121.95257000"
- name: Colwood
  state_code: BC
  state_name: British Columbia
  latitude: '48.43293000'
  longitude: "-123.48591000"
- name: Coombs
  state_code: BC
  state_name: British Columbia
  latitude: '49.29963000'
  longitude: "-124.41946000"
- name: Coquitlam
  state_code: BC
  state_name: British Columbia
  latitude: '49.28460000'
  longitude: "-122.78217000"
- name: Courtenay
  state_code: BC
  state_name: British Columbia
  latitude: '49.68657000'
  longitude: "-124.99360000"
- name: Cowichan Bay
  state_code: BC
  state_name: British Columbia
  latitude: '48.73366000'
  longitude: "-123.61739000"
- name: Cranbrook
  state_code: BC
  state_name: British Columbia
  latitude: '49.49991000'
  longitude: "-115.76879000"
- name: Creston
  state_code: BC
  state_name: British Columbia
  latitude: '49.09987000'
  longitude: "-116.50211000"
- name: Cumberland
  state_code: BC
  state_name: British Columbia
  latitude: '49.61634000'
  longitude: "-125.03613000"
- name: Dawson Creek
  state_code: BC
  state_name: British Columbia
  latitude: '55.75984000'
  longitude: "-120.24030000"
- name: Delta
  state_code: BC
  state_name: British Columbia
  latitude: '49.14399000'
  longitude: "-122.90680000"
- name: Denman Island
  state_code: BC
  state_name: British Columbia
  latitude: '49.53294000'
  longitude: "-124.81950000"
- name: Denman Island Trust Area
  state_code: BC
  state_name: British Columbia
  latitude: '49.55189000'
  longitude: "-124.79881000"
- name: Duck Lake
  state_code: BC
  state_name: British Columbia
  latitude: '50.00880000'
  longitude: "-119.39672000"
- name: Duncan
  state_code: BC
  state_name: British Columbia
  latitude: '48.78293000'
  longitude: "-123.70266000"
- name: East Wellington
  state_code: BC
  state_name: British Columbia
  latitude: '49.17385000'
  longitude: "-124.01745000"
- name: Elkford
  state_code: BC
  state_name: British Columbia
  latitude: '50.05007000'
  longitude: "-114.88540000"
- name: Ellison
  state_code: BC
  state_name: British Columbia
  latitude: '49.93307000'
  longitude: "-119.36907000"
- name: Enderby
  state_code: BC
  state_name: British Columbia
  latitude: '50.54980000'
  longitude: "-119.15234000"
- name: Fairwinds
  state_code: BC
  state_name: British Columbia
  latitude: '49.27588000'
  longitude: "-124.12782000"
- name: Fernie
  state_code: BC
  state_name: British Columbia
  latitude: '49.49996000'
  longitude: "-115.06871000"
- name: Fort Nelson
  state_code: BC
  state_name: British Columbia
  latitude: '58.80533000'
  longitude: "-122.70020000"
- name: Fort St. John
  state_code: BC
  state_name: British Columbia
  latitude: '56.24988000'
  longitude: "-120.85292000"
- name: Fraser Valley Regional District
  state_code: BC
  state_name: British Columbia
  latitude: '49.58299000'
  longitude: "-121.83587000"
- name: French Creek
  state_code: BC
  state_name: British Columbia
  latitude: '49.34123000'
  longitude: "-124.35541000"
- name: Fruitvale
  state_code: BC
  state_name: British Columbia
  latitude: '49.11654000'
  longitude: "-117.55222000"
- name: Gibsons
  state_code: BC
  state_name: British Columbia
  latitude: '49.39539000'
  longitude: "-123.50555000"
- name: Golden
  state_code: BC
  state_name: British Columbia
  latitude: '51.29995000'
  longitude: "-116.96890000"
- name: Grand Forks
  state_code: BC
  state_name: British Columbia
  latitude: '49.03309000'
  longitude: "-118.43560000"
- name: Hanceville
  state_code: BC
  state_name: British Columbia
  latitude: '51.91922000'
  longitude: "-123.04458000"
- name: Hope
  state_code: BC
  state_name: British Columbia
  latitude: '49.38299000'
  longitude: "-121.44144000"
- name: Hornby Island
  state_code: BC
  state_name: British Columbia
  latitude: '49.53448000'
  longitude: "-124.66923000"
- name: Houston
  state_code: BC
  state_name: British Columbia
  latitude: '54.39976000'
  longitude: "-126.67008000"
- name: Invermere
  state_code: BC
  state_name: British Columbia
  latitude: '50.51666000'
  longitude: "-116.03538000"
- name: Kamloops
  state_code: BC
  state_name: British Columbia
  latitude: '50.66648000'
  longitude: "-120.31920000"
- name: Kelowna
  state_code: BC
  state_name: British Columbia
  latitude: '49.88307000'
  longitude: "-119.48568000"
- name: Kimberley
  state_code: BC
  state_name: British Columbia
  latitude: '49.67071000'
  longitude: "-115.97760000"
- name: Kitimat
  state_code: BC
  state_name: British Columbia
  latitude: '54.05244000'
  longitude: "-128.65342000"
- name: Ladner
  state_code: BC
  state_name: British Columbia
  latitude: '49.08938000'
  longitude: "-123.08241000"
- name: Ladysmith
  state_code: BC
  state_name: British Columbia
  latitude: '48.99016000'
  longitude: "-123.81699000"
- name: Lake Cowichan
  state_code: BC
  state_name: British Columbia
  latitude: '48.82495000'
  longitude: "-124.05461000"
- name: Langford
  state_code: BC
  state_name: British Columbia
  latitude: '48.44963000'
  longitude: "-123.50261000"
- name: Langley
  state_code: BC
  state_name: British Columbia
  latitude: '49.10107000'
  longitude: "-122.65883000"
- name: Lillooet
  state_code: BC
  state_name: British Columbia
  latitude: '50.68560000'
  longitude: "-121.94200000"
- name: Lions Bay
  state_code: BC
  state_name: British Columbia
  latitude: '49.45218000'
  longitude: "-123.23760000"
- name: Logan Lake
  state_code: BC
  state_name: British Columbia
  latitude: '50.49976000'
  longitude: "-120.80253000"
- name: Lumby
  state_code: BC
  state_name: British Columbia
  latitude: '50.24979000'
  longitude: "-118.96904000"
- name: Mackenzie
  state_code: BC
  state_name: British Columbia
  latitude: '55.33637000'
  longitude: "-123.09374000"
- name: Maple Ridge
  state_code: BC
  state_name: British Columbia
  latitude: '49.21939000'
  longitude: "-122.60193000"
- name: Merritt
  state_code: BC
  state_name: British Columbia
  latitude: '50.11225000'
  longitude: "-120.79420000"
- name: Metchosin
  state_code: BC
  state_name: British Columbia
  latitude: '48.38293000'
  longitude: "-123.53591000"
- name: Metro Vancouver Regional District
  state_code: BC
  state_name: British Columbia
  latitude: '49.33296000'
  longitude: "-123.00264000"
- name: Mission
  state_code: BC
  state_name: British Columbia
  latitude: '49.13298000'
  longitude: "-122.30258000"
- name: Nakusp
  state_code: BC
  state_name: British Columbia
  latitude: '50.24987000'
  longitude: "-117.80226000"
- name: Nanaimo
  state_code: BC
  state_name: British Columbia
  latitude: '49.16638000'
  longitude: "-123.94003000"
- name: Nelson
  state_code: BC
  state_name: British Columbia
  latitude: '49.49985000'
  longitude: "-117.28553000"
- name: New Westminster
  state_code: BC
  state_name: British Columbia
  latitude: '49.20678000'
  longitude: "-122.91092000"
- name: North Cowichan
  state_code: BC
  state_name: British Columbia
  latitude: '48.84133000'
  longitude: "-123.68596000"
- name: North Oyster/Yellow Point
  state_code: BC
  state_name: British Columbia
  latitude: '49.04807000'
  longitude: "-123.83395000"
- name: North Saanich
  state_code: BC
  state_name: British Columbia
  latitude: '48.66634000'
  longitude: "-123.41933000"
- name: North Vancouver
  state_code: BC
  state_name: British Columbia
  latitude: '49.31636000'
  longitude: "-123.06934000"
- name: Oak Bay
  state_code: BC
  state_name: British Columbia
  latitude: '48.44964000'
  longitude: "-123.30260000"
- name: Okanagan
  state_code: BC
  state_name: British Columbia
  latitude: '50.36386000'
  longitude: "-119.34997000"
- name: Okanagan Falls
  state_code: BC
  state_name: British Columbia
  latitude: '49.35000000'
  longitude: "-119.56667000"
- name: Oliver
  state_code: BC
  state_name: British Columbia
  latitude: '49.18306000'
  longitude: "-119.55240000"
- name: Osoyoos
  state_code: BC
  state_name: British Columbia
  latitude: '49.03306000'
  longitude: "-119.45237000"
- name: Parksville
  state_code: BC
  state_name: British Columbia
  latitude: '49.31947000'
  longitude: "-124.31575000"
- name: Peace River Regional District
  state_code: BC
  state_name: British Columbia
  latitude: '56.66650000'
  longitude: "-122.75302000"
- name: Peachland
  state_code: BC
  state_name: British Columbia
  latitude: '49.76647000'
  longitude: "-119.73568000"
- name: Pemberton
  state_code: BC
  state_name: British Columbia
  latitude: '50.31641000'
  longitude: "-122.80273000"
- name: Penticton
  state_code: BC
  state_name: British Columbia
  latitude: '49.48062000'
  longitude: "-119.58584000"
- name: Pitt Meadows
  state_code: BC
  state_name: British Columbia
  latitude: '49.22119000'
  longitude: "-122.68965000"
- name: Port Alberni
  state_code: BC
  state_name: British Columbia
  latitude: '49.24133000'
  longitude: "-124.80280000"
- name: Port Coquitlam
  state_code: BC
  state_name: British Columbia
  latitude: '49.26637000'
  longitude: "-122.76932000"
- name: Port McNeill
  state_code: BC
  state_name: British Columbia
  latitude: '50.58716000'
  longitude: "-127.08053000"
- name: Port Moody
  state_code: BC
  state_name: British Columbia
  latitude: '49.28124000'
  longitude: "-122.82457000"
- name: Powell River
  state_code: BC
  state_name: British Columbia
  latitude: '49.83278000'
  longitude: "-124.52368000"
- name: Prince George
  state_code: BC
  state_name: British Columbia
  latitude: '53.91660000'
  longitude: "-122.75301000"
- name: Prince Rupert
  state_code: BC
  state_name: British Columbia
  latitude: '54.31507000'
  longitude: "-130.32098000"
- name: Princeton
  state_code: BC
  state_name: British Columbia
  latitude: '49.45802000'
  longitude: "-120.51076000"
- name: Puntledge
  state_code: BC
  state_name: British Columbia
  latitude: '49.66168000'
  longitude: "-125.05686000"
- name: Quesnel
  state_code: BC
  state_name: British Columbia
  latitude: '52.97842000'
  longitude: "-122.49310000"
- name: Regional District of Alberni-Clayoquot
  state_code: BC
  state_name: British Columbia
  latitude: '49.24962000'
  longitude: "-125.33615000"
- name: Regional District of Central Okanagan
  state_code: BC
  state_name: British Columbia
  latitude: '49.99978000'
  longitude: "-119.41908000"
- name: Revelstoke
  state_code: BC
  state_name: British Columbia
  latitude: '50.99712000'
  longitude: "-118.19530000"
- name: Richmond
  state_code: BC
  state_name: British Columbia
  latitude: '49.17003000'
  longitude: "-123.13683000"
- name: Rossland
  state_code: BC
  state_name: British Columbia
  latitude: '49.08313000'
  longitude: "-117.80224000"
- name: Royston
  state_code: BC
  state_name: British Columbia
  latitude: '49.64703000'
  longitude: "-124.94670000"
- name: Salmo
  state_code: BC
  state_name: British Columbia
  latitude: '49.19986000'
  longitude: "-117.26890000"
- name: Salmon Arm
  state_code: BC
  state_name: British Columbia
  latitude: '50.69980000'
  longitude: "-119.30237000"
- name: Salt Spring Island
  state_code: BC
  state_name: British Columbia
  latitude: '48.81852000'
  longitude: "-123.49061000"
- name: Saltair
  state_code: BC
  state_name: British Columbia
  latitude: '48.94963000'
  longitude: "-123.76939000"
- name: Sechelt
  state_code: BC
  state_name: British Columbia
  latitude: '49.47512000'
  longitude: "-123.75903000"
- name: Sicamous
  state_code: BC
  state_name: British Columbia
  latitude: '50.83312000'
  longitude: "-118.98565000"
- name: Six Mile
  state_code: BC
  state_name: British Columbia
  latitude: '48.45767000'
  longitude: "-123.46088000"
- name: Smithers
  state_code: BC
  state_name: British Columbia
  latitude: '54.78036000'
  longitude: "-127.17428000"
- name: Sooke
  state_code: BC
  state_name: British Columbia
  latitude: '48.37463000'
  longitude: "-123.72762000"
- name: South Pender Harbour
  state_code: BC
  state_name: British Columbia
  latitude: '49.62202000'
  longitude: "-124.02484000"
- name: Sparwood
  state_code: BC
  state_name: British Columbia
  latitude: '49.73332000'
  longitude: "-114.88532000"
- name: Summerland
  state_code: BC
  state_name: British Columbia
  latitude: '49.59977000'
  longitude: "-119.66911000"
- name: Surrey
  state_code: BC
  state_name: British Columbia
  latitude: '49.10635000'
  longitude: "-122.82509000"
- name: Terrace
  state_code: BC
  state_name: British Columbia
  latitude: '54.51634000'
  longitude: "-128.60345000"
- name: Tofino
  state_code: BC
  state_name: British Columbia
  latitude: '49.15314000'
  longitude: "-125.90744000"
- name: Trail
  state_code: BC
  state_name: British Columbia
  latitude: '49.09983000'
  longitude: "-117.70223000"
- name: Tsawwassen
  state_code: BC
  state_name: British Columbia
  latitude: '49.01667000'
  longitude: "-123.08333000"
- name: Tumbler Ridge
  state_code: BC
  state_name: British Columbia
  latitude: '55.13027000'
  longitude: "-120.99415000"
- name: Ucluelet
  state_code: BC
  state_name: British Columbia
  latitude: '48.94153000'
  longitude: "-125.54635000"
- name: Vancouver
  state_code: BC
  state_name: British Columbia
  latitude: '49.24966000'
  longitude: "-123.11934000"
- name: Vanderhoof
  state_code: BC
  state_name: British Columbia
  latitude: '54.01657000'
  longitude: "-124.01982000"
- name: Vernon
  state_code: BC
  state_name: British Columbia
  latitude: '50.26729000'
  longitude: "-119.27337000"
- name: Victoria
  state_code: BC
  state_name: British Columbia
  latitude: '48.43590000'
  longitude: "-123.35155000"
- name: Walnut Grove
  state_code: BC
  state_name: British Columbia
  latitude: '49.16473000'
  longitude: "-122.64042000"
- name: Welcome Beach
  state_code: BC
  state_name: British Columbia
  latitude: '49.47959000'
  longitude: "-123.89239000"
- name: West End
  state_code: BC
  state_name: British Columbia
  latitude: '49.28333000'
  longitude: "-123.13333000"
- name: West Kelowna
  state_code: BC
  state_name: British Columbia
  latitude: '49.86250000'
  longitude: "-119.58333000"
- name: West Vancouver
  state_code: BC
  state_name: British Columbia
  latitude: '49.36672000'
  longitude: "-123.16652000"
- name: Whistler
  state_code: BC
  state_name: British Columbia
  latitude: '50.11817000'
  longitude: "-122.95396000"
- name: White Rock
  state_code: BC
  state_name: British Columbia
  latitude: '49.01636000'
  longitude: "-122.80260000"
- name: Williams Lake
  state_code: BC
  state_name: British Columbia
  latitude: '52.14153000'
  longitude: "-122.14451000"
- name: Altona
  state_code: MB
  state_name: Manitoba
  latitude: '49.10469000'
  longitude: "-97.55961000"
- name: Beausejour
  state_code: MB
  state_name: Manitoba
  latitude: '50.06220000'
  longitude: "-96.51669000"
- name: Boissevain
  state_code: MB
  state_name: Manitoba
  latitude: '49.23062000'
  longitude: "-100.05586000"
- name: Brandon
  state_code: MB
  state_name: Manitoba
  latitude: '49.84692000'
  longitude: "-99.95306000"
- name: Carberry
  state_code: MB
  state_name: Manitoba
  latitude: '49.86893000'
  longitude: "-99.36021000"
- name: Carman
  state_code: MB
  state_name: Manitoba
  latitude: '49.49920000'
  longitude: "-98.00156000"
- name: Cross Lake 19A
  state_code: MB
  state_name: Manitoba
  latitude: '54.65135000'
  longitude: "-97.76848000"
- name: Dauphin
  state_code: MB
  state_name: Manitoba
  latitude: '51.14941000'
  longitude: "-100.05023000"
- name: De Salaberry
  state_code: MB
  state_name: Manitoba
  latitude: '49.39999000'
  longitude: "-97.00894000"
- name: Deloraine
  state_code: MB
  state_name: Manitoba
  latitude: '49.19082000'
  longitude: "-100.49477000"
- name: Flin Flon
  state_code: MB
  state_name: Manitoba
  latitude: '54.76703000'
  longitude: "-101.87433000"
- name: Gimli
  state_code: MB
  state_name: Manitoba
  latitude: '50.63362000'
  longitude: "-96.99066000"
- name: Grunthal
  state_code: MB
  state_name: Manitoba
  latitude: '49.40668000'
  longitude: "-96.85873000"
- name: Headingley
  state_code: MB
  state_name: Manitoba
  latitude: '49.87530000'
  longitude: "-97.40896000"
- name: Ile des Chênes
  state_code: MB
  state_name: Manitoba
  latitude: '49.71060000'
  longitude: "-96.98893000"
- name: Killarney
  state_code: MB
  state_name: Manitoba
  latitude: '49.18332000'
  longitude: "-99.66364000"
- name: La Broquerie
  state_code: MB
  state_name: Manitoba
  latitude: '49.51688000'
  longitude: "-96.50029000"
- name: Lac du Bonnet
  state_code: MB
  state_name: Manitoba
  latitude: '50.25360000'
  longitude: "-96.06116000"
- name: Landmark
  state_code: MB
  state_name: Manitoba
  latitude: '49.67169000'
  longitude: "-96.82232000"
- name: Lorette
  state_code: MB
  state_name: Manitoba
  latitude: '49.73919000'
  longitude: "-96.87232000"
- name: Melita
  state_code: MB
  state_name: Manitoba
  latitude: '49.26811000'
  longitude: "-100.99669000"
- name: Minnedosa
  state_code: MB
  state_name: Manitoba
  latitude: '50.24532000'
  longitude: "-99.84364000"
- name: Moose Lake
  state_code: MB
  state_name: Manitoba
  latitude: '49.20559000'
  longitude: "-95.30629000"
- name: Morden
  state_code: MB
  state_name: Manitoba
  latitude: '49.19190000'
  longitude: "-98.10136000"
- name: Morris
  state_code: MB
  state_name: Manitoba
  latitude: '49.35499000'
  longitude: "-97.36567000"
- name: Neepawa
  state_code: MB
  state_name: Manitoba
  latitude: '50.22892000'
  longitude: "-99.46642000"
- name: Niverville
  state_code: MB
  state_name: Manitoba
  latitude: '49.60559000'
  longitude: "-97.04234000"
- name: Portage la Prairie
  state_code: MB
  state_name: Manitoba
  latitude: '49.97282000'
  longitude: "-98.29263000"
- name: Rivers
  state_code: MB
  state_name: Manitoba
  latitude: '50.03081000'
  longitude: "-100.24029000"
- name: Roblin
  state_code: MB
  state_name: Manitoba
  latitude: '51.22999000'
  longitude: "-101.35650000"
- name: Selkirk
  state_code: MB
  state_name: Manitoba
  latitude: '50.14360000'
  longitude: "-96.88452000"
- name: Shilo
  state_code: MB
  state_name: Manitoba
  latitude: '49.80509000'
  longitude: "-99.63175000"
- name: Souris
  state_code: MB
  state_name: Manitoba
  latitude: '49.61720000'
  longitude: "-100.26120000"
- name: St. Adolphe
  state_code: MB
  state_name: Manitoba
  latitude: '49.67440000'
  longitude: "-97.11124000"
- name: Steinbach
  state_code: MB
  state_name: Manitoba
  latitude: '49.52579000'
  longitude: "-96.68451000"
- name: Stonewall
  state_code: MB
  state_name: Manitoba
  latitude: '50.13441000'
  longitude: "-97.32676000"
- name: Swan River
  state_code: MB
  state_name: Manitoba
  latitude: '52.10580000'
  longitude: "-101.26759000"
- name: The Pas
  state_code: MB
  state_name: Manitoba
  latitude: '53.82509000'
  longitude: "-101.25413000"
- name: Thompson
  state_code: MB
  state_name: Manitoba
  latitude: '55.74350000'
  longitude: "-97.85579000"
- name: Virden
  state_code: MB
  state_name: Manitoba
  latitude: '49.85080000'
  longitude: "-100.93262000"
- name: West St. Paul
  state_code: MB
  state_name: Manitoba
  latitude: '49.99940000'
  longitude: "-97.16284000"
- name: Winkler
  state_code: MB
  state_name: Manitoba
  latitude: '49.18170000'
  longitude: "-97.94104000"
- name: Winnipeg
  state_code: MB
  state_name: Manitoba
  latitude: '49.88440000'
  longitude: "-97.14704000"
- name: Baie Ste. Anne
  state_code: NB
  state_name: New Brunswick
  latitude: '47.05231000'
  longitude: "-64.95355000"
- name: Bathurst
  state_code: NB
  state_name: New Brunswick
  latitude: '47.61814000'
  longitude: "-65.65112000"
- name: Bouctouche
  state_code: NB
  state_name: New Brunswick
  latitude: '46.46844000'
  longitude: "-64.73905000"
- name: Campbellton
  state_code: NB
  state_name: New Brunswick
  latitude: '48.00751000'
  longitude: "-66.67272000"
- name: Dieppe
  state_code: NB
  state_name: New Brunswick
  latitude: '46.07844000'
  longitude: "-64.68735000"
- name: Edmundston
  state_code: NB
  state_name: New Brunswick
  latitude: '47.37370000'
  longitude: "-68.32512000"
- name: Florenceville-Bristol
  state_code: NB
  state_name: New Brunswick
  latitude: '46.44353000'
  longitude: "-67.61536000"
- name: Fredericton
  state_code: NB
  state_name: New Brunswick
  latitude: '45.94541000'
  longitude: "-66.66558000"
- name: Fundy Bay
  state_code: NB
  state_name: New Brunswick
  latitude: '44.74100000'
  longitude: "-66.76041000"
- name: Grande-Digue
  state_code: NB
  state_name: New Brunswick
  latitude: '46.30014000'
  longitude: "-64.56546000"
- name: Greater Lakeburn
  state_code: NB
  state_name: New Brunswick
  latitude: '46.07651000'
  longitude: "-64.66818000"
- name: Hampton
  state_code: NB
  state_name: New Brunswick
  latitude: '45.52876000'
  longitude: "-65.85354000"
- name: Harrison Brook
  state_code: NB
  state_name: New Brunswick
  latitude: '47.21304000'
  longitude: "-67.92847000"
- name: Keswick Ridge
  state_code: NB
  state_name: New Brunswick
  latitude: '46.00011000'
  longitude: "-66.88218000"
- name: Lincoln
  state_code: NB
  state_name: New Brunswick
  latitude: '45.90012000'
  longitude: "-66.58218000"
- name: Lutes Mountain
  state_code: NB
  state_name: New Brunswick
  latitude: '46.13544000'
  longitude: "-64.90504000"
- name: McEwen
  state_code: NB
  state_name: New Brunswick
  latitude: '46.14520000'
  longitude: "-64.78615000"
- name: Miramichi
  state_code: NB
  state_name: New Brunswick
  latitude: '47.02895000'
  longitude: "-65.50186000"
- name: Moncton
  state_code: NB
  state_name: New Brunswick
  latitude: '46.09454000'
  longitude: "-64.79650000"
- name: Nackawic
  state_code: NB
  state_name: New Brunswick
  latitude: '45.99666000'
  longitude: "-67.24028000"
- name: New Maryland
  state_code: NB
  state_name: New Brunswick
  latitude: '45.87932000'
  longitude: "-66.66828000"
- name: Noonan
  state_code: NB
  state_name: New Brunswick
  latitude: '45.96682000'
  longitude: "-66.53218000"
- name: Oromocto
  state_code: NB
  state_name: New Brunswick
  latitude: '45.83512000'
  longitude: "-66.47917000"
- name: Richibucto
  state_code: NB
  state_name: New Brunswick
  latitude: '46.68073000'
  longitude: "-64.88044000"
- name: Sackville
  state_code: NB
  state_name: New Brunswick
  latitude: '45.91875000'
  longitude: "-64.38455000"
- name: Saint Andrews
  state_code: NB
  state_name: New Brunswick
  latitude: '45.07370000'
  longitude: "-67.05312000"
- name: Saint John
  state_code: NB
  state_name: New Brunswick
  latitude: '45.27271000'
  longitude: "-66.06766000"
- name: Saint-Antoine
  state_code: NB
  state_name: New Brunswick
  latitude: '46.36294000'
  longitude: "-64.74985000"
- name: Saint-Léonard
  state_code: NB
  state_name: New Brunswick
  latitude: '47.16317000'
  longitude: "-67.92460000"
- name: Salisbury
  state_code: NB
  state_name: New Brunswick
  latitude: '46.03905000'
  longitude: "-65.04628000"
- name: Shediac
  state_code: NB
  state_name: New Brunswick
  latitude: '46.21981000'
  longitude: "-64.54107000"
- name: Shediac Bridge-Shediac River
  state_code: NB
  state_name: New Brunswick
  latitude: '46.26886000'
  longitude: "-64.60047000"
- name: Shippagan
  state_code: NB
  state_name: New Brunswick
  latitude: '47.74424000'
  longitude: "-64.70804000"
- name: Starlight Village
  state_code: NB
  state_name: New Brunswick
  latitude: '45.88308000'
  longitude: "-66.76905000"
- name: Sussex
  state_code: NB
  state_name: New Brunswick
  latitude: '45.72266000'
  longitude: "-65.50663000"
- name: Tracadie-Sheila
  state_code: NB
  state_name: New Brunswick
  latitude: '47.51444000'
  longitude: "-64.91806000"
- name: Wells
  state_code: NB
  state_name: New Brunswick
  latitude: '45.39274000'
  longitude: "-65.92313000"
- name: Bay Roberts
  state_code: NL
  state_name: Newfoundland and Labrador
  latitude: '47.59989000'
  longitude: "-53.26478000"
- name: Bay St. George South
  state_code: NL
  state_name: Newfoundland and Labrador
  latitude: '48.22781000'
  longitude: "-58.84162000"
- name: Bonavista
  state_code: NL
  state_name: Newfoundland and Labrador
  latitude: '48.64989000'
  longitude: "-53.11474000"
- name: Botwood
  state_code: NL
  state_name: Newfoundland and Labrador
  latitude: '49.14994000'
  longitude: "-55.34819000"
- name: Burgeo
  state_code: NL
  state_name: Newfoundland and Labrador
  latitude: '47.61668000'
  longitude: "-57.61516000"
- name: Carbonear
  state_code: NL
  state_name: Newfoundland and Labrador
  latitude: '47.73319000'
  longitude: "-53.21478000"
- name: Catalina
  state_code: NL
  state_name: Newfoundland and Labrador
  latitude: '48.51659000'
  longitude: "-53.08135000"
- name: Channel-Port aux Basques
  state_code: NL
  state_name: Newfoundland and Labrador
  latitude: '47.57286000'
  longitude: "-59.13808000"
- name: Clarenville-Shoal Harbour
  state_code: NL
  state_name: Newfoundland and Labrador
  latitude: '48.18050000'
  longitude: "-53.96982000"
- name: Conception Bay South
  state_code: NL
  state_name: Newfoundland and Labrador
  latitude: '47.49989000'
  longitude: "-52.99806000"
- name: Corner Brook
  state_code: NL
  state_name: Newfoundland and Labrador
  latitude: '48.95001000'
  longitude: "-57.95202000"
- name: Deer Lake
  state_code: NL
  state_name: Newfoundland and Labrador
  latitude: '49.16671000'
  longitude: "-57.43163000"
- name: Fogo Island
  state_code: NL
  state_name: Newfoundland and Labrador
  latitude: '49.71649000'
  longitude: "-54.16981000"
- name: Gambo
  state_code: NL
  state_name: Newfoundland and Labrador
  latitude: '48.78320000'
  longitude: "-54.21482000"
- name: Goulds
  state_code: NL
  state_name: Newfoundland and Labrador
  latitude: '47.45532000'
  longitude: "-52.77552000"
- name: Grand Bank
  state_code: NL
  state_name: Newfoundland and Labrador
  latitude: '47.09995000'
  longitude: "-55.76504000"
- name: Grand Falls-Windsor
  state_code: NL
  state_name: Newfoundland and Labrador
  latitude: '48.93324000'
  longitude: "-55.66492000"
- name: Happy Valley-Goose Bay
  state_code: NL
  state_name: Newfoundland and Labrador
  latitude: '53.30380000'
  longitude: "-60.32576000"
- name: Harbour Breton
  state_code: NL
  state_name: Newfoundland and Labrador
  latitude: '47.48325000'
  longitude: "-55.79833000"
- name: Labrador City
  state_code: NL
  state_name: Newfoundland and Labrador
  latitude: '52.94626000'
  longitude: "-66.91137000"
- name: Lewisporte
  state_code: NL
  state_name: Newfoundland and Labrador
  latitude: '49.24993000'
  longitude: "-55.04816000"
- name: Marystown
  state_code: NL
  state_name: Newfoundland and Labrador
  latitude: '47.16663000'
  longitude: "-55.14829000"
- name: Mount Pearl
  state_code: NL
  state_name: Newfoundland and Labrador
  latitude: '47.51659000'
  longitude: "-52.78135000"
- name: Pasadena
  state_code: NL
  state_name: Newfoundland and Labrador
  latitude: '49.01671000'
  longitude: "-57.59837000"
- name: Springdale
  state_code: NL
  state_name: Newfoundland and Labrador
  latitude: '49.49995000'
  longitude: "-56.06492000"
- name: St. Anthony
  state_code: NL
  state_name: Newfoundland and Labrador
  latitude: '51.37039000'
  longitude: "-55.59743000"
- name: St. John's
  state_code: NL
  state_name: Newfoundland and Labrador
  latitude: '47.56494000'
  longitude: "-52.70931000"
- name: Stephenville
  state_code: NL
  state_name: Newfoundland and Labrador
  latitude: '48.55001000'
  longitude: "-58.58180000"
- name: Stephenville Crossing
  state_code: NL
  state_name: Newfoundland and Labrador
  latitude: '48.50001000'
  longitude: "-58.43180000"
- name: Torbay
  state_code: NL
  state_name: Newfoundland and Labrador
  latitude: '47.66659000'
  longitude: "-52.73135000"
- name: Upper Island Cove
  state_code: NL
  state_name: Newfoundland and Labrador
  latitude: '47.64989000'
  longitude: "-53.21478000"
- name: Wabana
  state_code: NL
  state_name: Newfoundland and Labrador
  latitude: '47.63319000'
  longitude: "-52.94806000"
- name: Behchokǫ̀
  state_code: NT
  state_name: Northwest Territories
  latitude: '62.80250000'
  longitude: "-116.04639000"
- name: Fort McPherson
  state_code: NT
  state_name: Northwest Territories
  latitude: '67.43863000'
  longitude: "-134.88543000"
- name: Fort Smith
  state_code: NT
  state_name: Northwest Territories
  latitude: '60.00439000'
  longitude: "-111.88871000"
- name: Hay River
  state_code: NT
  state_name: Northwest Territories
  latitude: '60.81555000'
  longitude: "-115.79993000"
- name: Inuvik
  state_code: NT
  state_name: Northwest Territories
  latitude: '68.34986000'
  longitude: "-133.72181000"
- name: Norman Wells
  state_code: NT
  state_name: Northwest Territories
  latitude: '65.28201000'
  longitude: "-126.83290000"
- name: Yellowknife
  state_code: NT
  state_name: Northwest Territories
  latitude: '62.45411000'
  longitude: "-114.37248000"
- name: Amherst
  state_code: NS
  state_name: Nova Scotia
  latitude: '45.83345000'
  longitude: "-64.19874000"
- name: Annapolis County
  state_code: NS
  state_name: Nova Scotia
  latitude: '44.58345000'
  longitude: "-65.16551000"
- name: Antigonish
  state_code: NS
  state_name: Nova Scotia
  latitude: '45.61685000'
  longitude: "-61.99858000"
- name: Berwick
  state_code: NS
  state_name: Nova Scotia
  latitude: '45.05015000'
  longitude: "-64.73208000"
- name: Bridgewater
  state_code: NS
  state_name: Nova Scotia
  latitude: '44.37856000'
  longitude: "-64.51882000"
- name: Cape Breton County
  state_code: NS
  state_name: Nova Scotia
  latitude: '46.00014000'
  longitude: "-60.31516000"
- name: Chester
  state_code: NS
  state_name: Nova Scotia
  latitude: '44.54225000'
  longitude: "-64.23891000"
- name: Colchester
  state_code: NS
  state_name: Nova Scotia
  latitude: '45.33345000'
  longitude: "-63.24868000"
- name: Cole Harbour
  state_code: NS
  state_name: Nova Scotia
  latitude: '44.67244000'
  longitude: "-63.47506000"
- name: Cow Bay
  state_code: NS
  state_name: Nova Scotia
  latitude: '44.63141000'
  longitude: "-63.43218000"
- name: Dartmouth
  state_code: NS
  state_name: Nova Scotia
  latitude: '44.67134000'
  longitude: "-63.57719000"
- name: Digby
  state_code: NS
  state_name: Nova Scotia
  latitude: '44.62188000'
  longitude: "-65.75860000"
- name: Digby County
  state_code: NS
  state_name: Nova Scotia
  latitude: '44.36685000'
  longitude: "-65.69884000"
- name: English Corner
  state_code: NS
  state_name: Nova Scotia
  latitude: '44.73345000'
  longitude: "-63.78201000"
- name: Eskasoni 3
  state_code: NS
  state_name: Nova Scotia
  latitude: '45.94522000'
  longitude: "-60.61617000"
- name: Fall River
  state_code: NS
  state_name: Nova Scotia
  latitude: '44.81685000'
  longitude: "-63.61540000"
- name: Glace Bay
  state_code: NS
  state_name: Nova Scotia
  latitude: '46.19695000'
  longitude: "-59.95698000"
- name: Greenwood
  state_code: NS
  state_name: Nova Scotia
  latitude: '44.97413000'
  longitude: "-64.93169000"
- name: Halifax
  state_code: NS
  state_name: Nova Scotia
  latitude: '44.64533000'
  longitude: "-63.57239000"
- name: Hantsport
  state_code: NS
  state_name: Nova Scotia
  latitude: '45.06685000'
  longitude: "-64.16544000"
- name: Hayes Subdivision
  state_code: NS
  state_name: Nova Scotia
  latitude: '45.05519000'
  longitude: "-64.58795000"
- name: Kentville
  state_code: NS
  state_name: Nova Scotia
  latitude: '45.07710000'
  longitude: "-64.49605000"
- name: Lake Echo
  state_code: NS
  state_name: Nova Scotia
  latitude: '44.73345000'
  longitude: "-63.38198000"
- name: Lantz
  state_code: NS
  state_name: Nova Scotia
  latitude: '44.98345000'
  longitude: "-63.48199000"
- name: Lower Sackville
  state_code: NS
  state_name: Nova Scotia
  latitude: '44.77599000'
  longitude: "-63.67865000"
- name: Lunenburg
  state_code: NS
  state_name: Nova Scotia
  latitude: '44.37847000'
  longitude: "-64.31658000"
- name: Middleton
  state_code: NS
  state_name: Nova Scotia
  latitude: '44.94284000'
  longitude: "-65.07022000"
- name: New Glasgow
  state_code: NS
  state_name: Nova Scotia
  latitude: '45.58344000'
  longitude: "-62.64863000"
- name: Oxford
  state_code: NS
  state_name: Nova Scotia
  latitude: '45.73345000'
  longitude: "-63.86542000"
- name: Parrsboro
  state_code: NS
  state_name: Nova Scotia
  latitude: '45.40567000'
  longitude: "-64.32585000"
- name: Pictou
  state_code: NS
  state_name: Nova Scotia
  latitude: '45.67875000'
  longitude: "-62.70936000"
- name: Pictou County
  state_code: NS
  state_name: Nova Scotia
  latitude: '45.50015000'
  longitude: "-62.58193000"
- name: Port Hawkesbury
  state_code: NS
  state_name: Nova Scotia
  latitude: '45.61685000'
  longitude: "-61.34853000"
- name: Port Williams
  state_code: NS
  state_name: Nova Scotia
  latitude: '45.10015000'
  longitude: "-64.41546000"
- name: Princeville
  state_code: NS
  state_name: Nova Scotia
  latitude: '45.76684000'
  longitude: "-61.29853000"
- name: Shelburne
  state_code: NS
  state_name: Nova Scotia
  latitude: '43.76325000'
  longitude: "-65.32355000"
- name: Springhill
  state_code: NS
  state_name: Nova Scotia
  latitude: '45.65015000'
  longitude: "-64.04873000"
- name: Sydney
  state_code: NS
  state_name: Nova Scotia
  latitude: '46.13510000'
  longitude: "-60.18310000"
- name: Sydney Mines
  state_code: NS
  state_name: Nova Scotia
  latitude: '46.23669000'
  longitude: "-60.21767000"
- name: Truro
  state_code: NS
  state_name: Nova Scotia
  latitude: '45.36685000'
  longitude: "-63.26538000"
- name: Windsor
  state_code: NS
  state_name: Nova Scotia
  latitude: '44.98345000'
  longitude: "-64.13204000"
- name: Wolfville
  state_code: NS
  state_name: Nova Scotia
  latitude: '45.08345000'
  longitude: "-64.36546000"
- name: Yarmouth
  state_code: NS
  state_name: Nova Scotia
  latitude: '43.83345000'
  longitude: "-66.11557000"
- name: Clyde River
  state_code: NU
  state_name: Nunavut
  latitude: '70.47233000'
  longitude: "-68.58987000"
- name: Gjoa Haven
  state_code: NU
  state_name: Nunavut
  latitude: '68.62602000'
  longitude: "-95.87836000"
- name: Iqaluit
  state_code: NU
  state_name: Nunavut
  latitude: '63.74697000'
  longitude: "-68.51727000"
- name: Kugluktuk
  state_code: NU
  state_name: Nunavut
  latitude: '67.82743000'
  longitude: "-115.09649000"
- name: Pangnirtung
  state_code: NU
  state_name: Nunavut
  latitude: '66.14642000'
  longitude: "-65.69996000"
- name: Rankin Inlet
  state_code: NU
  state_name: Nunavut
  latitude: '62.80906000'
  longitude: "-92.08534000"
- name: Ajax
  state_code: 'ON'
  state_name: Ontario
  latitude: '43.85012000'
  longitude: "-79.03288000"
- name: Algoma
  state_code: 'ON'
  state_name: Ontario
  latitude: '47.88364000'
  longitude: "-84.42406000"
- name: Alliston
  state_code: 'ON'
  state_name: Ontario
  latitude: '44.15011000'
  longitude: "-79.86635000"
- name: Amherstburg
  state_code: 'ON'
  state_name: Ontario
  latitude: '42.10009000'
  longitude: "-83.09985000"
- name: Amigo Beach
  state_code: 'ON'
  state_name: Ontario
  latitude: '44.70011000'
  longitude: "-79.39963000"
- name: Ancaster
  state_code: 'ON'
  state_name: Ontario
  latitude: '43.21806000'
  longitude: "-79.98716000"
- name: Angus
  state_code: 'ON'
  state_name: Ontario
  latitude: '44.31681000'
  longitude: "-79.88295000"
- name: Arnprior
  state_code: 'ON'
  state_name: Ontario
  latitude: '45.43341000'
  longitude: "-76.34939000"
- name: Atikokan
  state_code: 'ON'
  state_name: Ontario
  latitude: '48.75667000'
  longitude: "-91.62409000"
- name: Attawapiskat
  state_code: 'ON'
  state_name: Ontario
  latitude: '52.92774000'
  longitude: "-82.41669000"
- name: Aurora
  state_code: 'ON'
  state_name: Ontario
  latitude: '44.00011000'
  longitude: "-79.46632000"
- name: Aylmer
  state_code: 'ON'
  state_name: Ontario
  latitude: '42.76679000'
  longitude: "-80.98302000"
- name: Azilda
  state_code: 'ON'
  state_name: Ontario
  latitude: '46.55008000'
  longitude: "-81.09975000"
- name: Ballantrae
  state_code: 'ON'
  state_name: Ontario
  latitude: '44.03342000'
  longitude: "-79.29960000"
- name: Bancroft
  state_code: 'ON'
  state_name: Ontario
  latitude: '45.05752000'
  longitude: "-77.85702000"
- name: Barrie
  state_code: 'ON'
  state_name: Ontario
  latitude: '44.40011000'
  longitude: "-79.66634000"
- name: Bath
  state_code: 'ON'
  state_name: Ontario
  latitude: '44.18342000'
  longitude: "-76.78273000"
- name: Belleville
  state_code: 'ON'
  state_name: Ontario
  latitude: '44.16682000'
  longitude: "-77.38277000"
- name: Bells Corners
  state_code: 'ON'
  state_name: Ontario
  latitude: '45.31588000'
  longitude: "-75.83012000"
- name: Belmont
  state_code: 'ON'
  state_name: Ontario
  latitude: '42.88339000'
  longitude: "-81.08303000"
- name: Binbrook
  state_code: 'ON'
  state_name: Ontario
  latitude: '43.12135000'
  longitude: "-79.81104000"
- name: Bluewater
  state_code: 'ON'
  state_name: Ontario
  latitude: '43.46679000'
  longitude: "-81.59977000"
- name: Bourget
  state_code: 'ON'
  state_name: Ontario
  latitude: '45.43340000'
  longitude: "-75.14930000"
- name: Bracebridge
  state_code: 'ON'
  state_name: Ontario
  latitude: '45.03341000'
  longitude: "-79.31633000"
- name: Brampton
  state_code: 'ON'
  state_name: Ontario
  latitude: '43.68341000'
  longitude: "-79.76633000"
- name: Brant
  state_code: 'ON'
  state_name: Ontario
  latitude: '43.13340000'
  longitude: "-80.34967000"
- name: Brantford
  state_code: 'ON'
  state_name: Ontario
  latitude: '43.13340000'
  longitude: "-80.26636000"
- name: Brockville
  state_code: 'ON'
  state_name: Ontario
  latitude: '44.59132000'
  longitude: "-75.68705000"
- name: Brussels
  state_code: 'ON'
  state_name: Ontario
  latitude: '43.73339000'
  longitude: "-81.24975000"
- name: Burford
  state_code: 'ON'
  state_name: Ontario
  latitude: '43.10292000'
  longitude: "-80.42869000"
- name: Burlington
  state_code: 'ON'
  state_name: Ontario
  latitude: '43.38621000'
  longitude: "-79.83713000"
- name: Cambridge
  state_code: 'ON'
  state_name: Ontario
  latitude: '43.36010000'
  longitude: "-80.31269000"
- name: Camlachie
  state_code: 'ON'
  state_name: Ontario
  latitude: '43.03596000'
  longitude: "-82.16160000"
- name: Capreol
  state_code: 'ON'
  state_name: Ontario
  latitude: '46.70626000'
  longitude: "-80.92109000"
- name: Carleton Place
  state_code: 'ON'
  state_name: Ontario
  latitude: '45.13341000'
  longitude: "-76.14938000"
- name: Casselman
  state_code: 'ON'
  state_name: Ontario
  latitude: '45.31680000'
  longitude: "-75.08260000"
- name: Chatham
  state_code: 'ON'
  state_name: Ontario
  latitude: '42.41224000'
  longitude: "-82.18494000"
- name: Chatham-Kent
  state_code: 'ON'
  state_name: Ontario
  latitude: '42.40009000'
  longitude: "-82.18310000"
- name: Clarence-Rockland
  state_code: 'ON'
  state_name: Ontario
  latitude: '45.55010000'
  longitude: "-75.29101000"
- name: Cobourg
  state_code: 'ON'
  state_name: Ontario
  latitude: '43.95977000'
  longitude: "-78.16515000"
- name: Cochrane District
  state_code: 'ON'
  state_name: Ontario
  latitude: '50.00022000'
  longitude: "-82.99979000"
- name: Collingwood
  state_code: 'ON'
  state_name: Ontario
  latitude: '44.48340000'
  longitude: "-80.21638000"
- name: Concord
  state_code: 'ON'
  state_name: Ontario
  latitude: '43.80011000'
  longitude: "-79.48291000"
- name: Constance Bay
  state_code: 'ON'
  state_name: Ontario
  latitude: '45.50011000'
  longitude: "-76.08267000"
- name: Cookstown
  state_code: 'ON'
  state_name: Ontario
  latitude: '44.18341000'
  longitude: "-79.69964000"
- name: Cornwall
  state_code: 'ON'
  state_name: Ontario
  latitude: '45.01809000'
  longitude: "-74.72815000"
- name: Corunna
  state_code: 'ON'
  state_name: Ontario
  latitude: '42.88338000'
  longitude: "-82.43313000"
- name: Deep River
  state_code: 'ON'
  state_name: Ontario
  latitude: '46.10012000'
  longitude: "-77.49949000"
- name: Delaware
  state_code: 'ON'
  state_name: Ontario
  latitude: '42.91679000'
  longitude: "-81.41646000"
- name: Deseronto
  state_code: 'ON'
  state_name: Ontario
  latitude: '44.20012000'
  longitude: "-77.04944000"
- name: Dorchester
  state_code: 'ON'
  state_name: Ontario
  latitude: '42.98339000'
  longitude: "-81.06643000"
- name: Dowling
  state_code: 'ON'
  state_name: Ontario
  latitude: '46.59111000'
  longitude: "-81.33917000"
- name: Dryden
  state_code: 'ON'
  state_name: Ontario
  latitude: '49.78334000'
  longitude: "-92.75032000"
- name: Durham
  state_code: 'ON'
  state_name: Ontario
  latitude: '44.20012000'
  longitude: "-78.99957000"
- name: Ear Falls
  state_code: 'ON'
  state_name: Ontario
  latitude: '50.63955000'
  longitude: "-93.23526000"
- name: East Gwillimbury
  state_code: 'ON'
  state_name: Ontario
  latitude: '44.10087000'
  longitude: "-79.43785000"
- name: East York
  state_code: 'ON'
  state_name: Ontario
  latitude: '43.69053000'
  longitude: "-79.32794000"
- name: Elliot Lake
  state_code: 'ON'
  state_name: Ontario
  latitude: '46.38336000'
  longitude: "-82.63315000"
- name: Elmvale
  state_code: 'ON'
  state_name: Ontario
  latitude: '44.58340000'
  longitude: "-79.86636000"
- name: Englehart
  state_code: 'ON'
  state_name: Ontario
  latitude: '47.81686000'
  longitude: "-79.86640000"
- name: Espanola
  state_code: 'ON'
  state_name: Ontario
  latitude: '46.25837000'
  longitude: "-81.76649000"
- name: Essex
  state_code: 'ON'
  state_name: Ontario
  latitude: '42.17509000'
  longitude: "-82.82483000"
- name: Etobicoke
  state_code: 'ON'
  state_name: Ontario
  latitude: '43.65421000'
  longitude: "-79.56711000"
- name: Exeter
  state_code: 'ON'
  state_name: Ontario
  latitude: '43.34358630'
  longitude: "-81.49726020"
- name: Fort Erie
  state_code: 'ON'
  state_name: Ontario
  latitude: '42.90012000'
  longitude: "-78.93286000"
- name: Fort Frances
  state_code: 'ON'
  state_name: Ontario
  latitude: '48.61667000'
  longitude: "-93.40030000"
- name: Gananoque
  state_code: 'ON'
  state_name: Ontario
  latitude: '44.33342000'
  longitude: "-76.16607000"
- name: Glencoe
  state_code: 'ON'
  state_name: Ontario
  latitude: '42.75009000'
  longitude: "-81.71648000"
- name: Goderich
  state_code: 'ON'
  state_name: Ontario
  latitude: '43.74171000'
  longitude: "-81.71339000"
- name: Golden
  state_code: 'ON'
  state_name: Ontario
  latitude: '51.05917000'
  longitude: "-93.73568000"
- name: Gravenhurst
  state_code: 'ON'
  state_name: Ontario
  latitude: '44.91681000'
  longitude: "-79.36633000"
- name: Greater Napanee
  state_code: 'ON'
  state_name: Ontario
  latitude: '44.25012000'
  longitude: "-76.94944000"
- name: Greater Sudbury
  state_code: 'ON'
  state_name: Ontario
  latitude: '46.49000000'
  longitude: "-80.99001000"
- name: Greenstone
  state_code: 'ON'
  state_name: Ontario
  latitude: '49.73343000'
  longitude: "-87.16668000"
- name: Guelph
  state_code: 'ON'
  state_name: Ontario
  latitude: '43.54594000'
  longitude: "-80.25599000"
- name: Haldimand County
  state_code: 'ON'
  state_name: Ontario
  latitude: '42.98341000'
  longitude: "-79.86633000"
- name: Haliburton Village
  state_code: 'ON'
  state_name: Ontario
  latitude: '45.05154000'
  longitude: "-78.52245000"
- name: Halton
  state_code: 'ON'
  state_name: Ontario
  latitude: '43.50011000'
  longitude: "-79.88294000"
- name: Hamilton
  state_code: 'ON'
  state_name: Ontario
  latitude: '43.25011000'
  longitude: "-79.84963000"
- name: Hanover
  state_code: 'ON'
  state_name: Ontario
  latitude: '44.15009000'
  longitude: "-81.03303000"
- name: Harriston
  state_code: 'ON'
  state_name: Ontario
  latitude: '43.90009000'
  longitude: "-80.88302000"
- name: Hawkesbury
  state_code: 'ON'
  state_name: Ontario
  latitude: '45.60009000'
  longitude: "-74.61595000"
- name: Hearst
  state_code: 'ON'
  state_name: Ontario
  latitude: '49.68351000'
  longitude: "-83.66654000"
- name: Hornepayne
  state_code: 'ON'
  state_name: Ontario
  latitude: '49.21451000'
  longitude: "-84.77617000"
- name: Huntsville
  state_code: 'ON'
  state_name: Ontario
  latitude: '45.33341000'
  longitude: "-79.21632000"
- name: Huron East
  state_code: 'ON'
  state_name: Ontario
  latitude: '43.61679000'
  longitude: "-81.29975000"
- name: Ingersoll
  state_code: 'ON'
  state_name: Ontario
  latitude: '43.03339000'
  longitude: "-80.88302000"
- name: Innisfil
  state_code: 'ON'
  state_name: Ontario
  latitude: '44.30011000'
  longitude: "-79.64964000"
- name: Iroquois Falls
  state_code: 'ON'
  state_name: Ontario
  latitude: '48.76688000'
  longitude: "-80.68307000"
- name: Jarvis
  state_code: 'ON'
  state_name: Ontario
  latitude: '42.88341000'
  longitude: "-80.09965000"
- name: Kanata
  state_code: 'ON'
  state_name: Ontario
  latitude: '45.30010000'
  longitude: "-75.91606000"
- name: Kapuskasing
  state_code: 'ON'
  state_name: Ontario
  latitude: '49.41694000'
  longitude: "-82.43308000"
- name: Kawartha Lakes
  state_code: 'ON'
  state_name: Ontario
  latitude: '44.58342000'
  longitude: "-78.83288000"
- name: Kenora
  state_code: 'ON'
  state_name: Ontario
  latitude: '49.76741000'
  longitude: "-94.48985000"
- name: Keswick
  state_code: 'ON'
  state_name: Ontario
  latitude: '44.25011000'
  longitude: "-79.46632000"
- name: Kincardine
  state_code: 'ON'
  state_name: Ontario
  latitude: '44.18339000'
  longitude: "-81.63307000"
- name: King
  state_code: 'ON'
  state_name: Ontario
  latitude: '43.96514000'
  longitude: "-79.59011000"
- name: Kingston
  state_code: 'ON'
  state_name: Ontario
  latitude: '44.22976000'
  longitude: "-76.48098000"
- name: Kirkland Lake
  state_code: 'ON'
  state_name: Ontario
  latitude: '48.14461000'
  longitude: "-80.03767000"
- name: Kitchener
  state_code: 'ON'
  state_name: Ontario
  latitude: '43.42537000'
  longitude: "-80.51120000"
- name: L'Orignal
  state_code: 'ON'
  state_name: Ontario
  latitude: '45.61980000'
  longitude: "-74.69150000"
- name: Lakefield
  state_code: 'ON'
  state_name: Ontario
  latitude: '44.43342000'
  longitude: "-78.26623000"
- name: Lambton Shores
  state_code: 'ON'
  state_name: Ontario
  latitude: '43.16678000'
  longitude: "-81.93309000"
- name: Lappe
  state_code: 'ON'
  state_name: Ontario
  latitude: '48.56680000'
  longitude: "-89.35013000"
- name: Leamington
  state_code: 'ON'
  state_name: Ontario
  latitude: '42.05009000'
  longitude: "-82.59981000"
- name: Limoges
  state_code: 'ON'
  state_name: Ontario
  latitude: '45.33340000'
  longitude: "-75.24931000"
- name: Lindsay
  state_code: 'ON'
  state_name: Ontario
  latitude: '44.35012000'
  longitude: "-78.73286000"
- name: Listowel
  state_code: 'ON'
  state_name: Ontario
  latitude: '43.73340000'
  longitude: "-80.94973000"
- name: Little Current
  state_code: 'ON'
  state_name: Ontario
  latitude: '45.97927000'
  longitude: "-81.92480000"
- name: Lively
  state_code: 'ON'
  state_name: Ontario
  latitude: '46.43338000'
  longitude: "-81.14975000"
- name: London
  state_code: 'ON'
  state_name: Ontario
  latitude: '42.98339000'
  longitude: "-81.23304000"
- name: Lucan
  state_code: 'ON'
  state_name: Ontario
  latitude: '43.18339000'
  longitude: "-81.39976000"
- name: Madoc
  state_code: 'ON'
  state_name: Ontario
  latitude: '44.50842000'
  longitude: "-77.47448000"
- name: Manitoulin District
  state_code: 'ON'
  state_name: Ontario
  latitude: '45.75007000'
  longitude: "-82.49985000"
- name: Manitouwadge
  state_code: 'ON'
  state_name: Ontario
  latitude: '49.12152000'
  longitude: "-85.84030000"
- name: Marathon
  state_code: 'ON'
  state_name: Ontario
  latitude: '48.75010000'
  longitude: "-86.43322000"
- name: Markdale
  state_code: 'ON'
  state_name: Ontario
  latitude: '44.31680000'
  longitude: "-80.64971000"
- name: Markham
  state_code: 'ON'
  state_name: Ontario
  latitude: '43.86682000'
  longitude: "-79.26630000"
- name: Mattawa
  state_code: 'ON'
  state_name: Ontario
  latitude: '46.31681000'
  longitude: "-78.69957000"
- name: Meaford
  state_code: 'ON'
  state_name: Ontario
  latitude: '44.60725000'
  longitude: "-80.61081000"
- name: Metcalfe
  state_code: 'ON'
  state_name: Ontario
  latitude: '45.23340000'
  longitude: "-75.46603000"
- name: Midland
  state_code: 'ON'
  state_name: Ontario
  latitude: '44.75010000'
  longitude: "-79.88296000"
- name: Mildmay
  state_code: 'ON'
  state_name: Ontario
  latitude: '44.05009000'
  longitude: "-81.11644000"
- name: Millbrook
  state_code: 'ON'
  state_name: Ontario
  latitude: '44.15012000'
  longitude: "-78.44954000"
- name: Milton
  state_code: 'ON'
  state_name: Ontario
  latitude: '43.51681000'
  longitude: "-79.88294000"
- name: Mississauga
  state_code: 'ON'
  state_name: Ontario
  latitude: '43.57890000'
  longitude: "-79.65830000"
- name: Mississauga Beach
  state_code: 'ON'
  state_name: Ontario
  latitude: '43.26682000'
  longitude: "-79.08287000"
- name: Moose Factory
  state_code: 'ON'
  state_name: Ontario
  latitude: '51.26689000'
  longitude: "-80.61624000"
- name: Moosonee
  state_code: 'ON'
  state_name: Ontario
  latitude: '51.27931000'
  longitude: "-80.63450000"
- name: Morrisburg
  state_code: 'ON'
  state_name: Ontario
  latitude: '44.90010000'
  longitude: "-75.18261000"
- name: Mount Albert
  state_code: 'ON'
  state_name: Ontario
  latitude: '44.13341000'
  longitude: "-79.31630000"
- name: Mount Brydges
  state_code: 'ON'
  state_name: Ontario
  latitude: '42.90009000'
  longitude: "-81.48306000"
- name: Napanee
  state_code: 'ON'
  state_name: Ontario
  latitude: '44.25012000'
  longitude: "-76.94944000"
- name: Napanee Downtown
  state_code: 'ON'
  state_name: Ontario
  latitude: '44.24832000'
  longitude: "-76.95069000"
- name: Neebing
  state_code: 'ON'
  state_name: Ontario
  latitude: '48.16680000'
  longitude: "-89.41683000"
- name: Nepean
  state_code: 'ON'
  state_name: Ontario
  latitude: '45.35215000'
  longitude: "-75.73975000"
- name: New Hamburg
  state_code: 'ON'
  state_name: Ontario
  latitude: '43.38339000'
  longitude: "-80.69970000"
- name: Newmarket
  state_code: 'ON'
  state_name: Ontario
  latitude: '44.05011000'
  longitude: "-79.46631000"
- name: Niagara Falls
  state_code: 'ON'
  state_name: Ontario
  latitude: '43.10012000'
  longitude: "-79.06627000"
- name: Nipissing District
  state_code: 'ON'
  state_name: Ontario
  latitude: '46.00010000'
  longitude: "-78.99959000"
- name: Norfolk County
  state_code: 'ON'
  state_name: Ontario
  latitude: '42.83340000'
  longitude: "-80.38297000"
- name: North Bay
  state_code: 'ON'
  state_name: Ontario
  latitude: '46.31680000'
  longitude: "-79.46633000"
- name: North Perth
  state_code: 'ON'
  state_name: Ontario
  latitude: '43.72510000'
  longitude: "-80.96723000"
- name: North York
  state_code: 'ON'
  state_name: Ontario
  latitude: '43.76681000'
  longitude: "-79.41630000"
- name: Norwood
  state_code: 'ON'
  state_name: Ontario
  latitude: '44.38342000'
  longitude: "-77.98281000"
- name: Oakville
  state_code: 'ON'
  state_name: Ontario
  latitude: '43.45011000'
  longitude: "-79.68292000"
- name: Omemee
  state_code: 'ON'
  state_name: Ontario
  latitude: '44.29897000'
  longitude: "-78.55989000"
- name: Orangeville
  state_code: 'ON'
  state_name: Ontario
  latitude: '43.91680000'
  longitude: "-80.09967000"
- name: Orillia
  state_code: 'ON'
  state_name: Ontario
  latitude: '44.60868000'
  longitude: "-79.42068000"
- name: Osgoode
  state_code: 'ON'
  state_name: Ontario
  latitude: '45.14887000'
  longitude: "-75.59778000"
- name: Oshawa
  state_code: 'ON'
  state_name: Ontario
  latitude: '43.90012000'
  longitude: "-78.84957000"
- name: Ottawa
  state_code: 'ON'
  state_name: Ontario
  latitude: '45.41117000'
  longitude: "-75.69812000"
- name: Owen Sound
  state_code: 'ON'
  state_name: Ontario
  latitude: '44.56717000'
  longitude: "-80.94349000"
- name: Paisley
  state_code: 'ON'
  state_name: Ontario
  latitude: '44.30641000'
  longitude: "-81.27265000"
- name: Paris
  state_code: 'ON'
  state_name: Ontario
  latitude: '43.20000000'
  longitude: "-80.38333000"
- name: Parkhill
  state_code: 'ON'
  state_name: Ontario
  latitude: '43.15993000'
  longitude: "-81.68464000"
- name: Parry Sound
  state_code: 'ON'
  state_name: Ontario
  latitude: '45.34732000'
  longitude: "-80.03527000"
- name: Parry Sound District
  state_code: 'ON'
  state_name: Ontario
  latitude: '45.75011000'
  longitude: "-79.83297000"
- name: Peel
  state_code: 'ON'
  state_name: Ontario
  latitude: '43.75011000'
  longitude: "-79.78293000"
- name: Pembroke
  state_code: 'ON'
  state_name: Ontario
  latitude: '45.81681000'
  longitude: "-77.11616000"
- name: Perth
  state_code: 'ON'
  state_name: Ontario
  latitude: '44.90011000'
  longitude: "-76.24939000"
- name: Petawawa
  state_code: 'ON'
  state_name: Ontario
  latitude: '45.89452000'
  longitude: "-77.28007000"
- name: Peterborough
  state_code: 'ON'
  state_name: Ontario
  latitude: '44.30012000'
  longitude: "-78.31623000"
- name: Petrolia
  state_code: 'ON'
  state_name: Ontario
  latitude: '42.86678000'
  longitude: "-82.14981000"
- name: Pickering
  state_code: 'ON'
  state_name: Ontario
  latitude: '43.90012000'
  longitude: "-79.13289000"
- name: Picton
  state_code: 'ON'
  state_name: Ontario
  latitude: '44.00012000'
  longitude: "-77.13275000"
- name: Plantagenet
  state_code: 'ON'
  state_name: Ontario
  latitude: '45.53260000'
  longitude: "-74.99369000"
- name: Plattsville
  state_code: 'ON'
  state_name: Ontario
  latitude: '43.30010000'
  longitude: "-80.61639000"
- name: Port Colborne
  state_code: 'ON'
  state_name: Ontario
  latitude: '42.90012000'
  longitude: "-79.23288000"
- name: Port Hope
  state_code: 'ON'
  state_name: Ontario
  latitude: '44.01682000'
  longitude: "-78.39953000"
- name: Port Rowan
  state_code: 'ON'
  state_name: Ontario
  latitude: '42.61680000'
  longitude: "-80.46638000"
- name: Port Stanley
  state_code: 'ON'
  state_name: Ontario
  latitude: '42.66679000'
  longitude: "-81.21644000"
- name: Powassan
  state_code: 'ON'
  state_name: Ontario
  latitude: '46.03340000'
  longitude: "-79.34961000"
- name: Prescott
  state_code: 'ON'
  state_name: Ontario
  latitude: '44.71681000'
  longitude: "-75.51604000"
- name: Prince Edward
  state_code: 'ON'
  state_name: Ontario
  latitude: '44.00012000'
  longitude: "-77.24946000"
- name: Queenswood Heights
  state_code: 'ON'
  state_name: Ontario
  latitude: '45.47083000'
  longitude: "-75.50556000"
- name: Quinte West
  state_code: 'ON'
  state_name: Ontario
  latitude: '44.18342000'
  longitude: "-77.56618000"
- name: Rainy River District
  state_code: 'ON'
  state_name: Ontario
  latitude: '48.49981000'
  longitude: "-92.50031000"
- name: Rayside-Balfour
  state_code: 'ON'
  state_name: Ontario
  latitude: '46.60873000'
  longitude: "-81.20763000"
- name: Red Lake
  state_code: 'ON'
  state_name: Ontario
  latitude: '51.01678000'
  longitude: "-93.82736000"
- name: Regional Municipality of Waterloo
  state_code: 'ON'
  state_name: Ontario
  latitude: '43.50010000'
  longitude: "-80.49969000"
- name: Renfrew
  state_code: 'ON'
  state_name: Ontario
  latitude: '45.46681000'
  longitude: "-76.68272000"
- name: Richmond
  state_code: 'ON'
  state_name: Ontario
  latitude: '45.18340000'
  longitude: "-75.83266000"
- name: Richmond Hill
  state_code: 'ON'
  state_name: Ontario
  latitude: '43.87111000'
  longitude: "-79.43725000"
- name: Ridgetown
  state_code: 'ON'
  state_name: Ontario
  latitude: '42.43339000'
  longitude: "-81.89978000"
- name: Rockwood
  state_code: 'ON'
  state_name: Ontario
  latitude: '43.61899000'
  longitude: "-80.14441000"
- name: Russell
  state_code: 'ON'
  state_name: Ontario
  latitude: '45.25010000'
  longitude: "-75.36602000"
- name: Sarnia
  state_code: 'ON'
  state_name: Ontario
  latitude: '42.97866000'
  longitude: "-82.40407000"
- name: Sault Ste. Marie
  state_code: 'ON'
  state_name: Ontario
  latitude: '46.51677000'
  longitude: "-84.33325000"
- name: Scarborough
  state_code: 'ON'
  state_name: Ontario
  latitude: '43.77223000'
  longitude: "-79.25666000"
- name: Seaforth
  state_code: 'ON'
  state_name: Ontario
  latitude: '43.55009000'
  longitude: "-81.39976000"
- name: Shelburne
  state_code: 'ON'
  state_name: Ontario
  latitude: '44.07870000'
  longitude: "-80.20408000"
- name: Simcoe
  state_code: 'ON'
  state_name: Ontario
  latitude: '42.83340000'
  longitude: "-80.29967000"
- name: Sioux Lookout
  state_code: 'ON'
  state_name: Ontario
  latitude: '50.06676000'
  longitude: "-91.98358000"
- name: Skatepark
  state_code: 'ON'
  state_name: Ontario
  latitude: '44.25122000'
  longitude: "-76.94424000"
- name: Smiths Falls
  state_code: 'ON'
  state_name: Ontario
  latitude: '44.90452000'
  longitude: "-76.02333000"
- name: South Huron
  state_code: 'ON'
  state_name: Ontario
  latitude: '43.31679000'
  longitude: "-81.51647000"
- name: South River
  state_code: 'ON'
  state_name: Ontario
  latitude: '45.83340000'
  longitude: "-79.38293000"
- name: St. Catharines
  state_code: 'ON'
  state_name: Ontario
  latitude: '43.17126000'
  longitude: "-79.24267000"
- name: St. George
  state_code: 'ON'
  state_name: Ontario
  latitude: '43.24495000'
  longitude: "-80.25144000"
- name: St. Thomas
  state_code: 'ON'
  state_name: Ontario
  latitude: '42.77361000'
  longitude: "-81.18038000"
- name: Stirling
  state_code: 'ON'
  state_name: Ontario
  latitude: '44.30012000'
  longitude: "-77.54948000"
- name: Stoney Point
  state_code: 'ON'
  state_name: Ontario
  latitude: '44.26681000'
  longitude: "-79.53292000"
- name: Stratford
  state_code: 'ON'
  state_name: Ontario
  latitude: '43.36679000'
  longitude: "-80.94972000"
- name: Sudbury
  state_code: 'ON'
  state_name: Ontario
  latitude: '47.16679000'
  longitude: "-81.99980000"
- name: Tavistock
  state_code: 'ON'
  state_name: Ontario
  latitude: '43.31679000'
  longitude: "-80.83302000"
- name: Temiskaming Shores
  state_code: 'ON'
  state_name: Ontario
  latitude: '47.49376000'
  longitude: "-79.71529000"
- name: Thessalon
  state_code: 'ON'
  state_name: Ontario
  latitude: '46.25006000'
  longitude: "-83.56660000"
- name: Thornhill
  state_code: 'ON'
  state_name: Ontario
  latitude: '43.81708480'
  longitude: "-79.45011940"
- name: Thorold
  state_code: 'ON'
  state_name: Ontario
  latitude: '43.11682000'
  longitude: "-79.19958000"
- name: Thunder Bay
  state_code: 'ON'
  state_name: Ontario
  latitude: '48.38202000'
  longitude: "-89.25018000"
- name: Thunder Bay District
  state_code: 'ON'
  state_name: Ontario
  latitude: '49.50011000'
  longitude: "-88.50004000"
- name: Timiskaming District
  state_code: 'ON'
  state_name: Ontario
  latitude: '47.75016000'
  longitude: "-80.33303000"
- name: Timmins
  state_code: 'ON'
  state_name: Ontario
  latitude: '48.46686000'
  longitude: "-81.33312000"
- name: Tobermory
  state_code: 'ON'
  state_name: Ontario
  latitude: '45.25007000'
  longitude: "-81.66647000"
- name: Toronto
  state_code: 'ON'
  state_name: Ontario
  latitude: '43.70011000'
  longitude: "-79.41630000"
- name: Toronto county
  state_code: 'ON'
  state_name: Ontario
  latitude: '43.69655000'
  longitude: "-79.42909000"
- name: Tottenham
  state_code: 'ON'
  state_name: Ontario
  latitude: '44.02437000'
  longitude: "-79.80553000"
- name: Tweed
  state_code: 'ON'
  state_name: Ontario
  latitude: '44.47512000'
  longitude: "-77.31616000"
- name: Uxbridge
  state_code: 'ON'
  state_name: Ontario
  latitude: '44.10012000'
  longitude: "-79.11628000"
- name: Valley East
  state_code: 'ON'
  state_name: Ontario
  latitude: '46.66773000'
  longitude: "-81.00028000"
- name: Vanier
  state_code: 'ON'
  state_name: Ontario
  latitude: '45.43990000'
  longitude: "-75.66498000"
- name: Vaughan
  state_code: 'ON'
  state_name: Ontario
  latitude: '43.83610000'
  longitude: "-79.49827000"
- name: Vineland
  state_code: 'ON'
  state_name: Ontario
  latitude: '43.15012000'
  longitude: "-79.39960000"
- name: Virgil
  state_code: 'ON'
  state_name: Ontario
  latitude: '43.21682000'
  longitude: "-79.13288000"
- name: Walpole Island
  state_code: 'ON'
  state_name: Ontario
  latitude: '42.61520000'
  longitude: "-82.51398000"
- name: Wasaga Beach
  state_code: 'ON'
  state_name: Ontario
  latitude: '44.51680000'
  longitude: "-80.01637000"
- name: Waterford
  state_code: 'ON'
  state_name: Ontario
  latitude: '42.93340000'
  longitude: "-80.28296000"
- name: Waterloo
  state_code: 'ON'
  state_name: Ontario
  latitude: '43.46680000'
  longitude: "-80.51639000"
- name: Watford
  state_code: 'ON'
  state_name: Ontario
  latitude: '42.95008000'
  longitude: "-81.88309000"
- name: Wawa
  state_code: 'ON'
  state_name: Ontario
  latitude: '47.98877000'
  longitude: "-84.77411000"
- name: Welland
  state_code: 'ON'
  state_name: Ontario
  latitude: '42.98342000'
  longitude: "-79.24958000"
- name: Wellesley
  state_code: 'ON'
  state_name: Ontario
  latitude: '43.47691000'
  longitude: "-80.76209000"
- name: Wendover
  state_code: 'ON'
  state_name: Ontario
  latitude: '45.57275000'
  longitude: "-75.12757000"
- name: West Lorne
  state_code: 'ON'
  state_name: Ontario
  latitude: '42.60009000'
  longitude: "-81.59976000"
- name: Willowdale
  state_code: 'ON'
  state_name: Ontario
  latitude: '43.76672000'
  longitude: "-79.39909000"
- name: Winchester
  state_code: 'ON'
  state_name: Ontario
  latitude: '45.08340000'
  longitude: "-75.34933000"
- name: Windsor
  state_code: 'ON'
  state_name: Ontario
  latitude: '42.30008000'
  longitude: "-83.01654000"
- name: Wingham
  state_code: 'ON'
  state_name: Ontario
  latitude: '43.88793000'
  longitude: "-81.31145000"
- name: Woodstock
  state_code: 'ON'
  state_name: Ontario
  latitude: '43.13339000'
  longitude: "-80.74970000"
- name: York
  state_code: 'ON'
  state_name: Ontario
  latitude: '44.00011000'
  longitude: "-79.46632000"
- name: Alberton
  state_code: PE
  state_name: Prince Edward Island
  latitude: '46.81685000'
  longitude: "-64.06542000"
- name: Belfast
  state_code: PE
  state_name: Prince Edward Island
  latitude: '46.08341000'
  longitude: "-62.88197000"
- name: Charlottetown
  state_code: PE
  state_name: Prince Edward Island
  latitude: '46.23899000'
  longitude: "-63.13414000"
- name: Cornwall
  state_code: PE
  state_name: Prince Edward Island
  latitude: '46.22652000'
  longitude: "-63.21809000"
- name: Fallingbrook
  state_code: PE
  state_name: Prince Edward Island
  latitude: '45.47558000'
  longitude: "-75.48401000"
- name: Kensington
  state_code: PE
  state_name: Prince Edward Island
  latitude: '46.43343000'
  longitude: "-63.64871000"
- name: Montague
  state_code: PE
  state_name: Prince Edward Island
  latitude: '46.16681000'
  longitude: "-62.64866000"
- name: Souris
  state_code: PE
  state_name: Prince Edward Island
  latitude: '46.35010000'
  longitude: "-62.24862000"
- name: Summerside
  state_code: PE
  state_name: Prince Edward Island
  latitude: '46.39593000'
  longitude: "-63.78762000"
- name: Abitibi-Témiscamingue
  state_code: QC
  state_name: Quebec
  latitude: '48.10018000'
  longitude: "-77.78280000"
- name: Acton Vale
  state_code: QC
  state_name: Quebec
  latitude: '45.65007000'
  longitude: "-72.56582000"
- name: Adstock
  state_code: QC
  state_name: Quebec
  latitude: '46.05007000'
  longitude: "-71.08235000"
- name: Albanel
  state_code: QC
  state_name: Quebec
  latitude: '48.88324000'
  longitude: "-72.44867000"
- name: Alma
  state_code: QC
  state_name: Quebec
  latitude: '48.55009000'
  longitude: "-71.64910000"
- name: Amos
  state_code: QC
  state_name: Quebec
  latitude: '48.56688000'
  longitude: "-78.11624000"
- name: Amqui
  state_code: QC
  state_name: Quebec
  latitude: '48.46382000'
  longitude: "-67.43134000"
- name: Ange-Gardien
  state_code: QC
  state_name: Quebec
  latitude: '45.35008000'
  longitude: "-72.93244000"
- name: Asbestos
  state_code: QC
  state_name: Quebec
  latitude: '45.76678000'
  longitude: "-71.93240000"
- name: Baie-Comeau
  state_code: QC
  state_name: Quebec
  latitude: '49.21679000'
  longitude: "-68.14894000"
- name: Baie-D'Urfé
  state_code: QC
  state_name: Quebec
  latitude: '45.41397000'
  longitude: "-73.91586000"
- name: Baie-Saint-Paul
  state_code: QC
  state_name: Quebec
  latitude: '47.44109000'
  longitude: "-70.49858000"
- name: Barraute
  state_code: QC
  state_name: Quebec
  latitude: '48.43349000'
  longitude: "-77.63279000"
- name: Bas-Saint-Laurent
  state_code: QC
  state_name: Quebec
  latitude: '48.05030000'
  longitude: "-68.02266000"
- name: Beaconsfield
  state_code: QC
  state_name: Quebec
  latitude: '45.43341000'
  longitude: "-73.86586000"
- name: Beauceville
  state_code: QC
  state_name: Quebec
  latitude: '46.21785000'
  longitude: "-70.77873000"
- name: Beauharnois
  state_code: QC
  state_name: Quebec
  latitude: '45.31341000'
  longitude: "-73.87250000"
- name: Beaupré
  state_code: QC
  state_name: Quebec
  latitude: '47.04428000'
  longitude: "-70.89529000"
- name: Bécancour
  state_code: QC
  state_name: Quebec
  latitude: '46.34106000'
  longitude: "-72.43224000"
- name: Bedford
  state_code: QC
  state_name: Quebec
  latitude: '45.11678000'
  longitude: "-72.98244000"
- name: Beloeil
  state_code: QC
  state_name: Quebec
  latitude: '45.56839000'
  longitude: "-73.20568000"
- name: Berthierville
  state_code: QC
  state_name: Quebec
  latitude: '46.08336000'
  longitude: "-73.18245000"
- name: Blainville
  state_code: QC
  state_name: Quebec
  latitude: '45.66678000'
  longitude: "-73.88249000"
- name: Bois-des-Filion
  state_code: QC
  state_name: Quebec
  latitude: '45.66678000'
  longitude: "-73.74918000"
- name: Boisbriand
  state_code: QC
  state_name: Quebec
  latitude: '45.61678000'
  longitude: "-73.83249000"
- name: Bonaventure
  state_code: QC
  state_name: Quebec
  latitude: '48.04573000'
  longitude: "-65.49259000"
- name: Boucherville
  state_code: QC
  state_name: Quebec
  latitude: '45.59104000'
  longitude: "-73.43605000"
- name: Breakeyville
  state_code: QC
  state_name: Quebec
  latitude: '46.68037000'
  longitude: "-71.22327000"
- name: Bromont
  state_code: QC
  state_name: Quebec
  latitude: '45.31678000'
  longitude: "-72.64912000"
- name: Brossard
  state_code: QC
  state_name: Quebec
  latitude: '45.45008000'
  longitude: "-73.46583000"
- name: Brownsburg-Chatham
  state_code: QC
  state_name: Quebec
  latitude: '45.68342000'
  longitude: "-74.41590000"
- name: Buckingham
  state_code: QC
  state_name: Quebec
  latitude: '45.58563000'
  longitude: "-75.42080000"
- name: Cabano
  state_code: QC
  state_name: Quebec
  latitude: '47.68065000'
  longitude: "-68.87810000"
- name: Cacouna
  state_code: QC
  state_name: Quebec
  latitude: '47.91657000'
  longitude: "-69.50054000"
- name: Candiac
  state_code: QC
  state_name: Quebec
  latitude: '45.38338000'
  longitude: "-73.51587000"
- name: Cantley
  state_code: QC
  state_name: Quebec
  latitude: '45.56680000'
  longitude: "-75.78265000"
- name: Cap-Chat
  state_code: QC
  state_name: Quebec
  latitude: '49.10009000'
  longitude: "-66.68212000"
- name: Cap-Santé
  state_code: QC
  state_name: Quebec
  latitude: '46.67159000'
  longitude: "-71.78812000"
- name: Capitale-Nationale
  state_code: QC
  state_name: Quebec
  latitude: '47.37600000'
  longitude: "-71.12337000"
- name: Carignan
  state_code: QC
  state_name: Quebec
  latitude: '45.45008000'
  longitude: "-73.29916000"
- name: Carleton
  state_code: QC
  state_name: Quebec
  latitude: '48.09838000'
  longitude: "-66.10036000"
- name: Carleton-sur-Mer
  state_code: QC
  state_name: Quebec
  latitude: '48.10749000'
  longitude: "-66.12800000"
- name: Centre-du-Québec
  state_code: QC
  state_name: Quebec
  latitude: '46.01985000'
  longitude: "-71.98242000"
- name: Chambly
  state_code: QC
  state_name: Quebec
  latitude: '45.45008000'
  longitude: "-73.28246000"
- name: Chambord
  state_code: QC
  state_name: Quebec
  latitude: '48.43339000'
  longitude: "-72.06583000"
- name: Chandler
  state_code: QC
  state_name: Quebec
  latitude: '48.34935000'
  longitude: "-64.67926000"
- name: Chapais
  state_code: QC
  state_name: Quebec
  latitude: '49.78344000'
  longitude: "-74.84919000"
- name: Charlemagne
  state_code: QC
  state_name: Quebec
  latitude: '45.71678000'
  longitude: "-73.48247000"
- name: Château-Richer
  state_code: QC
  state_name: Quebec
  latitude: '46.96031000'
  longitude: "-71.03219000"
- name: Châteauguay
  state_code: QC
  state_name: Quebec
  latitude: '45.38338000'
  longitude: "-73.74919000"
- name: Chaudière-Appalaches
  state_code: QC
  state_name: Quebec
  latitude: '46.55500000'
  longitude: "-70.83080000"
- name: Chertsey
  state_code: QC
  state_name: Quebec
  latitude: '46.07109000'
  longitude: "-73.89095000"
- name: Chibougamau
  state_code: QC
  state_name: Quebec
  latitude: '49.91684000'
  longitude: "-74.36586000"
- name: Chute-aux-Outardes
  state_code: QC
  state_name: Quebec
  latitude: '49.11679000'
  longitude: "-68.39896000"
- name: Coaticook
  state_code: QC
  state_name: Quebec
  latitude: '45.13339000'
  longitude: "-71.79907000"
- name: Contrecoeur
  state_code: QC
  state_name: Quebec
  latitude: '45.85008000'
  longitude: "-73.23245000"
- name: Cookshire
  state_code: QC
  state_name: Quebec
  latitude: '45.41536000'
  longitude: "-71.62962000"
- name: Cookshire-Eaton
  state_code: QC
  state_name: Quebec
  latitude: '45.41675000'
  longitude: "-71.63240000"
- name: Côte-Nord
  state_code: QC
  state_name: Quebec
  latitude: '50.86683000'
  longitude: "-65.81541000"
- name: Côte-Saint-Luc
  state_code: QC
  state_name: Quebec
  latitude: '45.46536000'
  longitude: "-73.66585000"
- name: Coteau-du-Lac
  state_code: QC
  state_name: Quebec
  latitude: '45.30008000'
  longitude: "-74.18253000"
- name: Cowansville
  state_code: QC
  state_name: Quebec
  latitude: '45.20008000'
  longitude: "-72.74913000"
- name: Crabtree
  state_code: QC
  state_name: Quebec
  latitude: '45.96677000'
  longitude: "-73.46586000"
- name: Danville
  state_code: QC
  state_name: Quebec
  latitude: '45.78337000'
  longitude: "-72.01580000"
- name: Daveluyville
  state_code: QC
  state_name: Quebec
  latitude: '46.20006000'
  longitude: "-72.13239000"
- name: Delson
  state_code: QC
  state_name: Quebec
  latitude: '45.36678000'
  longitude: "-73.54917000"
- name: Deux-Montagnes
  state_code: QC
  state_name: Quebec
  latitude: '45.53455000'
  longitude: "-73.90168000"
- name: Disraeli
  state_code: QC
  state_name: Quebec
  latitude: '45.90007000'
  longitude: "-71.34907000"
- name: Dolbeau-Mistassini
  state_code: QC
  state_name: Quebec
  latitude: '48.87860000'
  longitude: "-72.23142000"
- name: Dollard-Des Ormeaux
  state_code: QC
  state_name: Quebec
  latitude: '45.49452000'
  longitude: "-73.82419000"
- name: Donnacona
  state_code: QC
  state_name: Quebec
  latitude: '46.68042000'
  longitude: "-71.72390000"
- name: Dorval
  state_code: QC
  state_name: Quebec
  latitude: '45.44730000'
  longitude: "-73.75335000"
- name: Drummondville
  state_code: QC
  state_name: Quebec
  latitude: '45.88336000'
  longitude: "-72.48241000"
- name: Dunham
  state_code: QC
  state_name: Quebec
  latitude: '45.13338000'
  longitude: "-72.79913000"
- name: East Angus
  state_code: QC
  state_name: Quebec
  latitude: '45.48338000'
  longitude: "-71.66577000"
- name: East Broughton
  state_code: QC
  state_name: Quebec
  latitude: '46.21358000'
  longitude: "-71.07674000"
- name: Farnham
  state_code: QC
  state_name: Quebec
  latitude: '45.28338000'
  longitude: "-72.98244000"
- name: Ferme-Neuve
  state_code: QC
  state_name: Quebec
  latitude: '46.70011000'
  longitude: "-75.44929000"
- name: Fermont
  state_code: QC
  state_name: Quebec
  latitude: '52.78345000'
  longitude: "-67.08204000"
- name: Forestville
  state_code: QC
  state_name: Quebec
  latitude: '48.73808000'
  longitude: "-69.08478000"
- name: Fort-Coulonge
  state_code: QC
  state_name: Quebec
  latitude: '45.85011000'
  longitude: "-76.73272000"
- name: Fossambault-sur-le-Lac
  state_code: QC
  state_name: Quebec
  latitude: '46.87662000'
  longitude: "-71.61541000"
- name: Franklin
  state_code: QC
  state_name: Quebec
  latitude: '45.03338000'
  longitude: "-73.91591000"
- name: Gaspé
  state_code: QC
  state_name: Quebec
  latitude: '48.83341000'
  longitude: "-64.48194000"
- name: Gaspésie-Îles-de-la-Madeleine
  state_code: QC
  state_name: Quebec
  latitude: '48.87555000'
  longitude: "-65.40710000"
- name: Gatineau
  state_code: QC
  state_name: Quebec
  latitude: '45.47723000'
  longitude: "-75.70164000"
- name: Godefroy
  state_code: QC
  state_name: Quebec
  latitude: '51.75012000'
  longitude: "-68.08213000"
- name: Granby
  state_code: QC
  state_name: Quebec
  latitude: '45.40008000'
  longitude: "-72.73243000"
- name: Hampstead
  state_code: QC
  state_name: Quebec
  latitude: '45.48064000'
  longitude: "-73.66307000"
- name: Hauterive
  state_code: QC
  state_name: Quebec
  latitude: '49.19572000'
  longitude: "-68.25813000"
- name: Havre-Saint-Pierre
  state_code: QC
  state_name: Quebec
  latitude: '50.24342000'
  longitude: "-63.60264000"
- name: Hérouxville
  state_code: QC
  state_name: Quebec
  latitude: '46.66617000'
  longitude: "-72.62512000"
- name: Hudson
  state_code: QC
  state_name: Quebec
  latitude: '45.45008000'
  longitude: "-74.14922000"
- name: Huntingdon
  state_code: QC
  state_name: Quebec
  latitude: '45.08339000'
  longitude: "-74.16593000"
- name: Joliette
  state_code: QC
  state_name: Quebec
  latitude: '46.01640000'
  longitude: "-73.42360000"
- name: Jonquière
  state_code: QC
  state_name: Quebec
  latitude: '48.41648000'
  longitude: "-71.24884000"
- name: Kingsey Falls
  state_code: QC
  state_name: Quebec
  latitude: '45.85007000'
  longitude: "-72.06580000"
- name: Kirkland
  state_code: QC
  state_name: Quebec
  latitude: '45.45008000'
  longitude: "-73.86586000"
- name: L'Ancienne-Lorette
  state_code: QC
  state_name: Quebec
  latitude: '46.79392000'
  longitude: "-71.35191000"
- name: L'Ange-Gardien
  state_code: QC
  state_name: Quebec
  latitude: '46.91976000'
  longitude: "-71.08253000"
- name: L'Ascension-de-Notre-Seigneur
  state_code: QC
  state_name: Quebec
  latitude: '48.68339000'
  longitude: "-71.66580000"
- name: L'Assomption
  state_code: QC
  state_name: Quebec
  latitude: '45.82318000'
  longitude: "-73.42940000"
- name: L'Épiphanie
  state_code: QC
  state_name: Quebec
  latitude: '45.85008000'
  longitude: "-73.48246000"
- name: L'Île-Perrot
  state_code: QC
  state_name: Quebec
  latitude: '45.38338000'
  longitude: "-73.94920000"
- name: La Conception
  state_code: QC
  state_name: Quebec
  latitude: '46.15009000'
  longitude: "-74.69925000"
- name: La Haute-Saint-Charles
  state_code: QC
  state_name: Quebec
  latitude: '46.89028000'
  longitude: "-71.37222000"
- name: La Malbaie
  state_code: QC
  state_name: Quebec
  latitude: '47.65400000'
  longitude: "-70.15268000"
- name: La Minerve
  state_code: QC
  state_name: Quebec
  latitude: '46.25009000'
  longitude: "-74.93257000"
- name: La Pocatière
  state_code: QC
  state_name: Quebec
  latitude: '47.36733000'
  longitude: "-70.03484000"
- name: La Prairie
  state_code: QC
  state_name: Quebec
  latitude: '45.41678000'
  longitude: "-73.49917000"
- name: La Sarre
  state_code: QC
  state_name: Quebec
  latitude: '48.80019000'
  longitude: "-79.19964000"
- name: La Tuque
  state_code: QC
  state_name: Quebec
  latitude: '47.43337000'
  longitude: "-72.78240000"
- name: Labelle
  state_code: QC
  state_name: Quebec
  latitude: '46.28339000'
  longitude: "-74.73255000"
- name: Lac-Alouette
  state_code: QC
  state_name: Quebec
  latitude: '45.81698000'
  longitude: "-73.95920000"
- name: Lac-Brome
  state_code: QC
  state_name: Quebec
  latitude: '45.21678000'
  longitude: "-72.51581000"
- name: Lac-Connelly
  state_code: QC
  state_name: Quebec
  latitude: '45.89788000'
  longitude: "-73.97230000"
- name: Lac-Lapierre
  state_code: QC
  state_name: Quebec
  latitude: '45.89837000'
  longitude: "-73.77308000"
- name: Lac-Mégantic
  state_code: QC
  state_name: Quebec
  latitude: '45.58338000'
  longitude: "-70.88234000"
- name: Lac-Simon
  state_code: QC
  state_name: Quebec
  latitude: '46.15699000'
  longitude: "-74.74129000"
- name: Lachute
  state_code: QC
  state_name: Quebec
  latitude: '45.65008000'
  longitude: "-74.33253000"
- name: Lacolle
  state_code: QC
  state_name: Quebec
  latitude: '45.08338000'
  longitude: "-73.36585000"
- name: Lanoraie
  state_code: QC
  state_name: Quebec
  latitude: '45.96677000'
  longitude: "-73.21585000"
- name: Laval
  state_code: QC
  state_name: Quebec
  latitude: '45.56995000'
  longitude: "-73.69200000"
- name: Lavaltrie
  state_code: QC
  state_name: Quebec
  latitude: '45.88338000'
  longitude: "-73.28245000"
- name: Le Bic
  state_code: QC
  state_name: Quebec
  latitude: '48.37549000'
  longitude: "-68.69415000"
- name: le Plateau
  state_code: QC
  state_name: Quebec
  latitude: '45.43514000'
  longitude: "-75.78030000"
- name: Lebel-sur-Quévillon
  state_code: QC
  state_name: Quebec
  latitude: '49.05018000'
  longitude: "-76.98273000"
- name: Leblanc
  state_code: QC
  state_name: Quebec
  latitude: '48.26683000'
  longitude: "-74.34914000"
- name: Les Cèdres
  state_code: QC
  state_name: Quebec
  latitude: '45.30008000'
  longitude: "-74.04922000"
- name: Les Coteaux
  state_code: QC
  state_name: Quebec
  latitude: '45.28338000'
  longitude: "-74.23254000"
- name: Les Escoumins
  state_code: QC
  state_name: Quebec
  latitude: '48.35191000'
  longitude: "-69.40724000"
- name: Lévis
  state_code: QC
  state_name: Quebec
  latitude: '46.80326000'
  longitude: "-71.17793000"
- name: Linière
  state_code: QC
  state_name: Quebec
  latitude: '46.00007000'
  longitude: "-70.41572000"
- name: Longueuil
  state_code: QC
  state_name: Quebec
  latitude: '45.53121000'
  longitude: "-73.51806000"
- name: Lorraine
  state_code: QC
  state_name: Quebec
  latitude: '45.68338000'
  longitude: "-73.78249000"
- name: Louiseville
  state_code: QC
  state_name: Quebec
  latitude: '46.25594000'
  longitude: "-72.94145000"
- name: Luceville
  state_code: QC
  state_name: Quebec
  latitude: '48.54498000'
  longitude: "-68.39658000"
- name: Macamic
  state_code: QC
  state_name: Quebec
  latitude: '48.75018000'
  longitude: "-78.99962000"
- name: Magog
  state_code: QC
  state_name: Quebec
  latitude: '45.26678000'
  longitude: "-72.14909000"
- name: Malartic
  state_code: QC
  state_name: Quebec
  latitude: '48.13348000'
  longitude: "-78.13283000"
- name: Maliotenam
  state_code: QC
  state_name: Quebec
  latitude: '50.21119000'
  longitude: "-66.18164000"
- name: Manawan
  state_code: QC
  state_name: Quebec
  latitude: '47.22029000'
  longitude: "-74.38606000"
- name: Mandeville
  state_code: QC
  state_name: Quebec
  latitude: '46.36677000'
  longitude: "-73.34915000"
- name: Maniwaki
  state_code: QC
  state_name: Quebec
  latitude: '46.38341000'
  longitude: "-75.96605000"
- name: Maria
  state_code: QC
  state_name: Quebec
  latitude: '48.17490000'
  longitude: "-65.98595000"
- name: Marieville
  state_code: QC
  state_name: Quebec
  latitude: '45.43338000'
  longitude: "-73.16585000"
- name: Mascouche
  state_code: QC
  state_name: Quebec
  latitude: '45.74965000'
  longitude: "-73.59956000"
- name: Maskinongé
  state_code: QC
  state_name: Quebec
  latitude: '46.22860000'
  longitude: "-73.01917000"
- name: Matagami
  state_code: QC
  state_name: Quebec
  latitude: '49.75018000'
  longitude: "-77.63277000"
- name: Matane
  state_code: QC
  state_name: Quebec
  latitude: '48.82857000'
  longitude: "-67.52197000"
- name: Mauricie
  state_code: QC
  state_name: Quebec
  latitude: '47.55009000'
  longitude: "-73.41583000"
- name: Melocheville
  state_code: QC
  state_name: Quebec
  latitude: '45.31726000'
  longitude: "-73.93710000"
- name: Mercier
  state_code: QC
  state_name: Quebec
  latitude: '45.31678000'
  longitude: "-73.74919000"
- name: Métabetchouan
  state_code: QC
  state_name: Quebec
  latitude: '48.36679000'
  longitude: "-72.01583000"
- name: Metabetchouan-Lac-a-la-Croix
  state_code: QC
  state_name: Quebec
  latitude: '48.41000000'
  longitude: "-71.78000000"
- name: Mirabel
  state_code: QC
  state_name: Quebec
  latitude: '45.65008000'
  longitude: "-74.08251000"
- name: Mistissini
  state_code: QC
  state_name: Quebec
  latitude: '50.41667000'
  longitude: "-73.88333000"
- name: Mont-Joli
  state_code: QC
  state_name: Quebec
  latitude: '48.58388000'
  longitude: "-68.19214000"
- name: Mont-Laurier
  state_code: QC
  state_name: Quebec
  latitude: '46.55011000'
  longitude: "-75.49930000"
- name: Mont-Royal
  state_code: QC
  state_name: Quebec
  latitude: '45.51675000'
  longitude: "-73.64918000"
- name: Mont-Saint-Grégoire
  state_code: QC
  state_name: Quebec
  latitude: '45.33338000'
  longitude: "-73.16585000"
- name: Mont-Saint-Hilaire
  state_code: QC
  state_name: Quebec
  latitude: '45.56515000'
  longitude: "-73.18680000"
- name: Mont-Tremblant
  state_code: QC
  state_name: Quebec
  latitude: '46.21274000'
  longitude: "-74.58438000"
- name: Montmagny
  state_code: QC
  state_name: Quebec
  latitude: '46.98043000'
  longitude: "-70.55493000"
- name: Montréal
  state_code: QC
  state_name: Quebec
  latitude: '45.50008000'
  longitude: "-73.68248000"
- name: Montréal-Est
  state_code: QC
  state_name: Quebec
  latitude: '45.63202000'
  longitude: "-73.50750000"
- name: Montréal-Ouest
  state_code: QC
  state_name: Quebec
  latitude: '45.45286000'
  longitude: "-73.64918000"
- name: Morin-Heights
  state_code: QC
  state_name: Quebec
  latitude: '45.90009000'
  longitude: "-74.24922000"
- name: Napierville
  state_code: QC
  state_name: Quebec
  latitude: '45.18648000'
  longitude: "-73.40468000"
- name: Neuville
  state_code: QC
  state_name: Quebec
  latitude: '46.69823000'
  longitude: "-71.58275000"
- name: New Carlisle
  state_code: QC
  state_name: Quebec
  latitude: '48.00956000'
  longitude: "-65.33621000"
- name: New-Richmond
  state_code: QC
  state_name: Quebec
  latitude: '48.16059000'
  longitude: "-65.85823000"
- name: Nicolet
  state_code: QC
  state_name: Quebec
  latitude: '46.21676000'
  longitude: "-72.61582000"
- name: Nord-du-Québec
  state_code: QC
  state_name: Quebec
  latitude: '51.96200000'
  longitude: "-74.89610000"
- name: Normandin
  state_code: QC
  state_name: Quebec
  latitude: '48.83328000'
  longitude: "-72.53209000"
- name: Notre-Dame-de-Grâce
  state_code: QC
  state_name: Quebec
  latitude: '45.47675000'
  longitude: "-73.61432000"
- name: Notre-Dame-de-l'Île-Perrot
  state_code: QC
  state_name: Quebec
  latitude: '45.36678000'
  longitude: "-73.93250000"
- name: Notre-Dame-des-Prairies
  state_code: QC
  state_name: Quebec
  latitude: '46.05007000'
  longitude: "-73.43245000"
- name: Notre-Dame-du-Lac
  state_code: QC
  state_name: Quebec
  latitude: '46.75012000'
  longitude: "-79.04961000"
- name: Notre-Dame-du-Mont-Carmel
  state_code: QC
  state_name: Quebec
  latitude: '46.01680000'
  longitude: "-75.08259000"
- name: Oka
  state_code: QC
  state_name: Quebec
  latitude: '45.46489000'
  longitude: "-74.08892000"
- name: Ormstown
  state_code: QC
  state_name: Quebec
  latitude: '45.13338000'
  longitude: "-73.99922000"
- name: Otterburn Park
  state_code: QC
  state_name: Quebec
  latitude: '45.53338000'
  longitude: "-73.21585000"
- name: Outaouais
  state_code: QC
  state_name: Quebec
  latitude: '46.26681000'
  longitude: "-76.31606000"
- name: Papineauville
  state_code: QC
  state_name: Quebec
  latitude: '45.61680000'
  longitude: "-75.01599000"
- name: Parc-Boutin
  state_code: QC
  state_name: Quebec
  latitude: '45.29209000'
  longitude: "-73.26154000"
- name: Piedmont
  state_code: QC
  state_name: Quebec
  latitude: '45.90008000'
  longitude: "-74.13251000"
- name: Pierreville
  state_code: QC
  state_name: Quebec
  latitude: '46.07034000'
  longitude: "-72.81125000"
- name: Pincourt
  state_code: QC
  state_name: Quebec
  latitude: '45.38338000'
  longitude: "-73.98250000"
- name: Plessisville
  state_code: QC
  state_name: Quebec
  latitude: '46.21856000'
  longitude: "-71.76201000"
- name: Pohénégamook
  state_code: QC
  state_name: Quebec
  latitude: '47.46315000'
  longitude: "-69.22666000"
- name: Pointe-Calumet
  state_code: QC
  state_name: Quebec
  latitude: '45.50008000'
  longitude: "-73.96590000"
- name: Pointe-Claire
  state_code: QC
  state_name: Quebec
  latitude: '45.44868000'
  longitude: "-73.81669000"
