---
- name: Aysén
  state_code: AI
  state_name: Aisén del General Carlos Ibañez del Campo
  latitude: "-45.40303000"
  longitude: "-72.69184000"
- name: Chile Chico
  state_code: AI
  state_name: Aisén del General Carlos Ibañez del Campo
  latitude: "-46.53760000"
  longitude: "-71.72930000"
- name: Cisnes
  state_code: AI
  state_name: Aisén del General Carlos Ibañez del Campo
  latitude: "-44.72750000"
  longitude: "-72.68050000"
- name: Cochrane
  state_code: AI
  state_name: Aisén del General Carlos Ibañez del Campo
  latitude: "-47.25390000"
  longitude: "-72.57320000"
- name: Coyhaique
  state_code: AI
  state_name: Aisén del General Carlos Ibañez del Campo
  latitude: "-45.57524000"
  longitude: "-72.06619000"
- name: Guaitecas
  state_code: AI
  state_name: Aisén del General Carlos Ibañez del Campo
  latitude: "-43.88333333"
  longitude: "-73.73333333"
- name: Lago Verde
  state_code: AI
  state_name: Aisén del General Carlos Ibañez del Campo
  latitude: "-44.24031000"
  longitude: "-71.84950000"
- name: O'Higgins
  state_code: AI
  state_name: Aisén del General Carlos Ibañez del Campo
  latitude: "-48.46666667"
  longitude: "-72.56666667"
- name: Río Ibáñez
  state_code: AI
  state_name: Aisén del General Carlos Ibañez del Campo
  latitude: "-46.30000000"
  longitude: "-71.93333333"
- name: Tortel
  state_code: AI
  state_name: Aisén del General Carlos Ibañez del Campo
  latitude: "-47.83333333"
  longitude: "-73.56666667"
- name: Antofagasta
  state_code: AN
  state_name: Antofagasta
  latitude: "-23.65236000"
  longitude: "-70.39540000"
- name: Calama
  state_code: AN
  state_name: Antofagasta
  latitude: "-22.45667000"
  longitude: "-68.92371000"
- name: María Elena
  state_code: AN
  state_name: Antofagasta
  latitude: "-22.35000000"
  longitude: "-69.66666667"
- name: Mejillones
  state_code: AN
  state_name: Antofagasta
  latitude: "-23.10000000"
  longitude: "-70.45000000"
- name: Ollagüe
  state_code: AN
  state_name: Antofagasta
  latitude: "-21.22496000"
  longitude: "-68.25352000"
- name: San Pedro de Atacama
  state_code: AN
  state_name: Antofagasta
  latitude: "-22.91110000"
  longitude: "-68.20113000"
- name: Sierra Gorda
  state_code: AN
  state_name: Antofagasta
  latitude: "-22.88333333"
  longitude: "-69.31666667"
- name: Taltal
  state_code: AN
  state_name: Antofagasta
  latitude: "-25.40713000"
  longitude: "-70.48554000"
- name: Tocopilla
  state_code: AN
  state_name: Antofagasta
  latitude: "-22.09198000"
  longitude: "-70.19792000"
- name: Arica
  state_code: AP
  state_name: Arica y Parinacota
  latitude: "-18.47460000"
  longitude: "-70.29792000"
- name: Camarones
  state_code: AP
  state_name: Arica y Parinacota
  latitude: "-19.01666667"
  longitude: "-69.86666667"
- name: General Lagos
  state_code: AP
  state_name: Arica y Parinacota
  latitude: "-17.56666667"
  longitude: "-69.50000000"
- name: Putre
  state_code: AP
  state_name: Arica y Parinacota
  latitude: "-18.19640000"
  longitude: "-69.55920000"
- name: Alto del Carmen
  state_code: AT
  state_name: Atacama
  latitude: "-28.93355556"
  longitude: "-70.46227778"
- name: Caldera
  state_code: AT
  state_name: Atacama
  latitude: "-27.06666667"
  longitude: "-70.81666667"
- name: Chañaral
  state_code: AT
  state_name: Atacama
  latitude: "-26.34790000"
  longitude: "-70.62240000"
- name: Copiapó
  state_code: AT
  state_name: Atacama
  latitude: "-27.36650000"
  longitude: "-70.33230000"
- name: Diego de Almagro
  state_code: AT
  state_name: Atacama
  latitude: "-26.36667000"
  longitude: "-70.05000000"
- name: Freirina
  state_code: AT
  state_name: Atacama
  latitude: "-28.50000000"
  longitude: "-71.06666667"
- name: Huasco
  state_code: AT
  state_name: Atacama
  latitude: "-28.45000000"
  longitude: "-71.21666667"
- name: Tierra Amarilla
  state_code: AT
  state_name: Atacama
  latitude: "-27.46666667"
  longitude: "-70.26666667"
- name: Vallenar
  state_code: AT
  state_name: Atacama
  latitude: "-28.57617000"
  longitude: "-70.75938000"
- name: Alto Biobío
  state_code: BI
  state_name: Biobío
  latitude: "-38.05000000"
  longitude: "-71.31666667"
- name: Antuco
  state_code: BI
  state_name: Biobío
  latitude: "-37.33333333"
  longitude: "-71.68333333"
- name: Arauco
  state_code: BI
  state_name: Biobío
  latitude: "-37.24630000"
  longitude: "-73.31752000"
- name: Cabrero
  state_code: BI
  state_name: Biobío
  latitude: "-37.03394000"
  longitude: "-72.40468000"
- name: Cañete
  state_code: BI
  state_name: Biobío
  latitude: "-37.80128000"
  longitude: "-73.39616000"
- name: Chiguayante
  state_code: BI
  state_name: Biobío
  latitude: "-36.92560000"
  longitude: "-73.02841000"
- name: Concepción
  state_code: BI
  state_name: Biobío
  latitude: "-36.82699000"
  longitude: "-73.04977000"
- name: Contulmo
  state_code: BI
  state_name: Biobío
  latitude: "-38.00000000"
  longitude: "-73.23333333"
- name: Coronel
  state_code: BI
  state_name: Biobío
  latitude: "-37.03386000"
  longitude: "-73.14019000"
- name: Curanilahue
  state_code: BI
  state_name: Biobío
  latitude: "-37.47793000"
  longitude: "-73.34495000"
- name: Florida
  state_code: BI
  state_name: Biobío
  latitude: "-36.81666667"
  longitude: "-72.66666667"
- name: Hualpén
  state_code: BI
  state_name: Biobío
  latitude: "-36.78333333"
  longitude: "-73.08333333"
- name: Hualqui
  state_code: BI
  state_name: Biobío
  latitude: "-36.97266000"
  longitude: "-72.93559000"
- name: Laja
  state_code: BI
  state_name: Biobío
  latitude: "-37.28415000"
  longitude: "-72.71105000"
- name: Lebu
  state_code: BI
  state_name: Biobío
  latitude: "-37.60825000"
  longitude: "-73.65356000"
- name: Los Álamos
  state_code: BI
  state_name: Biobío
  latitude: "-37.61666667"
  longitude: "-73.46666667"
- name: Los Ángeles
  state_code: BI
  state_name: Biobío
  latitude: "-37.46973000"
  longitude: "-72.35366000"
- name: Lota
  state_code: BI
  state_name: Biobío
  latitude: "-37.08994000"
  longitude: "-73.15770000"
- name: Mulchén
  state_code: BI
  state_name: Biobío
  latitude: "-37.71893000"
  longitude: "-72.24099000"
- name: Nacimiento
  state_code: BI
  state_name: Biobío
  latitude: "-37.50253000"
  longitude: "-72.67307000"
- name: Negrete
  state_code: BI
  state_name: Biobío
  latitude: "-37.58333333"
  longitude: "-72.51666667"
- name: Penco
  state_code: BI
  state_name: Biobío
  latitude: "-36.74075000"
  longitude: "-72.99528000"
- name: Quilaco
  state_code: BI
  state_name: Biobío
  latitude: "-37.68436111"
  longitude: "-72.00636111"
- name: Quilleco
  state_code: BI
  state_name: Biobío
  latitude: "-37.46666667"
  longitude: "-71.96666667"
- name: San Pedro de la Paz
  state_code: BI
  state_name: Biobío
  latitude: "-36.84082000"
  longitude: "-73.10311000"
- name: San Rosendo
  state_code: BI
  state_name: Biobío
  latitude: "-37.26666667"
  longitude: "-72.71666667"
- name: Santa Bárbara
  state_code: BI
  state_name: Biobío
  latitude: "-37.66666667"
  longitude: "-72.01666667"
- name: Santa Juana
  state_code: BI
  state_name: Biobío
  latitude: "-37.16666667"
  longitude: "-72.93333333"
- name: Talcahuano
  state_code: BI
  state_name: Biobío
  latitude: "-36.72494000"
  longitude: "-73.11684000"
- name: Tirúa
  state_code: BI
  state_name: Biobío
  latitude: "-38.33333333"
  longitude: "-73.50000000"
- name: Tomé
  state_code: BI
  state_name: Biobío
  latitude: "-36.61756000"
  longitude: "-72.95593000"
- name: Tucapel
  state_code: BI
  state_name: Biobío
  latitude: "-37.28333333"
  longitude: "-71.95000000"
- name: Yumbel
  state_code: BI
  state_name: Biobío
  latitude: "-37.09820000"
  longitude: "-72.56084000"
- name: Andacollo
  state_code: CO
  state_name: Coquimbo
  latitude: "-30.21666667"
  longitude: "-71.08333333"
- name: Canela
  state_code: CO
  state_name: Coquimbo
  latitude: "-31.40000000"
  longitude: "-71.45000000"
- name: Combarbalá
  state_code: CO
  state_name: Coquimbo
  latitude: "-31.16666667"
  longitude: "-71.05000000"
- name: Coquimbo
  state_code: CO
  state_name: Coquimbo
  latitude: "-29.95332000"
  longitude: "-71.33947000"
- name: Illapel
  state_code: CO
  state_name: Coquimbo
  latitude: "-31.63349000"
  longitude: "-71.16967000"
- name: La Higuera
  state_code: CO
  state_name: Coquimbo
  latitude: "-29.50000000"
  longitude: "-71.26666667"
- name: La Serena
  state_code: CO
  state_name: Coquimbo
  latitude: "-29.90453000"
  longitude: "-71.24894000"
- name: Los Vilos
  state_code: CO
  state_name: Coquimbo
  latitude: "-31.90000000"
  longitude: "-71.51666667"
- name: Monte Patria
  state_code: CO
  state_name: Coquimbo
  latitude: "-30.69496000"
  longitude: "-70.95770000"
- name: Ovalle
  state_code: CO
  state_name: Coquimbo
  latitude: "-30.60106000"
  longitude: "-71.19901000"
- name: Paihuano
  state_code: CO
  state_name: Coquimbo
  latitude: "-30.02884000"
  longitude: "-70.51708000"
- name: Punitaqui
  state_code: CO
  state_name: Coquimbo
  latitude: "-30.90000000"
  longitude: "-71.26666667"
- name: Río Hurtado
  state_code: CO
  state_name: Coquimbo
  latitude: "-30.26666667"
  longitude: "-70.70000000"
- name: Salamanca
  state_code: CO
  state_name: Coquimbo
  latitude: "-31.77922000"
  longitude: "-70.96389000"
- name: Vicuña
  state_code: CO
  state_name: Coquimbo
  latitude: "-30.03541000"
  longitude: "-70.71274000"
- name: Angol
  state_code: AR
  state_name: La Araucanía
  latitude: "-37.79519000"
  longitude: "-72.71636000"
- name: Carahue
  state_code: AR
  state_name: La Araucanía
  latitude: "-38.71122000"
  longitude: "-73.16101000"
- name: Cholchol
  state_code: AR
  state_name: La Araucanía
  latitude: "-38.60000000"
  longitude: "-72.85000000"
- name: Collipulli
  state_code: AR
  state_name: La Araucanía
  latitude: "-37.95453000"
  longitude: "-72.43438000"
- name: Cunco
  state_code: AR
  state_name: La Araucanía
  latitude: "-38.91666667"
  longitude: "-72.03333333"
- name: Curacautín
  state_code: AR
  state_name: La Araucanía
  latitude: "-38.44049210"
  longitude: "-71.90539600"
- name: Curarrehue
  state_code: AR
  state_name: La Araucanía
  latitude: "-39.35000000"
  longitude: "-71.58333333"
- name: Ercilla
  state_code: AR
  state_name: La Araucanía
  latitude: "-38.05000000"
  longitude: "-72.38333333"
- name: Freire
  state_code: AR
  state_name: La Araucanía
  latitude: "-38.95252000"
  longitude: "-72.62653000"
- name: Galvarino
  state_code: AR
  state_name: La Araucanía
  latitude: "-38.40000000"
  longitude: "-72.78333333"
- name: Gorbea
  state_code: AR
  state_name: La Araucanía
  latitude: "-39.10000000"
  longitude: "-72.68333333"
- name: Lautaro
  state_code: AR
  state_name: La Araucanía
  latitude: "-38.53066000"
  longitude: "-72.43652000"
- name: Loncoche
  state_code: AR
  state_name: La Araucanía
  latitude: "-39.36708000"
  longitude: "-72.63087000"
- name: Lonquimay
  state_code: AR
  state_name: La Araucanía
  latitude: "-38.43333333"
  longitude: "-71.23333333"
- name: Los Sauces
  state_code: AR
  state_name: La Araucanía
  latitude: "-37.96666667"
  longitude: "-72.83333333"
- name: Lumaco
  state_code: AR
  state_name: La Araucanía
  latitude: "-38.15000000"
  longitude: "-72.91666667"
- name: Melipeuco
  state_code: AR
  state_name: La Araucanía
  latitude: "-38.85000000"
  longitude: "-71.70000000"
- name: Nueva Imperial
  state_code: AR
  state_name: La Araucanía
  latitude: "-38.74451000"
  longitude: "-72.95025000"
- name: Padre Las Casas
  state_code: AR
  state_name: La Araucanía
  latitude: "-38.76666667"
  longitude: "-72.60000000"
- name: Perquenco
  state_code: AR
  state_name: La Araucanía
  latitude: "-38.41666667"
  longitude: "-72.38333333"
- name: Pitrufquén
  state_code: AR
  state_name: La Araucanía
  latitude: "-38.98635000"
  longitude: "-72.63721000"
- name: Pucón
  state_code: AR
  state_name: La Araucanía
  latitude: "-39.28223000"
  longitude: "-71.95427000"
- name: Purén
  state_code: AR
  state_name: La Araucanía
  latitude: "-38.01666667"
  longitude: "-73.08333333"
- name: Renaico
  state_code: AR
  state_name: La Araucanía
  latitude: "-37.71779000"
  longitude: "-72.57570000"
- name: Saavedra
  state_code: AR
  state_name: La Araucanía
  latitude: "-38.78333333"
  longitude: "-73.40000000"
- name: Temuco
  state_code: AR
  state_name: La Araucanía
  latitude: "-38.73965000"
  longitude: "-72.59842000"
- name: Teodoro Schmidt
  state_code: AR
  state_name: La Araucanía
  latitude: "-38.96666667"
  longitude: "-73.05000000"
- name: Toltén
  state_code: AR
  state_name: La Araucanía
  latitude: "-39.17852000"
  longitude: "-73.16448000"
- name: Traiguén
  state_code: AR
  state_name: La Araucanía
  latitude: "-38.24960000"
  longitude: "-72.67027000"
- name: Victoria
  state_code: AR
  state_name: La Araucanía
  latitude: "-38.23291000"
  longitude: "-72.33292000"
- name: Vilcún
  state_code: AR
  state_name: La Araucanía
  latitude: "-38.66875000"
  longitude: "-72.22565000"
- name: Villarrica
  state_code: AR
  state_name: La Araucanía
  latitude: "-39.28569000"
  longitude: "-72.22790000"
- name: Chépica
  state_code: LI
  state_name: Libertador General Bernardo O'Higgins
  latitude: "-34.73333333"
  longitude: "-71.28333333"
- name: Chimbarongo
  state_code: LI
  state_name: Libertador General Bernardo O'Higgins
  latitude: "-34.71247000"
  longitude: "-71.04340000"
- name: Codegua
  state_code: LI
  state_name: Libertador General Bernardo O'Higgins
  latitude: "-34.03333333"
  longitude: "-70.66666667"
- name: Coínco
  state_code: LI
  state_name: Libertador General Bernardo O'Higgins
  latitude: "-34.26666667"
  longitude: "-70.96666667"
- name: Coltauco
  state_code: LI
  state_name: Libertador General Bernardo O'Higgins
  latitude: "-34.30000000"
  longitude: "-71.10000000"
- name: Doñihue
  state_code: LI
  state_name: Libertador General Bernardo O'Higgins
  latitude: "-34.23333333"
  longitude: "-70.96666667"
- name: Graneros
  state_code: LI
  state_name: Libertador General Bernardo O'Higgins
  latitude: "-34.06863000"
  longitude: "-70.72747000"
- name: La Estrella
  state_code: LI
  state_name: Libertador General Bernardo O'Higgins
  latitude: "-34.20000000"
  longitude: "-71.66666667"
- name: Las Cabras
  state_code: LI
  state_name: Libertador General Bernardo O'Higgins
  latitude: "-34.30000000"
  longitude: "-71.31666667"
- name: Litueche
  state_code: LI
  state_name: Libertador General Bernardo O'Higgins
  latitude: "-34.11666667"
  longitude: "-71.73333333"
- name: Lolol
  state_code: LI
  state_name: Libertador General Bernardo O'Higgins
  latitude: "-34.72861111"
  longitude: "-71.64472222"
- name: Machalí
  state_code: LI
  state_name: Libertador General Bernardo O'Higgins
  latitude: "-34.18082000"
  longitude: "-70.64933000"
- name: Malloa
  state_code: LI
  state_name: Libertador General Bernardo O'Higgins
  latitude: "-34.45000000"
  longitude: "-70.95000000"
- name: Marchigüe
  state_code: LI
  state_name: Libertador General Bernardo O'Higgins
  latitude: "-34.40000000"
  longitude: "-71.63333333"
- name: Mostazal
  state_code: LI
  state_name: Libertador General Bernardo O'Higgins
  latitude: "-33.98333333"
  longitude: "-70.70000000"
- name: Nancagua
  state_code: LI
  state_name: Libertador General Bernardo O'Higgins
  latitude: "-34.66666667"
  longitude: "-71.21666667"
- name: Navidad
  state_code: LI
  state_name: Libertador General Bernardo O'Higgins
  latitude: "-33.93333333"
  longitude: "-71.83333333"
- name: Olivar
  state_code: LI
  state_name: Libertador General Bernardo O'Higgins
  latitude: "-34.21164000"
  longitude: "-70.82012000"
- name: Palmilla
  state_code: LI
  state_name: Libertador General Bernardo O'Higgins
  latitude: "-34.60000000"
  longitude: "-71.36666667"
- name: Paredones
  state_code: LI
  state_name: Libertador General Bernardo O'Higgins
  latitude: "-34.78333333"
  longitude: "-71.16666667"
- name: Peralillo
  state_code: LI
  state_name: Libertador General Bernardo O'Higgins
  latitude: "-34.48333333"
  longitude: "-71.48333333"
- name: Peumo
  state_code: LI
  state_name: Libertador General Bernardo O'Higgins
  latitude: "-34.40000000"
  longitude: "-71.16666667"
- name: Pichidegua
  state_code: LI
  state_name: Libertador General Bernardo O'Higgins
  latitude: "-34.35000000"
  longitude: "-71.30000000"
- name: Pichilemu
  state_code: LI
  state_name: Libertador General Bernardo O'Higgins
  latitude: "-34.38333000"
  longitude: "-72.00000000"
- name: Placilla
  state_code: LI
  state_name: Libertador General Bernardo O'Higgins
  latitude: "-34.63333333"
  longitude: "-71.11666667"
- name: Pumanque
  state_code: LI
  state_name: Libertador General Bernardo O'Higgins
  latitude: "-34.60000000"
  longitude: "-71.66666667"
- name: Quinta de Tilcoco
  state_code: LI
  state_name: Libertador General Bernardo O'Higgins
  latitude: "-34.35550000"
  longitude: "-70.96527000"
- name: Rancagua
  state_code: LI
  state_name: Libertador General Bernardo O'Higgins
  latitude: "-34.17083000"
  longitude: "-70.74444000"
- name: Rengo
  state_code: LI
  state_name: Libertador General Bernardo O'Higgins
  latitude: "-34.40639000"
  longitude: "-70.85834000"
- name: Requínoa
  state_code: LI
  state_name: Libertador General Bernardo O'Higgins
  latitude: "-34.28333333"
  longitude: "-70.83333333"
- name: San Fernando
  state_code: LI
  state_name: Libertador General Bernardo O'Higgins
  latitude: "-34.74330000"
  longitude: "-70.60328000"
- name: San Vicente
  state_code: LI
  state_name: Libertador General Bernardo O'Higgins
  latitude: "-34.43859000"
  longitude: "-71.07751000"
- name: Santa Cruz
  state_code: LI
  state_name: Libertador General Bernardo O'Higgins
  latitude: "-34.63881000"
  longitude: "-71.36576000"
- name: Ancud
  state_code: LL
  state_name: Los Lagos
  latitude: "-41.87070000"
  longitude: "-73.81622000"
- name: Calbuco
  state_code: LL
  state_name: Los Lagos
  latitude: "-41.77338000"
  longitude: "-73.13049000"
- name: Castro
  state_code: LL
  state_name: Los Lagos
  latitude: "-42.47210000"
  longitude: "-73.77319000"
- name: Chaitén
  state_code: LL
  state_name: Los Lagos
  latitude: "-42.91596000"
  longitude: "-72.70632000"
- name: Chonchi
  state_code: LL
  state_name: Los Lagos
  latitude: "-42.62387000"
  longitude: "-73.77500000"
- name: Cochamó
  state_code: LL
  state_name: Los Lagos
  latitude: "-41.50000000"
  longitude: "-72.31666667"
- name: Curaco de Vélez
  state_code: LL
  state_name: Los Lagos
  latitude: "-42.43970000"
  longitude: "-73.60290000"
- name: Dalcahue
  state_code: LL
  state_name: Los Lagos
  latitude: "-42.37845000"
  longitude: "-73.65011000"
- name: Fresia
  state_code: LL
  state_name: Los Lagos
  latitude: "-41.15364000"
  longitude: "-73.42102000"
- name: Frutillar
  state_code: LL
  state_name: Los Lagos
  latitude: "-41.08716000"
  longitude: "-73.09563000"
- name: Futaleufú
  state_code: LL
  state_name: Los Lagos
  latitude: "-43.18492000"
  longitude: "-71.86722000"
- name: Hualaihué
  state_code: LL
  state_name: Los Lagos
  latitude: "-42.01666667"
  longitude: "-72.68333333"
- name: Llanquihue
  state_code: LL
  state_name: Los Lagos
  latitude: "-41.34285000"
  longitude: "-72.65800000"
- name: Los Muermos
  state_code: LL
  state_name: Los Lagos
  latitude: "-41.40000000"
  longitude: "-73.48333333"
- name: Maullín
  state_code: LL
  state_name: Los Lagos
  latitude: "-41.61666667"
  longitude: "-73.60000000"
- name: Osorno
  state_code: LL
  state_name: Los Lagos
  latitude: "-40.57395000"
  longitude: "-73.13348000"
- name: Palena
  state_code: LL
  state_name: Los Lagos
  latitude: "-43.61876000"
  longitude: "-71.80434000"
- name: Puerto Montt
  state_code: LL
  state_name: Los Lagos
  latitude: "-41.46930000"
  longitude: "-72.94237000"
- name: Puerto Octay
  state_code: LL
  state_name: Los Lagos
  latitude: "-40.96666667"
  longitude: "-72.90000000"
- name: Puerto Varas
  state_code: LL
  state_name: Los Lagos
  latitude: "-41.31946000"
  longitude: "-72.98538000"
- name: Puqueldón
  state_code: LL
  state_name: Los Lagos
  latitude: "-42.60001000"
  longitude: "-73.67458000"
- name: Purranque
  state_code: LL
  state_name: Los Lagos
  latitude: "-40.91305000"
  longitude: "-73.15913000"
- name: Puyehue
  state_code: LL
  state_name: Los Lagos
  latitude: "-40.70968010"
  longitude: "-72.64190560"
- name: Queilén
  state_code: LL
  state_name: Los Lagos
  latitude: "-42.85572000"
  longitude: "-73.56436000"
- name: Quellón
  state_code: LL
  state_name: Los Lagos
  latitude: "-43.11819000"
  longitude: "-73.61661000"
- name: Quemchi
  state_code: LL
  state_name: Los Lagos
  latitude: "-42.13333333"
  longitude: "-73.51666667"
- name: Quinchao
  state_code: LL
  state_name: Los Lagos
  latitude: "-42.53333333"
  longitude: "-73.41666667"
- name: Río Negro
  state_code: LL
  state_name: Los Lagos
  latitude: "-40.79615000"
  longitude: "-73.21614000"
- name: San Juan de la Costa
  state_code: LL
  state_name: Los Lagos
  latitude: "-40.51666667"
  longitude: "-73.40000000"
- name: San Pablo
  state_code: LL
  state_name: Los Lagos
  latitude: "-40.40000000"
  longitude: "-73.01666667"
- name: Corral
  state_code: LR
  state_name: Los Ríos
  latitude: "-39.88730000"
  longitude: "-73.43101000"
- name: Futrono
  state_code: LR
  state_name: Los Ríos
  latitude: "-40.13333333"
  longitude: "-72.40000000"
- name: La Unión
  state_code: LR
  state_name: Los Ríos
  latitude: "-40.29313000"
  longitude: "-73.08167000"
- name: Lago Ranco
  state_code: LR
  state_name: Los Ríos
  latitude: "-40.31666667"
  longitude: "-72.50000000"
- name: Lanco
  state_code: LR
  state_name: Los Ríos
  latitude: "-39.45246000"
  longitude: "-72.77117000"
- name: Los Lagos
  state_code: LR
  state_name: Los Ríos
  latitude: "-39.85000000"
  longitude: "-72.83333333"
- name: Máfil
  state_code: LR
  state_name: Los Ríos
  latitude: "-39.65000000"
  longitude: "-72.95000000"
- name: Mariquina
  state_code: LR
  state_name: Los Ríos
  latitude: "-39.51666667"
  longitude: "-72.96666667"
- name: Paillaco
  state_code: LR
  state_name: Los Ríos
  latitude: "-40.07060000"
  longitude: "-72.87270000"
- name: Panguipulli
  state_code: LR
  state_name: Los Ríos
  latitude: "-39.64355000"
  longitude: "-72.33269000"
- name: Río Bueno
  state_code: LR
  state_name: Los Ríos
  latitude: "-40.33494000"
  longitude: "-72.95564000"
- name: Valdivia
  state_code: LR
  state_name: Los Ríos
  latitude: "-39.81422000"
  longitude: "-73.24589000"
- name: Antártica
  state_code: MA
  state_name: Magallanes y de la Antártica Chilena
  latitude: "-75.00000000"
  longitude: "-71.50000000"
- name: Cabo de Hornos
  state_code: MA
  state_name: Magallanes y de la Antártica Chilena
  latitude: "-54.93333333"
  longitude: "-67.61666667"
- name: Laguna Blanca
  state_code: MA
  state_name: Magallanes y de la Antártica Chilena
  latitude: "-52.25000000"
  longitude: "-71.91666667"
- name: Natales
  state_code: MA
  state_name: Magallanes y de la Antártica Chilena
  latitude: "-51.73333333"
  longitude: "-72.51666667"
- name: Porvenir
  state_code: MA
  state_name: Magallanes y de la Antártica Chilena
  latitude: "-53.30000000"
  longitude: "-70.36666667"
- name: Primavera
  state_code: MA
  state_name: Magallanes y de la Antártica Chilena
  latitude: "-52.71666667"
  longitude: "-69.25000000"
- name: Punta Arenas
  state_code: MA
  state_name: Magallanes y de la Antártica Chilena
  latitude: "-53.16270000"
  longitude: "-70.90810000"
- name: Río Verde
  state_code: MA
  state_name: Magallanes y de la Antártica Chilena
  latitude: "-52.65000000"
  longitude: "-71.48333333"
- name: San Gregorio
  state_code: MA
  state_name: Magallanes y de la Antártica Chilena
  latitude: "-52.31666667"
  longitude: "-69.68333333"
- name: Timaukel
  state_code: MA
  state_name: Magallanes y de la Antártica Chilena
  latitude: "-53.66666667"
  longitude: "-69.90000000"
- name: Torres del Paine
  state_code: MA
  state_name: Magallanes y de la Antártica Chilena
  latitude: "-51.26666667"
  longitude: "-72.35000000"
- name: Cauquenes
  state_code: ML
  state_name: Maule
  latitude: "-35.96710000"
  longitude: "-72.32248000"
- name: Chanco
  state_code: ML
  state_name: Maule
  latitude: "-35.73333333"
  longitude: "-72.53333333"
- name: Colbún
  state_code: ML
  state_name: Maule
  latitude: "-35.69494000"
  longitude: "-71.40568000"
- name: Constitución
  state_code: ML
  state_name: Maule
  latitude: "-35.33321000"
  longitude: "-72.41156000"
- name: Curepto
  state_code: ML
  state_name: Maule
  latitude: "-35.08333333"
  longitude: "-72.01666667"
- name: Curicó
  state_code: ML
  state_name: Maule
  latitude: "-34.98279000"
  longitude: "-71.23943000"
- name: Empedrado
  state_code: ML
  state_name: Maule
  latitude: "-35.60000000"
  longitude: "-72.28333333"
- name: Hualañé
  state_code: ML
  state_name: Maule
  latitude: "-34.97653333"
  longitude: "-71.80478611"
- name: Licantén
  state_code: ML
  state_name: Maule
  latitude: "-34.98333333"
  longitude: "-72.00000000"
- name: Linares
  state_code: ML
  state_name: Maule
  latitude: "-35.84667000"
  longitude: "-71.59308000"
- name: Longaví
  state_code: ML
  state_name: Maule
  latitude: "-35.96496000"
  longitude: "-71.68360000"
- name: Maule
  state_code: ML
  state_name: Maule
  latitude: "-35.53333333"
  longitude: "-71.70000000"
- name: Molina
  state_code: ML
  state_name: Maule
  latitude: "-35.11428000"
  longitude: "-71.28232000"
- name: Parral
  state_code: ML
  state_name: Maule
  latitude: "-36.14311000"
  longitude: "-71.82605000"
- name: Pelarco
  state_code: ML
  state_name: Maule
  latitude: "-35.38333333"
  longitude: "-71.45000000"
- name: Pelluhue
  state_code: ML
  state_name: Maule
  latitude: "-35.83333333"
  longitude: "-72.63333333"
- name: Pencahue
  state_code: ML
  state_name: Maule
  latitude: "-35.40000000"
  longitude: "-71.81666667"
- name: Rauco
  state_code: ML
  state_name: Maule
  latitude: "-34.92546000"
  longitude: "-71.31722000"
- name: Retiro
  state_code: ML
  state_name: Maule
  latitude: "-36.05000000"
  longitude: "-71.76666667"
- name: Río Claro
  state_code: ML
  state_name: Maule
  latitude: "-35.28333333"
  longitude: "-71.26666667"
- name: Romeral
  state_code: ML
  state_name: Maule
  latitude: "-34.96666667"
  longitude: "-71.13333333"
- name: Sagrada Familia
  state_code: ML
  state_name: Maule
  latitude: "-35.00000000"
  longitude: "-71.38333333"
- name: San Clemente
  state_code: ML
  state_name: Maule
  latitude: "-35.53777000"
  longitude: "-71.48700000"
- name: San Javier
  state_code: ML
  state_name: Maule
  latitude: "-35.59520000"
  longitude: "-71.72924000"
- name: San Rafael
  state_code: ML
  state_name: Maule
  latitude: "-35.31666667"
  longitude: "-71.53333333"
- name: Talca
  state_code: ML
  state_name: Maule
  latitude: "-35.42640000"
  longitude: "-71.65542000"
- name: Teno
  state_code: ML
  state_name: Maule
  latitude: "-34.87055000"
  longitude: "-71.16219000"
- name: Vichuquén
  state_code: ML
  state_name: Maule
  latitude: "-34.88333333"
  longitude: "-72.00000000"
- name: Villa Alegre
  state_code: ML
  state_name: Maule
  latitude: "-35.66666667"
  longitude: "-71.75000000"
- name: Yerbas Buenas
  state_code: ML
  state_name: Maule
  latitude: "-35.75000000"
  longitude: "-71.58333333"
- name: Bulnes
  state_code: NB
  state_name: Ñuble
  latitude: "-36.74232000"
  longitude: "-72.29854000"
- name: Chillán
  state_code: NB
  state_name: Ñuble
  latitude: "-36.60664000"
  longitude: "-72.10344000"
- name: Chillán Viejo
  state_code: NB
  state_name: Ñuble
  latitude: "-36.62290000"
  longitude: "-72.13170000"
- name: Cobquecura
  state_code: NB
  state_name: Ñuble
  latitude: "-36.13333333"
  longitude: "-72.78333333"
- name: Coelemu
  state_code: NB
  state_name: Ñuble
  latitude: "-36.48333333"
  longitude: "-72.70000000"
- name: Coihueco
  state_code: NB
  state_name: Ñuble
  latitude: "-36.62785000"
  longitude: "-71.83068000"
- name: El Carmen
  state_code: NB
  state_name: Ñuble
  latitude: "-36.90000000"
  longitude: "-72.03333333"
- name: Ninhue
  state_code: NB
  state_name: Ñuble
  latitude: "-36.40000000"
  longitude: "-72.40000000"
- name: Ñiquén
  state_code: NB
  state_name: Ñuble
  latitude: "-36.30000000"
  longitude: "-71.90000000"
- name: Pemuco
  state_code: NB
  state_name: Ñuble
  latitude: "-36.96666667"
  longitude: "-72.10000000"
- name: Pinto
  state_code: NB
  state_name: Ñuble
  latitude: "-36.70000000"
  longitude: "-71.90000000"
- name: Portezuelo
  state_code: NB
  state_name: Ñuble
  latitude: "-36.53333333"
  longitude: "-72.43333333"
- name: Quillón
  state_code: NB
  state_name: Ñuble
  latitude: "-36.73333333"
  longitude: "-72.46666667"
- name: Quirihue
  state_code: NB
  state_name: Ñuble
  latitude: "-36.27998000"
  longitude: "-72.54118000"
- name: Ránquil
  state_code: NB
  state_name: Ñuble
  latitude: "-36.65000000"
  longitude: "-72.55000000"
- name: San Carlos
  state_code: NB
  state_name: Ñuble
  latitude: "-36.42477000"
  longitude: "-71.95800000"
- name: San Fabián
  state_code: NB
  state_name: Ñuble
  latitude: "-36.55000000"
  longitude: "-71.55000000"
- name: San Ignacio
  state_code: NB
  state_name: Ñuble
  latitude: "-36.79999910"
  longitude: "-72.04207620"
- name: San Nicolás
  state_code: NB
  state_name: Ñuble
  latitude: "-36.50000000"
  longitude: "-72.21666667"
- name: Treguaco
  state_code: NB
  state_name: Ñuble
  latitude: "-36.43333333"
  longitude: "-72.66666667"
- name: Yungay
  state_code: NB
  state_name: Ñuble
  latitude: "-37.11666667"
  longitude: "-72.01666667"
- name: Alhué
  state_code: RM
  state_name: Región Metropolitana de Santiago
  latitude: "-34.03333333"
  longitude: "-71.10000000"
- name: Buin
  state_code: RM
  state_name: Región Metropolitana de Santiago
  latitude: "-33.73257000"
  longitude: "-70.74281000"
- name: Calera de Tango
  state_code: RM
  state_name: Región Metropolitana de Santiago
  latitude: "-33.65000000"
  longitude: "-70.81666667"
- name: Cerrillos
  state_code: RM
  state_name: Región Metropolitana de Santiago
  latitude: "-33.50229190"
  longitude: "-70.73009420"
- name: Cerro Navia
  state_code: RM
  state_name: Región Metropolitana de Santiago
  latitude: "-33.42516430"
  longitude: "-70.78407540"
- name: Colina
  state_code: RM
  state_name: Región Metropolitana de Santiago
  latitude: "-33.20000000"
  longitude: "-70.68333333"
- name: Conchalí
  state_code: RM
  state_name: Región Metropolitana de Santiago
  latitude: "-33.35000000"
  longitude: "-70.61666667"
- name: Curacaví
  state_code: RM
  state_name: Región Metropolitana de Santiago
  latitude: "-33.46937830"
  longitude: "-70.72612030"
- name: El Bosque
  state_code: RM
  state_name: Región Metropolitana de Santiago
  latitude: "-33.56666667"
  longitude: "-70.70000000"
- name: El Monte
  state_code: RM
  state_name: Región Metropolitana de Santiago
  latitude: "-33.67969000"
  longitude: "-70.98482000"
- name: Estación Central
  state_code: RM
  state_name: Región Metropolitana de Santiago
  latitude: "-33.45194400"
  longitude: "-70.67888900"
- name: Huechuraba
  state_code: RM
  state_name: Región Metropolitana de Santiago
  latitude: "-33.36928270"
  longitude: "-70.66482650"
- name: Independencia
  state_code: RM
  state_name: Región Metropolitana de Santiago
  latitude: "-33.41666667"
  longitude: "-70.63333333"
- name: Isla de Maipo
  state_code: RM
  state_name: Región Metropolitana de Santiago
  latitude: "-33.75000000"
  longitude: "-70.90000000"
- name: La Cisterna
  state_code: RM
  state_name: Región Metropolitana de Santiago
  latitude: "-33.55000000"
  longitude: "-70.68333000"
- name: La Florida
  state_code: RM
  state_name: Región Metropolitana de Santiago
  latitude: "-33.55000000"
  longitude: "-70.56666667"
- name: La Granja
  state_code: RM
  state_name: Región Metropolitana de Santiago
  latitude: "-33.54305556"
  longitude: "-70.63194444"
- name: La Pintana
  state_code: RM
  state_name: Región Metropolitana de Santiago
  latitude: "-33.58331000"
  longitude: "-70.63419000"
- name: La Reina
  state_code: RM
  state_name: Región Metropolitana de Santiago
  latitude: "-33.45000000"
  longitude: "-70.55000000"
- name: Lampa
  state_code: RM
  state_name: Región Metropolitana de Santiago
  latitude: "-33.28630000"
  longitude: "-70.87561000"
- name: Las Condes
  state_code: RM
  state_name: Región Metropolitana de Santiago
  latitude: "-33.41666667"
  longitude: "-70.58333333"
- name: Lo Barnechea
  state_code: RM
  state_name: Región Metropolitana de Santiago
  latitude: "-33.35000000"
  longitude: "-70.51666667"
- name: Lo Espejo
  state_code: RM
  state_name: Región Metropolitana de Santiago
  latitude: "-33.53333333"
  longitude: "-70.71666667"
- name: Lo Prado
  state_code: RM
  state_name: Región Metropolitana de Santiago
  latitude: "-33.44430000"
  longitude: "-70.72552000"
- name: Macul
  state_code: RM
  state_name: Región Metropolitana de Santiago
  latitude: "-33.50000000"
  longitude: "-70.56666667"
- name: Maipú
  state_code: RM
  state_name: Región Metropolitana de Santiago
  latitude: "-33.51666667"
  longitude: "-70.76666667"
- name: María Pinto
  state_code: RM
  state_name: Región Metropolitana de Santiago
  latitude: "-33.53333333"
  longitude: "-71.13333333"
- name: Melipilla
  state_code: RM
  state_name: Región Metropolitana de Santiago
  latitude: "-33.68909000"
  longitude: "-71.21528000"
- name: Ñuñoa
  state_code: RM
  state_name: Región Metropolitana de Santiago
  latitude: "-33.46666667"
  longitude: "-70.60000000"
- name: Padre Hurtado
  state_code: RM
  state_name: Región Metropolitana de Santiago
  latitude: "-33.56666667"
  longitude: "-70.83333333"
- name: Paine
  state_code: RM
  state_name: Región Metropolitana de Santiago
  latitude: "-33.80796000"
  longitude: "-70.74109000"
- name: Pedro Aguirre Cerda
  state_code: RM
  state_name: Región Metropolitana de Santiago
  latitude: "-33.46666667"
  longitude: "-70.63333333"
- name: Peñaflor
  state_code: RM
  state_name: Región Metropolitana de Santiago
  latitude: "-33.60627000"
  longitude: "-70.87649000"
- name: Peñalolén
  state_code: RM
  state_name: Región Metropolitana de Santiago
  latitude: "-33.48333333"
  longitude: "-70.53333333"
- name: Pirque
  state_code: RM
  state_name: Región Metropolitana de Santiago
  latitude: "-33.71865000"
  longitude: "-70.50658000"
- name: Providencia
  state_code: RM
  state_name: Región Metropolitana de Santiago
  latitude: "-33.43333333"
  longitude: "-70.61666667"
- name: Pudahuel
  state_code: RM
  state_name: Región Metropolitana de Santiago
  latitude: "-33.41883590"
  longitude: "-70.91463070"
- name: Puente Alto
  state_code: RM
  state_name: Región Metropolitana de Santiago
  latitude: "-33.61169000"
  longitude: "-70.57577000"
- name: Quilicura
  state_code: RM
  state_name: Región Metropolitana de Santiago
  latitude: "-33.36666667"
  longitude: "-70.75000000"
- name: Quinta Normal
  state_code: RM
  state_name: Región Metropolitana de Santiago
  latitude: "-33.45000000"
  longitude: "-70.70000000"
- name: Recoleta
  state_code: RM
  state_name: Región Metropolitana de Santiago
  latitude: "-33.41666667"
  longitude: "-70.65000000"
- name: Renca
  state_code: RM
  state_name: Región Metropolitana de Santiago
  latitude: "-33.40000000"
  longitude: "-70.73333333"
- name: San Bernardo
  state_code: RM
  state_name: Región Metropolitana de Santiago
  latitude: "-33.59217000"
  longitude: "-70.69960000"
- name: San Joaquín
  state_code: RM
  state_name: Región Metropolitana de Santiago
  latitude: "-33.50000000"
  longitude: "-70.61666667"
- name: San José de Maipo
  state_code: RM
  state_name: Región Metropolitana de Santiago
  latitude: "-33.63333333"
  longitude: "-70.36666667"
- name: San Miguel
  state_code: RM
  state_name: Región Metropolitana de Santiago
  latitude: "-33.50000000"
  longitude: "-70.66666667"
- name: San Pedro
  state_code: RM
  state_name: Región Metropolitana de Santiago
  latitude: "-33.90000000"
  longitude: "-71.46666667"
- name: San Ramón
  state_code: RM
  state_name: Región Metropolitana de Santiago
  latitude: "-33.53775950"
  longitude: "-70.65176730"
- name: Santiago
  state_code: RM
  state_name: Región Metropolitana de Santiago
  latitude: "-33.45694000"
  longitude: "-70.64827000"
- name: Talagante
  state_code: RM
  state_name: Región Metropolitana de Santiago
  latitude: "-33.66386000"
  longitude: "-70.92734000"
- name: Tiltil
  state_code: RM
  state_name: Región Metropolitana de Santiago
  latitude: "-33.08333333"
  longitude: "-70.93333333"
- name: Vitacura
  state_code: RM
  state_name: Región Metropolitana de Santiago
  latitude: "-33.40000000"
  longitude: "-70.60000000"
- name: Alto Hospicio
  state_code: TA
  state_name: Tarapacá
  latitude: "-20.25000000"
  longitude: "-70.11666667"
- name: Camiña
  state_code: TA
  state_name: Tarapacá
  latitude: "-19.30000000"
  longitude: "-69.41666667"
- name: Colchane
  state_code: TA
  state_name: Tarapacá
  latitude: "-19.27541100"
  longitude: "-68.63964600"
- name: Huara
  state_code: TA
  state_name: Tarapacá
  latitude: "-19.96666667"
  longitude: "-69.76666667"
- name: Iquique
  state_code: TA
  state_name: Tarapacá
  latitude: "-20.21326000"
  longitude: "-70.15027000"
- name: Pica
  state_code: TA
  state_name: Tarapacá
  latitude: "-20.50000000"
  longitude: "-69.33333333"
- name: Pozo Almonte
  state_code: TA
  state_name: Tarapacá
  latitude: "-20.25970000"
  longitude: "-69.78620000"
- name: Algarrobo
  state_code: VS
  state_name: Valparaíso
  latitude: "-33.36925600"
  longitude: "-71.66813900"
- name: Cabildo
  state_code: VS
  state_name: Valparaíso
  latitude: "-32.41737000"
  longitude: "-70.82435000"
- name: Calle Larga
  state_code: VS
  state_name: Valparaíso
  latitude: "-32.85000000"
  longitude: "-70.63333333"
- name: Cartagena
  state_code: VS
  state_name: Valparaíso
  latitude: "-33.55384000"
  longitude: "-71.60761000"
- name: Casablanca
  state_code: VS
  state_name: Valparaíso
  latitude: "-33.31666667"
  longitude: "-71.41666667"
- name: Catemu
  state_code: VS
  state_name: Valparaíso
  latitude: "-32.63333333"
  longitude: "-71.03333333"
- name: Concón
  state_code: VS
  state_name: Valparaíso
  latitude: "-32.91666667"
  longitude: "-71.51666667"
- name: El Quisco
  state_code: VS
  state_name: Valparaíso
  latitude: "-33.40000000"
  longitude: "-71.70000000"
- name: El Tabo
  state_code: VS
  state_name: Valparaíso
  latitude: "-33.45000000"
  longitude: "-71.66666667"
- name: Hijuelas
  state_code: VS
  state_name: Valparaíso
  latitude: "-32.80000000"
  longitude: "-71.16666667"
- name: Isla de Pascua
  state_code: VS
  state_name: Valparaíso
  latitude: "-27.11048000"
  longitude: "-109.29749000"
- name: Juan Fernández
  state_code: VS
  state_name: Valparaíso
  latitude: "-30.02564270"
  longitude: "-82.05192080"
- name: La Calera
  state_code: VS
  state_name: Valparaíso
  latitude: "-32.78333333"
  longitude: "-71.21666667"
- name: La Cruz
  state_code: VS
  state_name: Valparaíso
  latitude: "-32.81666667"
  longitude: "-71.23333333"
- name: La Ligua
  state_code: VS
  state_name: Valparaíso
  latitude: "-32.45242000"
  longitude: "-71.23106000"
- name: Limache
  state_code: VS
  state_name: Valparaíso
  latitude: "-33.01667000"
  longitude: "-71.26667000"
- name: Llaillay
  state_code: VS
  state_name: Valparaíso
  latitude: "-32.84043000"
  longitude: "-70.95623000"
- name: Los Andes
  state_code: VS
  state_name: Valparaíso
  latitude: "-32.83369000"
  longitude: "-70.59827000"
- name: Nogales
  state_code: VS
  state_name: Valparaíso
  latitude: "-32.71666667"
  longitude: "-71.23333333"
- name: Olmué
  state_code: VS
  state_name: Valparaíso
  latitude: "-33.00000000"
  longitude: "-71.20000000"
- name: Panquehue
  state_code: VS
  state_name: Valparaíso
  latitude: "-32.80000000"
  longitude: "-70.83333333"
- name: Papudo
  state_code: VS
  state_name: Valparaíso
  latitude: "-32.51666667"
  longitude: "-71.45000000"
- name: Petorca
  state_code: VS
  state_name: Valparaíso
  latitude: "-32.25000000"
  longitude: "-70.93333333"
- name: Puchuncaví
  state_code: VS
  state_name: Valparaíso
  latitude: "-32.72575000"
  longitude: "-71.41514000"
- name: Putaendo
  state_code: VS
  state_name: Valparaíso
  latitude: "-32.63333333"
  longitude: "-70.73333333"
- name: Quillota
  state_code: VS
  state_name: Valparaíso
  latitude: "-32.88341000"
  longitude: "-71.24882000"
- name: Quilpué
  state_code: VS
  state_name: Valparaíso
  latitude: "-33.04752000"
  longitude: "-71.44249000"
- name: Quintero
  state_code: VS
  state_name: Valparaíso
  latitude: "-32.78333333"
  longitude: "-71.53333333"
- name: Rinconada
  state_code: VS
  state_name: Valparaíso
  latitude: "-32.83333333"
  longitude: "-70.70000000"
- name: San Antonio
  state_code: VS
  state_name: Valparaíso
  latitude: "-33.59473000"
  longitude: "-71.60746000"
- name: San Esteban
  state_code: VS
  state_name: Valparaíso
  latitude: "-32.80000000"
  longitude: "-70.58333333"
- name: San Felipe
  state_code: VS
  state_name: Valparaíso
  latitude: "-32.74976000"
  longitude: "-70.72584000"
- name: Santa María
  state_code: VS
  state_name: Valparaíso
  latitude: "-32.75000000"
  longitude: "-70.66666667"
- name: Santo Domingo
  state_code: VS
  state_name: Valparaíso
  latitude: "-33.64719330"
  longitude: "-71.63527900"
- name: Valparaíso
  state_code: VS
  state_name: Valparaíso
  latitude: "-33.03600000"
  longitude: "-71.62963000"
- name: Villa Alemana
  state_code: VS
  state_name: Valparaíso
  latitude: "-33.04222000"
  longitude: "-71.37333000"
- name: Viña del Mar
  state_code: VS
  state_name: Valparaíso
  latitude: "-33.02457000"
  longitude: "-71.55183000"
- name: Zapallar
  state_code: VS
  state_name: Valparaíso
  latitude: "-32.55390000"
  longitude: "-71.45770000"
