---
- name: El Encanto
  state_code: AMA
  state_name: Amazonas
  latitude: "-1.56261000"
  longitude: "-73.25684000"
- name: La Chorrera
  state_code: AMA
  state_name: Amazonas
  latitude: "-1.48894000"
  longitude: "-72.72935000"
- name: La Pedrera
  state_code: AMA
  state_name: Amazonas
  latitude: "-1.65596000"
  longitude: "-70.22186000"
- name: La Victoria
  state_code: AMA
  state_name: Amazonas
  latitude: "-0.18311000"
  longitude: "-71.03760000"
- name: Leticia
  state_code: AMA
  state_name: Amazonas
  latitude: "-4.21528000"
  longitude: "-69.94056000"
- name: Miriti - Paraná
  state_code: AMA
  state_name: Amazonas
  latitude: "-0.81858000"
  longitude: "-70.78925000"
- name: Puerto Alegría
  state_code: AMA
  state_name: Amazonas
  latitude: "-0.96886000"
  longitude: "-73.74962000"
- name: Puerto Arica
  state_code: AMA
  state_name: Amazonas
  latitude: "-1.90677000"
  longitude: "-71.14653000"
- name: Puerto Nariño
  state_code: AMA
  state_name: Amazonas
  latitude: "-3.78889000"
  longitude: "-70.35584000"
- name: Puerto Santander
  state_code: AMA
  state_name: Amazonas
  latitude: "-1.09870000"
  longitude: "-71.93911000"
- name: Tarapacá
  state_code: AMA
  state_name: Amazonas
  latitude: "-2.88544000"
  longitude: "-69.77692000"
- name: Abejorral
  state_code: ANT
  state_name: Antioquia
  latitude: '5.78928000'
  longitude: "-75.42725000"
- name: Abriaquí
  state_code: ANT
  state_name: Antioquia
  latitude: '6.63148000'
  longitude: "-76.06444000"
- name: Alejandría
  state_code: ANT
  state_name: Antioquia
  latitude: '6.36667000'
  longitude: "-75.08333000"
- name: Amagá
  state_code: ANT
  state_name: Antioquia
  latitude: '6.04001000'
  longitude: "-75.70315000"
- name: Amalfi
  state_code: ANT
  state_name: Antioquia
  latitude: '6.91016000'
  longitude: "-75.07764000"
- name: Andes
  state_code: ANT
  state_name: Antioquia
  latitude: '5.66974000'
  longitude: "-75.89905000"
- name: Angelópolis
  state_code: ANT
  state_name: Antioquia
  latitude: '6.12228000'
  longitude: "-75.71432000"
- name: Angostura
  state_code: ANT
  state_name: Antioquia
  latitude: '6.87120000'
  longitude: "-75.35947000"
- name: Anorí
  state_code: ANT
  state_name: Antioquia
  latitude: '7.07361111'
  longitude: "-75.14694444"
- name: Anza
  state_code: ANT
  state_name: Antioquia
  latitude: '6.33333000'
  longitude: "-75.91667000"
- name: Apartadó
  state_code: ANT
  state_name: Antioquia
  latitude: '7.88299000'
  longitude: "-76.62587000"
- name: Arboletes
  state_code: ANT
  state_name: Antioquia
  latitude: '8.85051000'
  longitude: "-76.42694000"
- name: Argelia
  state_code: ANT
  state_name: Antioquia
  latitude: '5.73127000'
  longitude: "-75.14257000"
- name: Armenia
  state_code: ANT
  state_name: Antioquia
  latitude: '6.17554000'
  longitude: "-75.81230000"
- name: Barbosa
  state_code: ANT
  state_name: Antioquia
  latitude: '6.43809000'
  longitude: "-75.33136000"
- name: Bello
  state_code: ANT
  state_name: Antioquia
  latitude: '6.36160000'
  longitude: "-75.58728000"
- name: Belmira
  state_code: ANT
  state_name: Antioquia
  latitude: '6.60508000'
  longitude: "-75.66619000"
- name: Betania
  state_code: ANT
  state_name: Antioquia
  latitude: '5.73571000'
  longitude: "-75.98964000"
- name: Betulia
  state_code: ANT
  state_name: Antioquia
  latitude: '6.11284000'
  longitude: "-75.98378000"
- name: Briceño
  state_code: ANT
  state_name: Antioquia
  latitude: '7.05001000'
  longitude: "-75.50903000"
- name: Buriticá
  state_code: ANT
  state_name: Antioquia
  latitude: '6.80549000'
  longitude: "-75.92093000"
- name: Cáceres
  state_code: ANT
  state_name: Antioquia
  latitude: '7.68252000'
  longitude: "-75.22481000"
- name: Caicedo
  state_code: ANT
  state_name: Antioquia
  latitude: '6.42805000'
  longitude: "-75.99715000"
- name: Caldas
  state_code: ANT
  state_name: Antioquia
  latitude: '6.09106000'
  longitude: "-75.63569000"
- name: Campamento
  state_code: ANT
  state_name: Antioquia
  latitude: '7.03910000'
  longitude: "-75.28938000"
- name: Cañasgordas
  state_code: ANT
  state_name: Antioquia
  latitude: '6.80951000'
  longitude: "-76.03954000"
- name: Caracolí
  state_code: ANT
  state_name: Antioquia
  latitude: '6.40920000'
  longitude: "-74.75715000"
- name: Caramanta
  state_code: ANT
  state_name: Antioquia
  latitude: '5.54144000'
  longitude: "-75.66961000"
- name: Carepa
  state_code: ANT
  state_name: Antioquia
  latitude: '7.75849000'
  longitude: "-76.65255000"
- name: Carolina
  state_code: ANT
  state_name: Antioquia
  latitude: '6.74807000'
  longitude: "-75.32131000"
- name: Caucasia
  state_code: ANT
  state_name: Antioquia
  latitude: '7.98654000'
  longitude: "-75.19349000"
- name: Chigorodó
  state_code: ANT
  state_name: Antioquia
  latitude: '7.66638000'
  longitude: "-76.68106000"
- name: Cisneros
  state_code: ANT
  state_name: Antioquia
  latitude: '6.54507000'
  longitude: "-75.09415000"
- name: Ciudad Bolívar
  state_code: ANT
  state_name: Antioquia
  latitude: '5.85389000'
  longitude: "-76.02528000"
- name: Cocorná
  state_code: ANT
  state_name: Antioquia
  latitude: '6.00579000'
  longitude: "-75.16984000"
- name: Concepción
  state_code: ANT
  state_name: Antioquia
  latitude: '6.39408000'
  longitude: "-75.25830000"
- name: Concordia
  state_code: ANT
  state_name: Antioquia
  latitude: '6.04639000'
  longitude: "-75.90705000"
- name: Copacabana
  state_code: ANT
  state_name: Antioquia
  latitude: '6.36230000'
  longitude: "-75.49922000"
- name: Dabeiba
  state_code: ANT
  state_name: Antioquia
  latitude: '7.03367000'
  longitude: "-76.34161000"
- name: Donmatías
  state_code: ANT
  state_name: Antioquia
  latitude: '6.48569000'
  longitude: "-75.39496000"
- name: Ebéjico
  state_code: ANT
  state_name: Antioquia
  latitude: '6.32598000'
  longitude: "-75.76835000"
- name: El Bagre
  state_code: ANT
  state_name: Antioquia
  latitude: '7.60347000'
  longitude: "-74.80951000"
- name: El Carmen de Viboral
  state_code: ANT
  state_name: Antioquia
  latitude: '6.08236000'
  longitude: "-75.33509000"
- name: El Santuario
  state_code: ANT
  state_name: Antioquia
  latitude: '6.13833000'
  longitude: "-75.26417000"
- name: Entrerrios
  state_code: ANT
  state_name: Antioquia
  latitude: '6.58333000'
  longitude: "-75.58333000"
- name: Envigado
  state_code: ANT
  state_name: Antioquia
  latitude: '6.17591000'
  longitude: "-75.59174000"
- name: Fredonia
  state_code: ANT
  state_name: Antioquia
  latitude: '5.89239000'
  longitude: "-75.68546000"
- name: Frontino
  state_code: ANT
  state_name: Antioquia
  latitude: '6.77133000'
  longitude: "-76.13324000"
- name: Giraldo
  state_code: ANT
  state_name: Antioquia
  latitude: '6.66667000'
  longitude: "-75.95346000"
- name: Girardota
  state_code: ANT
  state_name: Antioquia
  latitude: '6.36789000'
  longitude: "-75.46231000"
- name: Gómez Plata
  state_code: ANT
  state_name: Antioquia
  latitude: '6.68178000'
  longitude: "-75.21907000"
- name: Granada
  state_code: ANT
  state_name: Antioquia
  latitude: '6.14353000'
  longitude: "-75.18532000"
- name: Guadalupe
  state_code: ANT
  state_name: Antioquia
  latitude: '6.81449000'
  longitude: "-75.24063000"
- name: Guarne
  state_code: ANT
  state_name: Antioquia
  latitude: '6.28345000'
  longitude: "-75.44363000"
- name: Guatapé
  state_code: ANT
  state_name: Antioquia
  latitude: '6.25548000'
  longitude: "-75.16432000"
- name: Heliconia
  state_code: ANT
  state_name: Antioquia
  latitude: '6.20831000'
  longitude: "-75.73565000"
- name: Hispania
  state_code: ANT
  state_name: Antioquia
  latitude: '5.79925000'
  longitude: "-75.90718000"
- name: Itagui
  state_code: ANT
  state_name: Antioquia
  latitude: '6.17874000'
  longitude: "-75.63117000"
- name: Ituango
  state_code: ANT
  state_name: Antioquia
  latitude: '7.17117000'
  longitude: "-75.76404000"
- name: Jardín
  state_code: ANT
  state_name: Antioquia
  latitude: '5.59038000'
  longitude: "-75.81846000"
- name: Jericó
  state_code: ANT
  state_name: Antioquia
  latitude: '5.79211000'
  longitude: "-75.78601000"
- name: La Ceja
  state_code: ANT
  state_name: Antioquia
  latitude: '6.00000000'
  longitude: "-75.43311000"
- name: La Estrella
  state_code: ANT
  state_name: Antioquia
  latitude: '6.14239000'
  longitude: "-75.65257000"
- name: La Pintada
  state_code: ANT
  state_name: Antioquia
  latitude: '5.74867000'
  longitude: "-75.60626000"
- name: La Unión
  state_code: ANT
  state_name: Antioquia
  latitude: '5.94642000'
  longitude: "-75.35917000"
- name: Liborina
  state_code: ANT
  state_name: Antioquia
  latitude: '6.67790000'
  longitude: "-75.81218000"
- name: Maceo
  state_code: ANT
  state_name: Antioquia
  latitude: '6.55196000'
  longitude: "-74.78741000"
- name: Marinilla
  state_code: ANT
  state_name: Antioquia
  latitude: '6.19609000'
  longitude: "-75.30313000"
- name: Medellín
  state_code: ANT
  state_name: Antioquia
  latitude: '6.25184000'
  longitude: "-75.56359000"
- name: Montebello
  state_code: ANT
  state_name: Antioquia
  latitude: '5.93703000'
  longitude: "-75.52741000"
- name: Murindó
  state_code: ANT
  state_name: Antioquia
  latitude: '6.84698000'
  longitude: "-76.71544000"
- name: Mutatá
  state_code: ANT
  state_name: Antioquia
  latitude: '7.24407000'
  longitude: "-76.43564000"
- name: Nariño
  state_code: ANT
  state_name: Antioquia
  latitude: '5.60893000'
  longitude: "-75.17656000"
- name: Nechí
  state_code: ANT
  state_name: Antioquia
  latitude: '8.09419000'
  longitude: "-74.77573000"
- name: Necoclí
  state_code: ANT
  state_name: Antioquia
  latitude: '8.42627000'
  longitude: "-76.78926000"
- name: Olaya
  state_code: ANT
  state_name: Antioquia
  latitude: '6.62773000'
  longitude: "-75.81270000"
- name: Peñol
  state_code: ANT
  state_name: Antioquia
  latitude: '6.23434000'
  longitude: "-75.22573000"
- name: Peque
  state_code: ANT
  state_name: Antioquia
  latitude: '7.02123000'
  longitude: "-75.90926000"
- name: Pueblorrico
  state_code: ANT
  state_name: Antioquia
  latitude: '5.80000000'
  longitude: "-75.85000000"
- name: Puerto Berrío
  state_code: ANT
  state_name: Antioquia
  latitude: '6.50749000'
  longitude: "-74.52271000"
- name: Puerto Nare
  state_code: ANT
  state_name: Antioquia
  latitude: '6.19167000'
  longitude: "-74.58670000"
- name: Puerto Triunfo
  state_code: ANT
  state_name: Antioquia
  latitude: '5.87259000'
  longitude: "-74.64050000"
- name: Remedios
  state_code: ANT
  state_name: Antioquia
  latitude: '7.02835000'
  longitude: "-74.69379000"
- name: Retiro
  state_code: ANT
  state_name: Antioquia
  latitude: '6.05906000'
  longitude: "-75.51488000"
- name: Rionegro
  state_code: ANT
  state_name: Antioquia
  latitude: '6.16667000'
  longitude: "-75.41667000"
- name: Sabanalarga
  state_code: ANT
  state_name: Antioquia
  latitude: '6.84893000'
  longitude: "-75.81711000"
- name: Sabaneta
  state_code: ANT
  state_name: Antioquia
  latitude: '6.15153000'
  longitude: "-75.61657000"
- name: Salgar
  state_code: ANT
  state_name: Antioquia
  latitude: '5.96711000'
  longitude: "-75.98747000"
- name: San Andrés de Cuerquía
  state_code: ANT
  state_name: Antioquia
  latitude: '6.90333000'
  longitude: "-75.68250000"
- name: San Carlos
  state_code: ANT
  state_name: Antioquia
  latitude: '7.79177000'
  longitude: "-74.77316000"
- name: San Francisco
  state_code: ANT
  state_name: Antioquia
  latitude: '6.11667000'
  longitude: "-75.98333000"
- name: San Jerónimo
  state_code: ANT
  state_name: Antioquia
  latitude: '6.44139000'
  longitude: "-75.70783000"
- name: San José de la Montaña
  state_code: ANT
  state_name: Antioquia
  latitude: '6.82205000'
  longitude: "-75.69757000"
- name: San Juan de Urabá
  state_code: ANT
  state_name: Antioquia
  latitude: '8.75924000'
  longitude: "-76.52969000"
- name: San Luis
  state_code: ANT
  state_name: Antioquia
  latitude: '6.04222222'
  longitude: "-74.99333333"
- name: San Pedro de los Milagros
  state_code: ANT
  state_name: Antioquia
  latitude: '6.45944444'
  longitude: "-75.55777888"
- name: San Pedro de Uraba
  state_code: ANT
  state_name: Antioquia
  latitude: '8.42291000'
  longitude: "-76.31747000"
- name: San Rafael
  state_code: ANT
  state_name: Antioquia
  latitude: '6.31234000'
  longitude: "-75.02426000"
- name: San Roque
  state_code: ANT
  state_name: Antioquia
  latitude: '6.48511000'
  longitude: "-75.01960000"
- name: San Vicente Ferrer
  state_code: ANT
  state_name: Antioquia
  latitude: '6.32237000'
  longitude: "-75.33020000"
- name: Santa Bárbara
  state_code: ANT
  state_name: Antioquia
  latitude: '5.88937000'
  longitude: "-75.58255000"
- name: Santa Fe de Antioquia
  state_code: ANT
  state_name: Antioquia
  latitude: '6.55687000'
  longitude: "-75.82806000"
- name: Santa Rosa de Osos
  state_code: ANT
  state_name: Antioquia
  latitude: '6.64738000'
  longitude: "-75.46031000"
- name: Santo Domingo
  state_code: ANT
  state_name: Antioquia
  latitude: '6.47282000'
  longitude: "-75.16547000"
- name: Segovia
  state_code: ANT
  state_name: Antioquia
  latitude: '7.28132000'
  longitude: "-74.64273000"
- name: Sonson
  state_code: ANT
  state_name: Antioquia
  latitude: '5.75000000'
  longitude: "-75.00000000"
- name: Sopetrán
  state_code: ANT
  state_name: Antioquia
  latitude: '6.52271000'
  longitude: "-75.74608000"
- name: Támesis
  state_code: ANT
  state_name: Antioquia
  latitude: '5.66462000'
  longitude: "-75.71339000"
- name: Tarazá
  state_code: ANT
  state_name: Antioquia
  latitude: '7.58358000'
  longitude: "-75.40068000"
- name: Tarso
  state_code: ANT
  state_name: Antioquia
  latitude: '5.86467000'
  longitude: "-75.82192000"
- name: Titiribí
  state_code: ANT
  state_name: Antioquia
  latitude: '6.06276000'
  longitude: "-75.79370000"
- name: Toledo
  state_code: ANT
  state_name: Antioquia
  latitude: '7.01306000'
  longitude: "-75.69528000"
- name: Turbo
  state_code: ANT
  state_name: Antioquia
  latitude: '8.09263000'
  longitude: "-76.72822000"
- name: Uramita
  state_code: ANT
  state_name: Antioquia
  latitude: '6.89944000'
  longitude: "-76.17417000"
- name: Urrao
  state_code: ANT
  state_name: Antioquia
  latitude: '6.31696000'
  longitude: "-76.13420000"
- name: Valdivia
  state_code: ANT
  state_name: Antioquia
  latitude: '7.29382000'
  longitude: "-75.39190000"
- name: Valparaíso
  state_code: ANT
  state_name: Antioquia
  latitude: '5.61500000'
  longitude: "-75.62422000"
- name: Vegachí
  state_code: ANT
  state_name: Antioquia
  latitude: '6.76141000'
  longitude: "-74.79473000"
- name: Venecia
  state_code: ANT
  state_name: Antioquia
  latitude: '5.95417000'
  longitude: "-75.79904000"
- name: Vigía del Fuerte
  state_code: ANT
  state_name: Antioquia
  latitude: '6.58933000'
  longitude: "-76.89599000"
- name: Yalí
  state_code: ANT
  state_name: Antioquia
  latitude: '6.70257000'
  longitude: "-74.79018000"
- name: Yarumal
  state_code: ANT
  state_name: Antioquia
  latitude: '6.98532000'
  longitude: "-75.45402000"
- name: Yolombó
  state_code: ANT
  state_name: Antioquia
  latitude: '6.66569000'
  longitude: "-74.99120000"
- name: Yondó
  state_code: ANT
  state_name: Antioquia
  latitude: '6.90738000'
  longitude: "-74.17686000"
- name: Zaragoza
  state_code: ANT
  state_name: Antioquia
  latitude: '7.48971000'
  longitude: "-74.86919000"
- name: Arauca
  state_code: ARA
  state_name: Arauca
  latitude: '7.08471000'
  longitude: "-70.75908000"
- name: Arauquita
  state_code: ARA
  state_name: Arauca
  latitude: '7.02917000'
  longitude: "-71.42806000"
- name: Cravo Norte
  state_code: ARA
  state_name: Arauca
  latitude: '6.30173000'
  longitude: "-70.20415000"
- name: Fortul
  state_code: ARA
  state_name: Arauca
  latitude: '6.74611000'
  longitude: "-71.85667000"
- name: Puerto Rondón
  state_code: ARA
  state_name: Arauca
  latitude: '6.28048000'
  longitude: "-71.10000000"
- name: Saravena
  state_code: ARA
  state_name: Arauca
  latitude: '6.96319000'
  longitude: "-71.88230000"
- name: Tame
  state_code: ARA
  state_name: Arauca
  latitude: '6.46065000'
  longitude: "-71.73618000"
- name: Baranoa
  state_code: ATL
  state_name: Atlántico
  latitude: '10.79497000'
  longitude: "-74.92073000"
- name: Barranquilla
  state_code: ATL
  state_name: Atlántico
  latitude: '10.96854000'
  longitude: "-74.78132000"
- name: Campo de la Cruz
  state_code: ATL
  state_name: Atlántico
  latitude: '10.37844000'
  longitude: "-74.90258000"
- name: Candelaria
  state_code: ATL
  state_name: Atlántico
  latitude: '10.47387000'
  longitude: "-74.88581000"
- name: Galapa
  state_code: ATL
  state_name: Atlántico
  latitude: '10.89790000'
  longitude: "-74.88700000"
- name: Juan de Acosta
  state_code: ATL
  state_name: Atlántico
  latitude: '10.82930000'
  longitude: "-75.03346000"
- name: Luruaco
  state_code: ATL
  state_name: Atlántico
  latitude: '10.61712000'
  longitude: "-75.15146000"
- name: Malambo
  state_code: ATL
  state_name: Atlántico
  latitude: '10.85953000'
  longitude: "-74.77386000"
- name: Manatí
  state_code: ATL
  state_name: Atlántico
  latitude: '10.46402000'
  longitude: "-74.98220000"
- name: Palmar de Varela
  state_code: ATL
  state_name: Atlántico
  latitude: '10.74055000'
  longitude: "-74.75443000"
- name: Piojó
  state_code: ATL
  state_name: Atlántico
  latitude: '10.74846000'
  longitude: "-75.10776000"
- name: Polonuevo
  state_code: ATL
  state_name: Atlántico
  latitude: '10.77697000'
  longitude: "-74.85344000"
- name: Ponedera
  state_code: ATL
  state_name: Atlántico
  latitude: '10.64297000'
  longitude: "-74.75393000"
- name: Puerto Colombia
  state_code: ATL
  state_name: Atlántico
  latitude: '11.00854000'
  longitude: "-74.90887000"
- name: Repelón
  state_code: ATL
  state_name: Atlántico
  latitude: '10.50937000'
  longitude: "-75.12830000"
- name: Sabanagrande
  state_code: ATL
  state_name: Atlántico
  latitude: '10.80077000'
  longitude: "-74.77051000"
- name: Sabanalarga
  state_code: ATL
  state_name: Atlántico
  latitude: '10.61636000'
  longitude: "-74.95717000"
- name: Santa Lucía
  state_code: ATL
  state_name: Atlántico
  latitude: '10.32420000'
  longitude: "-74.96017000"
- name: Santo Tomás
  state_code: ATL
  state_name: Atlántico
  latitude: '10.75773000'
  longitude: "-74.75451000"
- name: Soledad
  state_code: ATL
  state_name: Atlántico
  latitude: '10.89986000'
  longitude: "-74.78787000"
- name: Suan
  state_code: ATL
  state_name: Atlántico
  latitude: '10.30214000'
  longitude: "-74.91934000"
- name: Tubará
  state_code: ATL
  state_name: Atlántico
  latitude: '10.87562000'
  longitude: "-74.97873000"
- name: Usiacurí
  state_code: ATL
  state_name: Atlántico
  latitude: '10.74313000'
  longitude: "-74.97604000"
- name: Bogotá D.C.
  state_code: DC
  state_name: Bogotá D.C.
  latitude: '4.61263889'
  longitude: "-74.07050000"
- name: Achí
  state_code: BOL
  state_name: Bolívar
  latitude: '8.56950000'
  longitude: "-74.55715000"
- name: Altos del Rosario
  state_code: BOL
  state_name: Bolívar
  latitude: '8.79162000'
  longitude: "-74.16556000"
- name: Arenal
  state_code: BOL
  state_name: Bolívar
  latitude: '8.45928000'
  longitude: "-73.94331000"
- name: Arjona
  state_code: BOL
  state_name: Bolívar
  latitude: '10.17594000'
  longitude: "-75.35884000"
- name: Arroyohondo
  state_code: BOL
  state_name: Bolívar
  latitude: '10.25220000'
  longitude: "-75.01980000"
- name: Barranco de Loba
  state_code: BOL
  state_name: Bolívar
  latitude: '8.94597000'
  longitude: "-74.10647000"
- name: Calamar
  state_code: BOL
  state_name: Bolívar
  latitude: '10.23377000'
  longitude: "-74.94240000"
- name: Cantagallo
  state_code: BOL
  state_name: Bolívar
  latitude: '7.37926000'
  longitude: "-73.91550000"
- name: Cartagena de Indias
  state_code: BOL
  state_name: Bolívar
  latitude: '10.39972000'
  longitude: "-75.51444000"
- name: Cicuco
  state_code: BOL
  state_name: Bolívar
  latitude: '9.27756000'
  longitude: "-74.64312000"
- name: Clemencia
  state_code: BOL
  state_name: Bolívar
  latitude: '10.56645000'
  longitude: "-75.32499000"
- name: Córdoba
  state_code: BOL
  state_name: Bolívar
  latitude: '9.55149000'
  longitude: "-74.89800000"
- name: El Carmen de Bolívar
  state_code: BOL
  state_name: Bolívar
  latitude: '9.71740000'
  longitude: "-75.12023000"
- name: El Guamo
  state_code: BOL
  state_name: Bolívar
  latitude: '10.01753000'
  longitude: "-74.93483000"
- name: El Peñón
  state_code: BOL
  state_name: Bolívar
  latitude: '8.98691000'
  longitude: "-73.94697000"
- name: Hatillo de Loba
  state_code: BOL
  state_name: Bolívar
  latitude: '8.95635000'
  longitude: "-74.07819000"
- name: Magangué
  state_code: BOL
  state_name: Bolívar
  latitude: '9.24202000'
  longitude: "-74.75467000"
- name: Mahates
  state_code: BOL
  state_name: Bolívar
  latitude: '10.23293000'
  longitude: "-75.18985000"
- name: Margarita
  state_code: BOL
  state_name: Bolívar
  latitude: '9.06325000'
  longitude: "-74.28134000"
- name: María la Baja
  state_code: BOL
  state_name: Bolívar
  latitude: '9.99228000'
  longitude: "-75.34364000"
- name: Mompós
  state_code: BOL
  state_name: Bolívar
  latitude: '9.13990000'
  longitude: "-74.54513000"
- name: Montecristo
  state_code: BOL
  state_name: Bolívar
  latitude: '8.29710000'
  longitude: "-74.47330000"
- name: Morales
  state_code: BOL
  state_name: Bolívar
  latitude: '8.27520000'
  longitude: "-73.86884000"
- name: Norosí
  state_code: BOL
  state_name: Bolívar
  latitude: '8.52692000'
  longitude: "-74.03736000"
- name: Pinillos
  state_code: BOL
  state_name: Bolívar
  latitude: '8.91925000'
  longitude: "-74.46771000"
- name: Regidor
  state_code: BOL
  state_name: Bolívar
  latitude: '8.72229000'
  longitude: "-73.84891000"
- name: Río Viejo
  state_code: BOL
  state_name: Bolívar
  latitude: '8.58740000'
  longitude: "-73.83901000"
- name: San Cristóbal
  state_code: BOL
  state_name: Bolívar
  latitude: '9.87809000'
  longitude: "-75.25248000"
- name: San Estanislao
  state_code: BOL
  state_name: Bolívar
  latitude: '10.39833000'
  longitude: "-75.15111000"
- name: San Fernando
  state_code: BOL
  state_name: Bolívar
  latitude: '9.27972000'
  longitude: "-74.53389000"
- name: San Jacinto
  state_code: BOL
  state_name: Bolívar
  latitude: '9.83906000'
  longitude: "-75.11043000"
- name: San Jacinto del Cauca
  state_code: BOL
  state_name: Bolívar
  latitude: '8.23729000'
  longitude: "-74.66782000"
- name: San Juan Nepomuceno
  state_code: BOL
  state_name: Bolívar
  latitude: '9.94976000'
  longitude: "-75.07426000"
- name: San Martín de Loba
  state_code: BOL
  state_name: Bolívar
  latitude: '8.88214000'
  longitude: "-74.00353000"
- name: San Pablo
  state_code: BOL
  state_name: Bolívar
  latitude: '10.05154000'
  longitude: "-75.26775000"
- name: Santa Catalina
  state_code: BOL
  state_name: Bolívar
  latitude: '10.60448000'
  longitude: "-75.29555000"
- name: Santa Rosa
  state_code: BOL
  state_name: Bolívar
  latitude: '10.47312000'
  longitude: "-75.36160000"
- name: Santa Rosa del Sur
  state_code: BOL
  state_name: Bolívar
  latitude: '7.96444000'
  longitude: "-74.05444000"
- name: Simití
  state_code: BOL
  state_name: Bolívar
  latitude: '7.81632000'
  longitude: "-73.97922000"
- name: Soplaviento
  state_code: BOL
  state_name: Bolívar
  latitude: '10.33176000'
  longitude: "-75.11853000"
- name: Talaigua Nuevo
  state_code: BOL
  state_name: Bolívar
  latitude: '9.30347000'
  longitude: "-74.56477000"
- name: Tiquisio
  state_code: BOL
  state_name: Bolívar
  latitude: '8.55666000'
  longitude: "-74.26355000"
- name: Turbaco
  state_code: BOL
  state_name: Bolívar
  latitude: '10.35707000'
  longitude: "-75.38044000"
- name: Turbaná
  state_code: BOL
  state_name: Bolívar
  latitude: '10.27169000'
  longitude: "-75.44222000"
- name: Villanueva
  state_code: BOL
  state_name: Bolívar
  latitude: '10.44759000'
  longitude: "-75.26574000"
- name: Zambrano
  state_code: BOL
  state_name: Bolívar
  latitude: '9.74823000'
  longitude: "-74.88487000"
- name: Almeida
  state_code: BOY
  state_name: Boyacá
  latitude: '4.97083000'
  longitude: "-73.37972000"
- name: Aquitania
  state_code: BOY
  state_name: Boyacá
  latitude: '5.40341000'
  longitude: "-72.90192000"
- name: Arcabuco
  state_code: BOY
  state_name: Boyacá
  latitude: '5.75463000'
  longitude: "-73.43669000"
- name: Belén
  state_code: BOY
  state_name: Boyacá
  latitude: '5.98892000'
  longitude: "-72.91254000"
- name: Berbeo
  state_code: BOY
  state_name: Boyacá
  latitude: '5.22760000'
  longitude: "-73.12527000"
- name: Betéitiva
  state_code: BOY
  state_name: Boyacá
  latitude: '5.91102000'
  longitude: "-72.80926000"
- name: Boavita
  state_code: BOY
  state_name: Boyacá
  latitude: '6.33031000'
  longitude: "-72.58505000"
- name: Boyacá
  state_code: BOY
  state_name: Boyacá
  latitude: '5.45371000'
  longitude: "-73.36250000"
- name: Briceño
  state_code: BOY
  state_name: Boyacá
  latitude: '5.68822000'
  longitude: "-73.91784000"
- name: Buenavista
  state_code: BOY
  state_name: Boyacá
  latitude: '5.50000000'
  longitude: "-73.96667000"
- name: Busbanzá
  state_code: BOY
  state_name: Boyacá
  latitude: '5.83047000'
  longitude: "-72.88419000"
- name: Caldas
  state_code: BOY
  state_name: Boyacá
  latitude: '5.57830000'
  longitude: "-73.88066000"
- name: Campohermoso
  state_code: BOY
  state_name: Boyacá
  latitude: '4.97733000'
  longitude: "-73.16714000"
- name: Cerinza
  state_code: BOY
  state_name: Boyacá
  latitude: '5.93649000'
  longitude: "-72.99127000"
- name: Chinavita
  state_code: BOY
  state_name: Boyacá
  latitude: '5.17915000'
  longitude: "-73.37147000"
- name: Chiquinquirá
  state_code: BOY
  state_name: Boyacá
  latitude: '5.61363000'
  longitude: "-73.83848000"
- name: Chíquiza
  state_code: BOY
  state_name: Boyacá
  latitude: '5.60412000'
  longitude: "-73.48518000"
- name: Chiscas
  state_code: BOY
  state_name: Boyacá
  latitude: '6.55642000'
  longitude: "-72.50378000"
- name: Chita
  state_code: BOY
  state_name: Boyacá
  latitude: '6.07788000'
  longitude: "-72.46774000"
- name: Chitaraque
  state_code: BOY
  state_name: Boyacá
  latitude: '5.96167000'
  longitude: "-73.45761000"
- name: Chivatá
  state_code: BOY
  state_name: Boyacá
  latitude: '5.55823000'
  longitude: "-73.28198000"
- name: Chivor
  state_code: BOY
  state_name: Boyacá
  latitude: '4.88556000'
  longitude: "-73.36889000"
- name: Ciénega
  state_code: BOY
  state_name: Boyacá
  latitude: '5.40867000'
  longitude: "-73.29572000"
- name: Combita
  state_code: BOY
  state_name: Boyacá
  latitude: '5.63333000'
  longitude: "-73.31667000"
- name: Coper
  state_code: BOY
  state_name: Boyacá
  latitude: '5.47681000'
  longitude: "-74.04416000"
- name: Corrales
  state_code: BOY
  state_name: Boyacá
  latitude: '5.82497000'
  longitude: "-72.84539000"
- name: Covarachía
  state_code: BOY
  state_name: Boyacá
  latitude: '6.50563000'
  longitude: "-72.73310000"
- name: Cubará
  state_code: BOY
  state_name: Boyacá
  latitude: '7.00578000'
  longitude: "-72.10568000"
- name: Cucaita
  state_code: BOY
  state_name: Boyacá
  latitude: '5.54373000'
  longitude: "-73.45433000"
- name: Cuítiva
  state_code: BOY
  state_name: Boyacá
  latitude: '5.58007000'
  longitude: "-72.96687000"
- name: Duitama
  state_code: BOY
  state_name: Boyacá
  latitude: '5.82450000'
  longitude: "-73.03408000"
- name: El Cocuy
  state_code: BOY
  state_name: Boyacá
  latitude: '6.32839000'
  longitude: "-72.43577000"
- name: El Espino
  state_code: BOY
  state_name: Boyacá
  latitude: '6.50812000'
  longitude: "-72.48036000"
- name: Firavitoba
  state_code: BOY
  state_name: Boyacá
  latitude: '5.66885000'
  longitude: "-72.99289000"
- name: Floresta
  state_code: BOY
  state_name: Boyacá
  latitude: '5.85903000'
  longitude: "-72.92511000"
- name: Gachantivá
  state_code: BOY
  state_name: Boyacá
  latitude: '5.74417000'
  longitude: "-73.54253000"
- name: Gameza
  state_code: BOY
  state_name: Boyacá
  latitude: '5.80313000'
  longitude: "-72.73721000"
- name: Garagoa
  state_code: BOY
  state_name: Boyacá
  latitude: '5.08236000'
  longitude: "-73.36334000"
- name: Guacamayas
  state_code: BOY
  state_name: Boyacá
  latitude: '6.44599000'
  longitude: "-72.51676000"
- name: Guateque
  state_code: BOY
  state_name: Boyacá
  latitude: '5.00619000'
  longitude: "-73.47274000"
- name: Guayatá
  state_code: BOY
  state_name: Boyacá
  latitude: '4.96417000'
  longitude: "-73.48750000"
- name: Güicán
  state_code: BOY
  state_name: Boyacá
  latitude: '6.46554000'
  longitude: "-72.41539000"
- name: Iza
  state_code: BOY
  state_name: Boyacá
  latitude: '5.61203000'
  longitude: "-72.97930000"
- name: Jenesano
  state_code: BOY
  state_name: Boyacá
  latitude: '5.38541000'
  longitude: "-73.36364000"
- name: Jericó
  state_code: BOY
  state_name: Boyacá
  latitude: '6.14577000'
  longitude: "-72.58598000"
- name: La Capilla
  state_code: BOY
  state_name: Boyacá
  latitude: '5.08076000'
  longitude: "-73.48076000"
- name: La Uvita
  state_code: BOY
  state_name: Boyacá
  latitude: '6.24262000'
  longitude: "-72.56448000"
- name: La Victoria
  state_code: BOY
  state_name: Boyacá
  latitude: '5.52278000'
  longitude: "-74.23280000"
- name: Labranzagrande
  state_code: BOY
  state_name: Boyacá
  latitude: '5.56223000'
  longitude: "-72.57499000"
- name: Macanal
  state_code: BOY
  state_name: Boyacá
  latitude: '4.95050000'
  longitude: "-73.32029000"
- name: Maripí
  state_code: BOY
  state_name: Boyacá
  latitude: '5.55194000'
  longitude: "-74.00861000"
- name: Miraflores
  state_code: BOY
  state_name: Boyacá
  latitude: '5.12216000'
  longitude: "-73.21212000"
- name: Mongua
  state_code: BOY
  state_name: Boyacá
  latitude: '5.75084000'
  longitude: "-72.80339000"
- name: Monguí
  state_code: BOY
  state_name: Boyacá
  latitude: '5.69752000'
  longitude: "-72.83359000"
- name: Moniquirá
  state_code: BOY
  state_name: Boyacá
  latitude: '5.84315000'
  longitude: "-73.57775000"
- name: Motavita
  state_code: BOY
  state_name: Boyacá
  latitude: '5.57655000'
  longitude: "-73.36696000"
- name: Muzo
  state_code: BOY
  state_name: Boyacá
  latitude: '5.53528000'
  longitude: "-74.10778000"
- name: Nobsa
  state_code: BOY
  state_name: Boyacá
  latitude: '5.76978000'
  longitude: "-72.94099000"
- name: Nuevo Colón
  state_code: BOY
  state_name: Boyacá
  latitude: '5.35368000'
  longitude: "-73.45660000"
- name: Oicatá
  state_code: BOY
  state_name: Boyacá
  latitude: '5.59548000'
  longitude: "-73.30820000"
- name: Otanche
  state_code: BOY
  state_name: Boyacá
  latitude: '5.77534000'
  longitude: "-74.20315000"
- name: Pachavita
  state_code: BOY
  state_name: Boyacá
  latitude: '5.13969000'
  longitude: "-73.39739000"
- name: Páez
  state_code: BOY
  state_name: Boyacá
  latitude: '5.10112000'
  longitude: "-73.05123000"
- name: Paipa
  state_code: BOY
  state_name: Boyacá
  latitude: '5.78013000'
  longitude: "-73.11708000"
- name: Pajarito
  state_code: BOY
  state_name: Boyacá
  latitude: '5.34751000'
  longitude: "-72.72075000"
- name: Panqueba
  state_code: BOY
  state_name: Boyacá
  latitude: '6.44533000'
  longitude: "-72.46268000"
- name: Pauna
  state_code: BOY
  state_name: Boyacá
  latitude: '5.65861000'
  longitude: "-73.98250000"
- name: Paya
  state_code: BOY
  state_name: Boyacá
  latitude: '5.62492000'
  longitude: "-72.42345000"
- name: Paz de Río
  state_code: BOY
  state_name: Boyacá
  latitude: '6.00219000'
  longitude: "-72.78857000"
- name: Pesca
  state_code: BOY
  state_name: Boyacá
  latitude: '5.50213000'
  longitude: "-73.08794000"
- name: Pisba
  state_code: BOY
  state_name: Boyacá
  latitude: '5.72396000'
  longitude: "-72.48646000"
- name: Puerto Boyacá
  state_code: BOY
  state_name: Boyacá
  latitude: '5.97214000'
  longitude: "-74.46349000"
- name: Quípama
  state_code: BOY
  state_name: Boyacá
  latitude: '5.51940000'
  longitude: "-74.17765000"
- name: Ramiriquí
  state_code: BOY
  state_name: Boyacá
  latitude: '5.40020000'
  longitude: "-73.33544000"
- name: Ráquira
  state_code: BOY
  state_name: Boyacá
  latitude: '5.53793000'
  longitude: "-73.63201000"
- name: Rondón
  state_code: BOY
  state_name: Boyacá
  latitude: '5.38173000'
  longitude: "-73.19683000"
- name: Saboyá
  state_code: BOY
  state_name: Boyacá
  latitude: '5.69636000'
  longitude: "-73.76932000"
- name: Sáchica
  state_code: BOY
  state_name: Boyacá
  latitude: '5.58453000'
  longitude: "-73.54184000"
- name: Samacá
  state_code: BOY
  state_name: Boyacá
  latitude: '5.49273000'
  longitude: "-73.48537000"
- name: San Eduardo
  state_code: BOY
  state_name: Boyacá
  latitude: '5.22396000'
  longitude: "-73.07696000"
- name: San José de Pare
  state_code: BOY
  state_name: Boyacá
  latitude: '6.01746000'
  longitude: "-73.54703000"
- name: San Luis de Gaceno
  state_code: BOY
  state_name: Boyacá
  latitude: '4.82052000'
  longitude: "-73.16851000"
- name: San Mateo
  state_code: BOY
  state_name: Boyacá
  latitude: '6.37704000'
  longitude: "-72.57797000"
- name: San Miguel de Sema
  state_code: BOY
  state_name: Boyacá
  latitude: '5.51847000'
  longitude: "-73.72238000"
- name: San Pablo de Borbur
  state_code: BOY
  state_name: Boyacá
  latitude: '5.66638000'
  longitude: "-74.13723000"
- name: Santa María
  state_code: BOY
  state_name: Boyacá
  latitude: '4.82282000'
  longitude: "-73.25373000"
- name: Santa Rosa de Viterbo
  state_code: BOY
  state_name: Boyacá
  latitude: '5.87401000'
  longitude: "-72.98217000"
- name: Santa Sofía
  state_code: BOY
  state_name: Boyacá
  latitude: '5.70213000'
  longitude: "-73.62976000"
- name: Santana
  state_code: BOY
  state_name: Boyacá
  latitude: '6.04464000'
  longitude: "-73.51107000"
- name: Sativanorte
  state_code: BOY
  state_name: Boyacá
  latitude: '6.13156000'
  longitude: "-72.70895000"
- name: Sativasur
  state_code: BOY
  state_name: Boyacá
  latitude: '6.08959000'
  longitude: "-72.72432000"
- name: Siachoque
  state_code: BOY
  state_name: Boyacá
  latitude: '5.51238000'
  longitude: "-73.24436000"
- name: Soatá
  state_code: BOY
  state_name: Boyacá
  latitude: '6.29966000'
  longitude: "-72.72422000"
- name: Socha
  state_code: BOY
  state_name: Boyacá
  latitude: '5.92926000'
  longitude: "-72.70072000"
- name: Socotá
  state_code: BOY
  state_name: Boyacá
  latitude: '6.04028000'
  longitude: "-72.63509000"
- name: Sogamoso
  state_code: BOY
  state_name: Boyacá
  latitude: '5.71434000'
  longitude: "-72.93391000"
- name: Somondoco
  state_code: BOY
  state_name: Boyacá
  latitude: '4.98495000'
  longitude: "-73.43238000"
- name: Sora
  state_code: BOY
  state_name: Boyacá
  latitude: '5.56514000'
  longitude: "-73.45017000"
- name: Soracá
  state_code: BOY
  state_name: Boyacá
  latitude: '5.50055000'
  longitude: "-73.33299000"
- name: Sotaquirá
  state_code: BOY
  state_name: Boyacá
  latitude: '5.76483000'
  longitude: "-73.24758000"
- name: Susacón
  state_code: BOY
  state_name: Boyacá
  latitude: '6.22978000'
  longitude: "-72.69010000"
- name: Sutamarchán
  state_code: BOY
  state_name: Boyacá
  latitude: '5.61538000'
  longitude: "-73.61701000"
- name: Sutatenza
  state_code: BOY
  state_name: Boyacá
  latitude: '5.02311000'
  longitude: "-73.45230000"
- name: Tasco
  state_code: BOY
  state_name: Boyacá
  latitude: '5.91044000'
  longitude: "-72.78001000"
- name: Tenza
  state_code: BOY
  state_name: Boyacá
  latitude: '5.07664000'
  longitude: "-73.42077000"
- name: Tibaná
  state_code: BOY
  state_name: Boyacá
  latitude: '5.31728000'
  longitude: "-73.39655000"
- name: Tibasosa
  state_code: BOY
  state_name: Boyacá
  latitude: '5.74722000'
  longitude: "-73.01091000"
- name: Tinjacá
  state_code: BOY
  state_name: Boyacá
  latitude: '5.57916000'
  longitude: "-73.64486000"
- name: Tipacoque
  state_code: BOY
  state_name: Boyacá
  latitude: '6.42031000'
  longitude: "-72.69184000"
- name: Toca
  state_code: BOY
  state_name: Boyacá
  latitude: '5.56393000'
  longitude: "-73.18398000"
- name: Togüí
  state_code: BOY
  state_name: Boyacá
  latitude: '5.93462000'
  longitude: "-73.51297000"
- name: Tópaga
  state_code: BOY
  state_name: Boyacá
  latitude: '5.75979000'
  longitude: "-72.82583000"
- name: Tota
  state_code: BOY
  state_name: Boyacá
  latitude: '5.55833000'
  longitude: "-72.98757000"
- name: Tunja
  state_code: BOY
  state_name: Boyacá
  latitude: '5.53528000'
  longitude: "-73.36778000"
- name: Tununguá
  state_code: BOY
  state_name: Boyacá
  latitude: '5.72967000'
  longitude: "-73.94137000"
- name: Turmequé
  state_code: BOY
  state_name: Boyacá
  latitude: '5.32360000'
  longitude: "-73.49067000"
- name: Tuta
  state_code: BOY
  state_name: Boyacá
  latitude: '5.68966000'
  longitude: "-73.22779000"
- name: Tutazá
  state_code: BOY
  state_name: Boyacá
  latitude: '6.03228000'
  longitude: "-72.85639000"
- name: Umbita
  state_code: BOY
  state_name: Boyacá
  latitude: '5.18411000'
  longitude: "-73.48341000"
- name: Ventaquemada
  state_code: BOY
  state_name: Boyacá
  latitude: '5.35987000'
  longitude: "-73.55032000"
- name: Villa de Leyva
  state_code: BOY
  state_name: Boyacá
  latitude: '5.67061000'
  longitude: "-73.51554000"
- name: Viracachá
  state_code: BOY
  state_name: Boyacá
  latitude: '5.43637000'
  longitude: "-73.29606000"
- name: Zetaquira
  state_code: BOY
  state_name: Boyacá
  latitude: '5.25824000'
  longitude: "-73.18275000"
- name: Aguadas
  state_code: CAL
  state_name: Caldas
  latitude: '5.61161000'
  longitude: "-75.45624000"
- name: Anserma
  state_code: CAL
  state_name: Caldas
  latitude: '5.20427000'
  longitude: "-75.79167000"
- name: Aranzazu
  state_code: CAL
  state_name: Caldas
  latitude: '5.25519000'
  longitude: "-75.50984000"
- name: Belalcázar
  state_code: CAL
  state_name: Caldas
  latitude: '4.99528000'
  longitude: "-75.81278000"
- name: Chinchiná
  state_code: CAL
  state_name: Caldas
  latitude: '4.97522000'
  longitude: "-75.70416000"
- name: Filadelfia
  state_code: CAL
  state_name: Caldas
  latitude: '5.29606000'
  longitude: "-75.56120000"
- name: La Dorada
  state_code: CAL
  state_name: Caldas
  latitude: '5.53333000'
  longitude: "-74.70000000"
- name: La Merced
  state_code: CAL
  state_name: Caldas
  latitude: '5.38060000'
  longitude: "-75.58842000"
- name: Manizales
  state_code: CAL
  state_name: Caldas
  latitude: '5.06889000'
  longitude: "-75.51738000"
- name: Manzanares
  state_code: CAL
  state_name: Caldas
  latitude: '5.23305000'
  longitude: "-75.15168000"
- name: Marmato
  state_code: CAL
  state_name: Caldas
  latitude: '5.47554000'
  longitude: "-75.59710000"
- name: Marquetalia
  state_code: CAL
  state_name: Caldas
  latitude: '5.29069000'
  longitude: "-75.08028000"
- name: Marulanda
  state_code: CAL
  state_name: Caldas
  latitude: '5.28393000'
  longitude: "-75.26016000"
- name: Neira
  state_code: CAL
  state_name: Caldas
  latitude: '5.17534000'
  longitude: "-75.52405000"
- name: Norcasia
  state_code: CAL
  state_name: Caldas
  latitude: '5.57535000'
  longitude: "-74.88831000"
- name: Pácora
  state_code: CAL
  state_name: Caldas
  latitude: '5.50631000'
  longitude: "-75.49054000"
- name: Palestina
  state_code: CAL
  state_name: Caldas
  latitude: '5.04571000'
  longitude: "-75.69552000"
- name: Pensilvania
  state_code: CAL
  state_name: Caldas
  latitude: '5.38840000'
  longitude: "-75.20420000"
- name: Riosucio
  state_code: CAL
  state_name: Caldas
  latitude: '5.42164000'
  longitude: "-75.70318000"
- name: Risaralda
  state_code: CAL
  state_name: Caldas
  latitude: '5.11237000'
  longitude: "-75.75861000"
- name: Salamina
  state_code: CAL
  state_name: Caldas
  latitude: '5.37014000'
  longitude: "-75.41548000"
- name: Samaná
  state_code: CAL
  state_name: Caldas
  latitude: '5.54061000'
  longitude: "-74.99346000"
- name: San José
  state_code: CAL
  state_name: Caldas
  latitude: '5.08221000'
  longitude: "-75.79107000"
- name: Supía
  state_code: CAL
  state_name: Caldas
  latitude: '5.45303000'
  longitude: "-75.65072000"
- name: Victoria
  state_code: CAL
  state_name: Caldas
  latitude: '5.45666000'
  longitude: "-74.84061000"
- name: Villamaría
  state_code: CAL
  state_name: Caldas
  latitude: '4.95078000'
  longitude: "-75.43680000"
- name: Viterbo
  state_code: CAL
  state_name: Caldas
  latitude: '5.06242000'
  longitude: "-75.87159000"
- name: Albania
  state_code: CAQ
  state_name: Caquetá
  latitude: '1.26325000'
  longitude: "-75.95366000"
- name: Belén de Los Andaquies
  state_code: CAQ
  state_name: Caquetá
  latitude: '1.41667000'
  longitude: "-75.91667000"
- name: Cartagena del Chairá
  state_code: CAQ
  state_name: Caquetá
  latitude: '1.33488000'
  longitude: "-74.84289000"
- name: Curillo
  state_code: CAQ
  state_name: Caquetá
  latitude: '1.03327000'
  longitude: "-75.91907000"
- name: El Doncello
  state_code: CAQ
  state_name: Caquetá
  latitude: '1.67817000'
  longitude: "-75.28466000"
- name: El Paujil
  state_code: CAQ
  state_name: Caquetá
  latitude: '1.57085000'
  longitude: "-75.31403000"
- name: Florencia
  state_code: CAQ
  state_name: Caquetá
  latitude: '1.71619000'
  longitude: "-75.59624000"
- name: La Montañita
  state_code: CAQ
  state_name: Caquetá
  latitude: '1.46389000'
  longitude: "-75.30363000"
- name: Milán
  state_code: CAQ
  state_name: Caquetá
  latitude: '1.29034000'
  longitude: "-75.50757000"
- name: Morelia
  state_code: CAQ
  state_name: Caquetá
  latitude: '1.48747000'
  longitude: "-75.72581000"
- name: Puerto Rico
  state_code: CAQ
  state_name: Caquetá
  latitude: '1.90999000'
  longitude: "-75.15931000"
- name: San José del Fragua
  state_code: CAQ
  state_name: Caquetá
  latitude: '1.30780000'
  longitude: "-76.16554000"
- name: San Vicente del Caguán
  state_code: CAQ
  state_name: Caquetá
  latitude: '2.11527888'
  longitude: "-74.77777777"
- name: Solano
  state_code: CAQ
  state_name: Caquetá
  latitude: '0.22842000'
  longitude: "-73.27597000"
- name: Solita
  state_code: CAQ
  state_name: Caquetá
  latitude: '0.87583333'
  longitude: "-75.61972222"
- name: Valparaíso
  state_code: CAQ
  state_name: Caquetá
  latitude: '1.19403000'
  longitude: "-75.70746000"
- name: Aguazul
  state_code: CAS
  state_name: Casanare
  latitude: '5.17282000'
  longitude: "-72.54706000"
- name: Chameza
  state_code: CAS
  state_name: Casanare
  latitude: '5.19237000'
  longitude: "-72.88952000"
- name: Hato Corozal
  state_code: CAS
  state_name: Casanare
  latitude: '6.15472222'
  longitude: "-71.76527888"
- name: La Salina
  state_code: CAS
  state_name: Casanare
  latitude: '6.12755555'
  longitude: "-72.33416777"
- name: Maní
  state_code: CAS
  state_name: Casanare
  latitude: '4.81638000'
  longitude: "-72.27946000"
- name: Monterrey
  state_code: CAS
  state_name: Casanare
  latitude: '4.82015000'
  longitude: "-72.87901000"
- name: Nunchía
  state_code: CAS
  state_name: Casanare
  latitude: '5.63589000'
  longitude: "-72.19543000"
- name: Orocué
  state_code: CAS
  state_name: Casanare
  latitude: '4.79035000'
  longitude: "-71.33917000"
- name: Paz de Ariporo
  state_code: CAS
  state_name: Casanare
  latitude: '5.88111111'
  longitude: "-71.89166777"
- name: Pore
  state_code: CAS
  state_name: Casanare
  latitude: '5.72792000'
  longitude: "-71.99266000"
- name: Recetor
  state_code: CAS
  state_name: Casanare
  latitude: '5.22947000'
  longitude: "-72.76099000"
- name: Sabanalarga
  state_code: CAS
  state_name: Casanare
  latitude: '4.85430000'
  longitude: "-73.04003000"
- name: Sácama
  state_code: CAS
  state_name: Casanare
  latitude: '6.09908000'
  longitude: "-72.24880000"
- name: San Luis de Palenque
  state_code: CAS
  state_name: Casanare
  latitude: '5.42139000'
  longitude: "-71.73167000"
- name: Támara
  state_code: CAS
  state_name: Casanare
  latitude: '5.82998000'
  longitude: "-72.16286000"
- name: Tauramena
  state_code: CAS
  state_name: Casanare
  latitude: '5.01789000'
  longitude: "-72.74675000"
- name: Trinidad
  state_code: CAS
  state_name: Casanare
  latitude: '5.34778000'
  longitude: "-71.20194000"
- name: Villanueva
  state_code: CAS
  state_name: Casanare
  latitude: '5.28333000'
  longitude: "-71.96667000"
- name: Yopal
  state_code: CAS
  state_name: Casanare
  latitude: '5.33775000'
  longitude: "-72.39586000"
- name: Almaguer
  state_code: CAU
  state_name: Cauca
  latitude: '1.91472000'
  longitude: "-76.85482000"
- name: Argelia
  state_code: CAU
  state_name: Cauca
  latitude: '2.31728000'
  longitude: "-77.25700000"
- name: Balboa
  state_code: CAU
  state_name: Cauca
  latitude: '2.08436000'
  longitude: "-77.20781000"
- name: Bolívar
  state_code: CAU
  state_name: Cauca
  latitude: '1.84670000'
  longitude: "-76.98292000"
- name: Buenos Aires
  state_code: CAU
  state_name: Cauca
  latitude: '3.04825000'
  longitude: "-76.63066000"
- name: Cajibío
  state_code: CAU
  state_name: Cauca
  latitude: '2.62271000'
  longitude: "-76.57039000"
- name: Caldono
  state_code: CAU
  state_name: Cauca
  latitude: '2.79739000'
  longitude: "-76.48316000"
- name: Caloto
  state_code: CAU
  state_name: Cauca
  latitude: '3.03586000'
  longitude: "-76.40788000"
- name: Corinto
  state_code: CAU
  state_name: Cauca
  latitude: '3.13598000'
  longitude: "-76.20646000"
- name: El Tambo
  state_code: CAU
  state_name: Cauca
  latitude: '2.45199000'
  longitude: "-76.81029000"
- name: Florencia
  state_code: CAU
  state_name: Cauca
  latitude: '1.68318000'
  longitude: "-77.07331000"
- name: Guachené
  state_code: CAU
  state_name: Cauca
  latitude: '3.13361111'
  longitude: "-76.39255555"
- name: Guapi
  state_code: CAU
  state_name: Cauca
  latitude: '2.55210000'
  longitude: "-77.87865000"
- name: Inzá
  state_code: CAU
  state_name: Cauca
  latitude: '2.55452000'
  longitude: "-76.06722000"
- name: Jambaló
  state_code: CAU
  state_name: Cauca
  latitude: '2.85065000'
  longitude: "-76.32506000"
- name: La Sierra
  state_code: CAU
  state_name: Cauca
  latitude: '2.19665000'
  longitude: "-76.78590000"
- name: La Vega
  state_code: CAU
  state_name: Cauca
  latitude: '2.06201000'
  longitude: "-76.76808000"
- name: López de Micay
  state_code: CAU
  state_name: Cauca
  latitude: '3.00000000'
  longitude: "-77.25000000"
- name: Mercaderes
  state_code: CAU
  state_name: Cauca
  latitude: '1.80175000'
  longitude: "-77.17032000"
- name: Miranda
  state_code: CAU
  state_name: Cauca
  latitude: '3.23773000'
  longitude: "-76.22093000"
- name: Morales
  state_code: CAU
  state_name: Cauca
  latitude: '2.75446000'
  longitude: "-76.62791000"
- name: Padilla
  state_code: CAU
  state_name: Cauca
  latitude: '3.22038000'
  longitude: "-76.31385000"
- name: Páez
  state_code: CAU
  state_name: Cauca
  latitude: '2.64644000'
  longitude: "-75.97269000"
- name: Patía
  state_code: CAU
  state_name: Cauca
  latitude: '2.14018000'
  longitude: "-77.01744000"
- name: Piamonte
  state_code: CAU
  state_name: Cauca
  latitude: '1.11583333'
  longitude: "-76.32611111"
- name: Piendamo
  state_code: CAU
  state_name: Cauca
  latitude: '2.63918000'
  longitude: "-76.53055000"
- name: Popayán
  state_code: CAU
  state_name: Cauca
  latitude: '2.43823000'
  longitude: "-76.61316000"
- name: Puerto Tejada
  state_code: CAU
  state_name: Cauca
  latitude: '3.23393000'
  longitude: "-76.41935000"
- name: Puracé
  state_code: CAU
  state_name: Cauca
  latitude: '2.33851000'
  longitude: "-76.38759000"
- name: Rosas
  state_code: CAU
  state_name: Cauca
  latitude: '2.26093000'
  longitude: "-76.73986000"
- name: San Sebastián
  state_code: CAU
  state_name: Cauca
  latitude: '1.91667000'
  longitude: "-76.66667000"
- name: Santa Rosa
  state_code: CAU
  state_name: Cauca
  latitude: '1.70055666'
  longitude: "-76.57277888"
- name: Santander de Quilichao
  state_code: CAU
  state_name: Cauca
  latitude: '3.00945000'
  longitude: "-76.48494000"
- name: Silvia
  state_code: CAU
  state_name: Cauca
  latitude: '2.61557000'
  longitude: "-76.38261000"
- name: Sotará
  state_code: CAU
  state_name: Cauca
  latitude: '2.25000000'
  longitude: "-76.58333000"
- name: Suárez
  state_code: CAU
  state_name: Cauca
  latitude: '2.95395000'
  longitude: "-76.69644000"
- name: Sucre
  state_code: CAU
  state_name: Cauca
  latitude: '2.06182000'
  longitude: "-76.91438000"
- name: Timbío
  state_code: CAU
  state_name: Cauca
  latitude: '2.35277888'
  longitude: "-76.68194444"
- name: Timbiquí
  state_code: CAU
  state_name: Cauca
  latitude: '2.77170000'
  longitude: "-77.66536000"
- name: Toribio
  state_code: CAU
  state_name: Cauca
  latitude: '3.00000000'
  longitude: "-76.16667000"
- name: Totoró
  state_code: CAU
  state_name: Cauca
  latitude: '2.50518000'
  longitude: "-76.39254000"
- name: Villa Rica
  state_code: CAU
  state_name: Cauca
  latitude: '2.51420000'
  longitude: "-76.84939000"
- name: Aguachica
  state_code: CES
  state_name: Cesar
  latitude: '8.30844000'
  longitude: "-73.61660000"
- name: Agustín Codazzi
  state_code: CES
  state_name: Cesar
  latitude: '10.03672000'
  longitude: "-73.23558000"
- name: Astrea
  state_code: CES
  state_name: Cesar
  latitude: '9.49828000'
  longitude: "-73.97591000"
- name: Becerril
  state_code: CES
  state_name: Cesar
  latitude: '9.70413000'
  longitude: "-73.27930000"
- name: Bosconia
  state_code: CES
  state_name: Cesar
  latitude: '9.97611111'
  longitude: "-73.89033333"
- name: Chimichagua
  state_code: CES
  state_name: Cesar
  latitude: '9.25778000'
  longitude: "-73.81228000"
- name: Chiriguaná
  state_code: CES
  state_name: Cesar
  latitude: '9.36238000'
  longitude: "-73.60313000"
- name: Curumaní
  state_code: CES
  state_name: Cesar
  latitude: '9.19992000'
  longitude: "-73.54274000"
- name: El Copey
  state_code: CES
  state_name: Cesar
  latitude: '10.15031000'
  longitude: "-73.96140000"
- name: El Paso
  state_code: CES
  state_name: Cesar
  latitude: '9.65724000'
  longitude: "-73.74685000"
- name: Gamarra
  state_code: CES
  state_name: Cesar
  latitude: '8.32969000'
  longitude: "-73.71773000"
- name: González
  state_code: CES
  state_name: Cesar
  latitude: '8.36735000'
  longitude: "-73.40032000"
- name: La Gloria
  state_code: CES
  state_name: Cesar
  latitude: '8.61160000'
  longitude: "-73.63045000"
- name: La Jagua de Ibirico
  state_code: CES
  state_name: Cesar
  latitude: '9.56228000'
  longitude: "-73.33405000"
- name: La Paz
  state_code: CES
  state_name: Cesar
  latitude: '10.10487000'
  longitude: "-73.22056000"
- name: Manaure Balcón del Cesar
  state_code: CES
  state_name: Cesar
  latitude: '10.39278000'
  longitude: "-73.03250000"
- name: Pailitas
  state_code: CES
  state_name: Cesar
  latitude: '8.95652000'
  longitude: "-73.62548000"
- name: Pelaya
  state_code: CES
  state_name: Cesar
  latitude: '8.68819000'
  longitude: "-73.66451000"
- name: Pueblo Bello
  state_code: CES
  state_name: Cesar
  latitude: '10.41638999'
  longitude: "-73.58666777"
- name: Río de Oro
  state_code: CES
  state_name: Cesar
  latitude: '8.17879000'
  longitude: "-73.51218000"
- name: San Alberto
  state_code: CES
  state_name: Cesar
  latitude: '7.76107000'
  longitude: "-73.39220000"
- name: San Diego
  state_code: CES
  state_name: Cesar
  latitude: '10.33623000'
  longitude: "-73.18203000"
- name: San Martín
  state_code: CES
  state_name: Cesar
  latitude: '8.00151000'
  longitude: "-73.51126000"
- name: Tamalameque
  state_code: CES
  state_name: Cesar
  latitude: '8.86422000'
  longitude: "-73.78106000"
- name: Valledupar
  state_code: CES
  state_name: Cesar
  latitude: '10.46314000'
  longitude: "-73.25322000"
- name: Acandí
  state_code: CHO
  state_name: Chocó
  latitude: '8.51158000'
  longitude: "-77.27719000"
- name: Alto Baudó
  state_code: CHO
  state_name: Chocó
  latitude: '5.51604000'
  longitude: "-76.97449000"
- name: Atrato
  state_code: CHO
  state_name: Chocó
  latitude: '5.57362000'
  longitude: "-76.64063000"
- name: Bagadó
  state_code: CHO
  state_name: Chocó
  latitude: '5.41164000'
  longitude: "-76.41520000"
- name: Bahía Solano
  state_code: CHO
  state_name: Chocó
  latitude: '6.22520000'
  longitude: "-77.39147000"
- name: Bajo Baudó
  state_code: CHO
  state_name: Chocó
  latitude: '4.95334000'
  longitude: "-77.36598000"
- name: Bojayá
  state_code: CHO
  state_name: Chocó
  latitude: '6.55645000'
  longitude: "-76.88389000"
- name: Carmen del Darien
  state_code: CHO
  state_name: Chocó
  latitude: '7.15777888'
  longitude: "-76.97083333"
- name: Cértegui
  state_code: CHO
  state_name: Chocó
  latitude: '5.37073000'
  longitude: "-76.60440000"
- name: Condoto
  state_code: CHO
  state_name: Chocó
  latitude: '5.09351000'
  longitude: "-76.64973000"
- name: El Cantón de San Pablo
  state_code: CHO
  state_name: Chocó
  latitude: '5.33889000'
  longitude: "-76.73139000"
- name: El Carmen de Atrato
  state_code: CHO
  state_name: Chocó
  latitude: '5.83333000'
  longitude: "-76.25000000"
- name: Istmina
  state_code: CHO
  state_name: Chocó
  latitude: '5.16054000'
  longitude: "-76.68397000"
- name: Juradó
  state_code: CHO
  state_name: Chocó
  latitude: '7.10421000'
  longitude: "-77.76200000"
- name: Litoral del San Juan
  state_code: CHO
  state_name: Chocó
  latitude: '4.25875000'
  longitude: "-77.36516000"
- name: Lloró
  state_code: CHO
  state_name: Chocó
  latitude: '5.49605000'
  longitude: "-76.54945000"
- name: Medio Atrato
  state_code: CHO
  state_name: Chocó
  latitude: '5.99500000'
  longitude: "-76.78250000"
- name: Medio Baudó
  state_code: CHO
  state_name: Chocó
  latitude: '5.05000000'
  longitude: "-77.05000000"
- name: Medio San Juan
  state_code: CHO
  state_name: Chocó
  latitude: '5.09278000'
  longitude: "-76.69528000"
- name: Nóvita
  state_code: CHO
  state_name: Chocó
  latitude: '4.95511000'
  longitude: "-76.60526000"
- name: Nuquí
  state_code: CHO
  state_name: Chocó
  latitude: '5.71250000'
  longitude: "-77.27083000"
- name: Quibdó
  state_code: CHO
  state_name: Chocó
  latitude: '5.76075000'
  longitude: "-76.83701000"
- name: Río Iro
  state_code: CHO
  state_name: Chocó
  latitude: '5.18333000'
  longitude: "-76.48330000"
- name: Río Quito
  state_code: CHO
  state_name: Chocó
  latitude: '5.51667000'
  longitude: "-76.75000000"
- name: Riosucio
  state_code: CHO
  state_name: Chocó
  latitude: '7.41667000'
  longitude: "-77.16667000"
- name: San José del Palmar
  state_code: CHO
  state_name: Chocó
  latitude: '4.89616000'
  longitude: "-76.23422000"
- name: Sipí
  state_code: CHO
  state_name: Chocó
  latitude: '4.65374000'
  longitude: "-76.64442000"
- name: Tadó
  state_code: CHO
  state_name: Chocó
  latitude: '5.26598000'
  longitude: "-76.56487000"
- name: Unguía
  state_code: CHO
  state_name: Chocó
  latitude: '8.04364000'
  longitude: "-77.09137000"
- name: Unión Panamericana
  state_code: CHO
  state_name: Chocó
  latitude: '5.28139000'
  longitude: "-76.63000000"
- name: Ayapel
  state_code: COR
  state_name: Córdoba
  latitude: '8.31372000'
  longitude: "-75.13982000"
- name: Buenavista
  state_code: COR
  state_name: Córdoba
  latitude: '9.04963000'
  longitude: "-76.00280000"
- name: Canalete
  state_code: COR
  state_name: Córdoba
  latitude: '8.67611000'
  longitude: "-76.20417000"
- name: Cereté
  state_code: COR
  state_name: Córdoba
  latitude: '8.88479000'
  longitude: "-75.79052000"
- name: Chimá
  state_code: COR
  state_name: Córdoba
  latitude: '9.14893000'
  longitude: "-75.62841000"
- name: Chinú
  state_code: COR
  state_name: Córdoba
  latitude: '9.03869000'
  longitude: "-75.34273000"
- name: Ciénaga de Oro
  state_code: COR
  state_name: Córdoba
  latitude: '8.83581000'
  longitude: "-75.60425000"
- name: Cotorra
  state_code: COR
  state_name: Córdoba
  latitude: '9.03886000'
  longitude: "-75.78969000"
- name: La Apartada
  state_code: COR
  state_name: Córdoba
  latitude: '8.04787000'
  longitude: "-75.30097000"
- name: Lorica
  state_code: COR
  state_name: Córdoba
  latitude: '9.23648000'
  longitude: "-75.81350000"
- name: Los Córdobas
  state_code: COR
  state_name: Córdoba
  latitude: '8.89403000'
  longitude: "-76.35455000"
- name: Momil
  state_code: COR
  state_name: Córdoba
  latitude: '9.23767000'
  longitude: "-75.67489000"
- name: Moñitos
  state_code: COR
  state_name: Córdoba
  latitude: '9.22615000'
  longitude: "-76.13594000"
- name: Montelíbano
  state_code: COR
  state_name: Córdoba
  latitude: '7.97917000'
  longitude: "-75.42020000"
- name: Montería
  state_code: COR
  state_name: Córdoba
  latitude: '8.74798000'
  longitude: "-75.88143000"
- name: Planeta Rica
  state_code: COR
  state_name: Córdoba
  latitude: '8.41150000'
  longitude: "-75.58508000"
- name: Pueblo Nuevo
  state_code: COR
  state_name: Córdoba
  latitude: '8.24110000'
  longitude: "-74.95815000"
- name: Puerto Escondido
  state_code: COR
  state_name: Córdoba
  latitude: '8.99453000'
  longitude: "-76.19351000"
- name: Puerto Libertador
  state_code: COR
  state_name: Córdoba
  latitude: '7.68181000'
  longitude: "-75.78312000"
- name: Purísima
  state_code: COR
  state_name: Córdoba
  latitude: '9.23657000'
  longitude: "-75.72191000"
- name: Sahagún
  state_code: COR
  state_name: Córdoba
  latitude: '8.94617000'
  longitude: "-75.44275000"
- name: San Andrés de Sotavento
  state_code: COR
  state_name: Córdoba
  latitude: '9.12183000'
  longitude: "-75.51627000"
- name: San Antero
  state_code: COR
  state_name: Córdoba
  latitude: '9.37410000'
  longitude: "-75.75891000"
- name: San Bernardo del Viento
  state_code: COR
  state_name: Córdoba
  latitude: '9.35330000'
  longitude: "-75.95244000"
- name: San Carlos
  state_code: COR
  state_name: Córdoba
  latitude: '8.79577000'
  longitude: "-75.69947000"
- name: San José de Uré
  state_code: COR
  state_name: Córdoba
  latitude: '7.78722222'
  longitude: "-75.53305666"
- name: San Pelayo
  state_code: COR
  state_name: Córdoba
  latitude: '8.95833000'
  longitude: "-75.83627000"
- name: Tierralta
  state_code: COR
  state_name: Córdoba
  latitude: '7.87863000'
  longitude: "-76.21307000"
- name: Tuchín
  state_code: COR
  state_name: Córdoba
  latitude: '9.18583333'
  longitude: "-75.55527888"
- name: Valencia
  state_code: COR
  state_name: Córdoba
  latitude: '8.23350000'
  longitude: "-76.21428000"
- name: Agua de Dios
  state_code: CUN
  state_name: Cundinamarca
  latitude: '4.37648000'
  longitude: "-74.66995000"
- name: Albán
  state_code: CUN
  state_name: Cundinamarca
  latitude: '4.89432000'
  longitude: "-74.44388000"
- name: Anapoima
  state_code: CUN
  state_name: Cundinamarca
  latitude: '4.55099000'
  longitude: "-74.53517000"
- name: Anolaima
  state_code: CUN
  state_name: Cundinamarca
  latitude: '4.83362000'
  longitude: "-74.49950000"
- name: Apulo
  state_code: CUN
  state_name: Cundinamarca
  latitude: '4.51952000'
  longitude: "-74.59293000"
- name: Arbeláez
  state_code: CUN
  state_name: Cundinamarca
  latitude: '4.21251000'
  longitude: "-74.41464000"
- name: Beltrán
  state_code: CUN
  state_name: Cundinamarca
  latitude: '4.71947000'
  longitude: "-74.75660000"
- name: Bituima
  state_code: CUN
  state_name: Cundinamarca
  latitude: '4.87252000'
  longitude: "-74.53925000"
- name: Bojacá
  state_code: CUN
  state_name: Cundinamarca
  latitude: '4.73176000'
  longitude: "-74.34129000"
- name: Cabrera
  state_code: CUN
  state_name: Cundinamarca
  latitude: '3.98598000'
  longitude: "-74.48283000"
- name: Cachipay
  state_code: CUN
  state_name: Cundinamarca
  latitude: '5.26667000'
  longitude: "-74.56667000"
- name: Cajicá
  state_code: CUN
  state_name: Cundinamarca
  latitude: '4.91857000'
  longitude: "-74.02799000"
- name: Caparrapí
  state_code: CUN
  state_name: Cundinamarca
  latitude: '5.34644000'
  longitude: "-74.49147000"
- name: Caqueza
  state_code: CUN
  state_name: Cundinamarca
  latitude: '4.38708000'
  longitude: "-73.95722000"
- name: Carmen de Carupa
  state_code: CUN
  state_name: Cundinamarca
  latitude: '5.34862000'
  longitude: "-73.90168000"
- name: Chaguaní
  state_code: CUN
  state_name: Cundinamarca
  latitude: '4.94829000'
  longitude: "-74.59392000"
- name: Chía
  state_code: CUN
  state_name: Cundinamarca
  latitude: '4.84452000'
  longitude: "-74.05848000"
- name: Chipaque
  state_code: CUN
  state_name: Cundinamarca
  latitude: '4.44250000'
  longitude: "-74.04417000"
- name: Choachí
  state_code: CUN
  state_name: Cundinamarca
  latitude: '4.52897000'
  longitude: "-73.92273000"
- name: Chocontá
  state_code: CUN
  state_name: Cundinamarca
  latitude: '5.14468000'
  longitude: "-73.68578000"
- name: Cogua
  state_code: CUN
  state_name: Cundinamarca
  latitude: '5.06051000'
  longitude: "-73.97925000"
- name: Cota
  state_code: CUN
  state_name: Cundinamarca
  latitude: '4.80938000'
  longitude: "-74.09800000"
- name: Cucunubá
  state_code: CUN
  state_name: Cundinamarca
  latitude: '5.24958000'
  longitude: "-73.76610000"
- name: El Colegio
  state_code: CUN
  state_name: Cundinamarca
  latitude: '4.56047000'
  longitude: "-74.42614000"
- name: El Peñón
  state_code: CUN
  state_name: Cundinamarca
  latitude: '5.25264000'
  longitude: "-74.29069000"
- name: El Rosal
  state_code: CUN
  state_name: Cundinamarca
  latitude: '4.85314000'
  longitude: "-74.25996000"
- name: Facatativá
  state_code: CUN
  state_name: Cundinamarca
  latitude: '4.81367000'
  longitude: "-74.35453000"
- name: Fomeque
  state_code: CUN
  state_name: Cundinamarca
  latitude: '4.52806000'
  longitude: "-73.78879000"
- name: Fosca
  state_code: CUN
  state_name: Cundinamarca
  latitude: '4.33916000'
  longitude: "-73.93852000"
- name: Funza
  state_code: CUN
  state_name: Cundinamarca
  latitude: '4.71638000'
  longitude: "-74.21195000"
- name: Fúquene
  state_code: CUN
  state_name: Cundinamarca
  latitude: '5.41988000'
  longitude: "-73.76997000"
- name: Fusagasugá
  state_code: CUN
  state_name: Cundinamarca
  latitude: '4.33646000'
  longitude: "-74.36378000"
- name: Gachala
  state_code: CUN
  state_name: Cundinamarca
  latitude: '4.66667000'
  longitude: "-73.50000000"
- name: Gachancipá
  state_code: CUN
  state_name: Cundinamarca
  latitude: '4.99111000'
  longitude: "-73.87154000"
- name: Gachetá
  state_code: CUN
  state_name: Cundinamarca
  latitude: '4.87104000'
  longitude: "-73.61730000"
- name: Gama
  state_code: CUN
  state_name: Cundinamarca
  latitude: '4.76288000'
  longitude: "-73.61091000"
- name: Girardot
  state_code: CUN
  state_name: Cundinamarca
  latitude: '4.31802000'
  longitude: "-74.83504000"
- name: Granada
  state_code: CUN
  state_name: Cundinamarca
  latitude: '5.06667000'
  longitude: "-74.56667000"
- name: Guachetá
  state_code: CUN
  state_name: Cundinamarca
  latitude: '5.38425000'
  longitude: "-73.68617000"
- name: Guaduas
  state_code: CUN
  state_name: Cundinamarca
  latitude: '5.07430000'
  longitude: "-74.59854000"
- name: Guasca
  state_code: CUN
  state_name: Cundinamarca
  latitude: '4.86601000'
  longitude: "-73.87748000"
- name: Guataquí
  state_code: CUN
  state_name: Cundinamarca
  latitude: '4.51573000'
  longitude: "-74.78935000"
- name: Guatavita
  state_code: CUN
  state_name: Cundinamarca
  latitude: '4.93658000'
  longitude: "-73.83314000"
- name: Guayabal de Siquima
  state_code: CUN
  state_name: Cundinamarca
  latitude: '4.87881000'
  longitude: "-74.48306000"
- name: Guayabetal
  state_code: CUN
  state_name: Cundinamarca
  latitude: '4.21472000'
  longitude: "-73.81719000"
- name: Gutiérrez
  state_code: CUN
  state_name: Cundinamarca
  latitude: '4.18486000'
  longitude: "-74.01168000"
- name: Jerusalén
  state_code: CUN
  state_name: Cundinamarca
  latitude: '4.56309000'
  longitude: "-74.69519000"
- name: Junín
  state_code: CUN
  state_name: Cundinamarca
  latitude: '4.70725000'
  longitude: "-73.69549000"
- name: La Calera
  state_code: CUN
  state_name: Cundinamarca
  latitude: '4.68678000'
  longitude: "-73.93590000"
- name: La Mesa
  state_code: CUN
  state_name: Cundinamarca
  latitude: '4.65374000'
  longitude: "-74.47316000"
- name: La Palma
  state_code: CUN
  state_name: Cundinamarca
  latitude: '5.31732000'
  longitude: "-74.43003000"
- name: La Peña
  state_code: CUN
  state_name: Cundinamarca
  latitude: '5.19847000'
  longitude: "-74.39368000"
- name: La Vega
  state_code: CUN
  state_name: Cundinamarca
  latitude: '4.97382000'
  longitude: "-74.34476000"
- name: Lenguazaque
  state_code: CUN
  state_name: Cundinamarca
  latitude: '5.30711000'
  longitude: "-73.71152000"
- name: Macheta
  state_code: CUN
  state_name: Cundinamarca
  latitude: '5.08333000'
  longitude: "-73.61667000"
- name: Madrid
  state_code: CUN
  state_name: Cundinamarca
  latitude: '4.75564000'
  longitude: "-74.27708000"
- name: Manta
  state_code: CUN
  state_name: Cundinamarca
  latitude: '4.95720000'
  longitude: "-73.58583000"
- name: Medina
  state_code: CUN
  state_name: Cundinamarca
  latitude: '4.51005000'
  longitude: "-73.34982000"
- name: Mosquera
  state_code: CUN
  state_name: Cundinamarca
  latitude: '4.68935000'
  longitude: "-74.23599000"
- name: Nariño
  state_code: CUN
  state_name: Cundinamarca
  latitude: '4.39913000'
  longitude: "-74.82239000"
- name: Nemocón
  state_code: CUN
  state_name: Cundinamarca
  latitude: '5.06767000'
  longitude: "-73.87769000"
- name: Nilo
  state_code: CUN
  state_name: Cundinamarca
  latitude: '4.30604000'
  longitude: "-74.62083000"
- name: Nimaima
  state_code: CUN
  state_name: Cundinamarca
  latitude: '5.12614000'
  longitude: "-74.38495000"
- name: Nocaima
  state_code: CUN
  state_name: Cundinamarca
  latitude: '5.06696000'
  longitude: "-74.38439000"
- name: Pacho
  state_code: CUN
  state_name: Cundinamarca
  latitude: '5.13055555'
  longitude: "-74.15833333"
- name: Paime
  state_code: CUN
  state_name: Cundinamarca
  latitude: '5.37054000'
  longitude: "-74.15219000"
- name: Pandi
  state_code: CUN
  state_name: Cundinamarca
  latitude: '4.18032000'
  longitude: "-74.47099000"
- name: Paratebueno
  state_code: CUN
  state_name: Cundinamarca
  latitude: '4.37575000'
  longitude: "-73.21547000"
- name: Pasca
  state_code: CUN
  state_name: Cundinamarca
  latitude: '4.30722000'
  longitude: "-74.30056000"
- name: Puerto Salgar
  state_code: CUN
  state_name: Cundinamarca
  latitude: '5.61892000'
  longitude: "-74.58483000"
- name: Pulí
  state_code: CUN
  state_name: Cundinamarca
  latitude: '4.68116000'
  longitude: "-74.71406000"
- name: Quebradanegra
  state_code: CUN
  state_name: Cundinamarca
  latitude: '5.08262000'
  longitude: "-74.52117000"
- name: Quetame
  state_code: CUN
  state_name: Cundinamarca
  latitude: '4.33234000'
  longitude: "-73.86141000"
- name: Quipile
  state_code: CUN
  state_name: Cundinamarca
  latitude: '4.74517000'
  longitude: "-74.53378000"
- name: Ricaurte
  state_code: CUN
  state_name: Cundinamarca
  latitude: '4.28075000'
  longitude: "-74.76469000"
- name: San Antonio del Tequendama
  state_code: CUN
  state_name: Cundinamarca
  latitude: '4.61667000'
  longitude: "-74.35000000"
- name: San Bernardo
  state_code: CUN
  state_name: Cundinamarca
  latitude: '4.12956000'
  longitude: "-74.35903000"
- name: San Cayetano
  state_code: CUN
  state_name: Cundinamarca
  latitude: '5.31693000'
  longitude: "-74.07141000"
- name: San Francisco
  state_code: CUN
  state_name: Cundinamarca
  latitude: '4.96335000'
  longitude: "-74.26613000"
- name: San Juan de Río Seco
  state_code: CUN
  state_name: Cundinamarca
  latitude: '4.83077000'
  longitude: "-74.68248000"
- name: Sasaima
  state_code: CUN
  state_name: Cundinamarca
  latitude: '4.96705000'
  longitude: "-74.43512000"
- name: Sesquilé
  state_code: CUN
  state_name: Cundinamarca
  latitude: '5.04463000'
  longitude: "-73.79724000"
- name: Sibaté
  state_code: CUN
  state_name: Cundinamarca
  latitude: '4.49154000'
  longitude: "-74.25957000"
- name: Silvania
  state_code: CUN
  state_name: Cundinamarca
  latitude: '4.40367000'
  longitude: "-74.38670000"
- name: Simijaca
  state_code: CUN
  state_name: Cundinamarca
  latitude: '5.50415000'
  longitude: "-73.86944000"
- name: Soacha
  state_code: CUN
  state_name: Cundinamarca
  latitude: '4.57937000'
  longitude: "-74.21682000"
- name: Sopó
  state_code: CUN
  state_name: Cundinamarca
  latitude: '4.90750000'
  longitude: "-73.93840000"
- name: Subachoque
  state_code: CUN
  state_name: Cundinamarca
  latitude: '4.92614000'
  longitude: "-74.17299000"
- name: Suesca
  state_code: CUN
  state_name: Cundinamarca
  latitude: '5.10289000'
  longitude: "-73.79845000"
- name: Supatá
  state_code: CUN
  state_name: Cundinamarca
  latitude: '5.06097000'
  longitude: "-74.23721000"
- name: Susa
  state_code: CUN
  state_name: Cundinamarca
  latitude: '5.42700000'
  longitude: "-73.84786000"
- name: Sutatausa
  state_code: CUN
  state_name: Cundinamarca
  latitude: '5.24779000'
  longitude: "-73.85238000"
- name: Tabio
  state_code: CUN
  state_name: Cundinamarca
  latitude: '4.91726000'
  longitude: "-74.09364000"
- name: Tausa
  state_code: CUN
  state_name: Cundinamarca
  latitude: '5.19903000'
  longitude: "-73.89128000"
- name: Tena
  state_code: CUN
  state_name: Cundinamarca
  latitude: '4.66001000'
  longitude: "-74.39258000"
- name: Tenjo
  state_code: CUN
  state_name: Cundinamarca
  latitude: '4.87270000'
  longitude: "-74.14435000"
- name: Tibacuy
  state_code: CUN
  state_name: Cundinamarca
  latitude: '4.30606000'
  longitude: "-74.51639000"
- name: Tibirita
  state_code: CUN
  state_name: Cundinamarca
  latitude: '5.05227000'
  longitude: "-73.50459000"
- name: Tocaima
  state_code: CUN
  state_name: Cundinamarca
  latitude: '4.46073000'
  longitude: "-74.65722000"
- name: Tocancipá
  state_code: CUN
  state_name: Cundinamarca
  latitude: '4.96531000'
  longitude: "-73.91301000"
- name: Topaipí
  state_code: CUN
  state_name: Cundinamarca
  latitude: '5.33457000'
  longitude: "-74.30292000"
- name: Ubalá
  state_code: CUN
  state_name: Cundinamarca
  latitude: '4.74778000'
  longitude: "-72.53694000"
- name: Ubaque
  state_code: CUN
  state_name: Cundinamarca
  latitude: '4.48667000'
  longitude: "-73.93748000"
- name: Une
  state_code: CUN
  state_name: Cundinamarca
  latitude: '4.30691000'
  longitude: "-74.07104000"
- name: Útica
  state_code: CUN
  state_name: Cundinamarca
  latitude: '5.16977000'
  longitude: "-74.50134000"
- name: Venecia
  state_code: CUN
  state_name: Cundinamarca
  latitude: '4.08808000'
  longitude: "-74.47746000"
- name: Vergara
  state_code: CUN
  state_name: Cundinamarca
  latitude: '5.13600000'
  longitude: "-74.31539000"
- name: Vianí
  state_code: CUN
  state_name: Cundinamarca
  latitude: '4.89579000'
  longitude: "-74.55398000"
- name: Villa de San Diego de Ubate
  state_code: CUN
  state_name: Cundinamarca
  latitude: '5.31544000'
  longitude: "-73.82045000"
- name: Villagómez
  state_code: CUN
  state_name: Cundinamarca
  latitude: '5.27372000'
  longitude: "-74.19614000"
- name: Villapinzón
  state_code: CUN
  state_name: Cundinamarca
  latitude: '5.21617000'
  longitude: "-73.59490000"
- name: Villeta
  state_code: CUN
  state_name: Cundinamarca
  latitude: '5.00008000'
  longitude: "-74.50498000"
- name: Viotá
  state_code: CUN
  state_name: Cundinamarca
  latitude: '4.43713000'
  longitude: "-74.52157000"
- name: Yacopí
  state_code: CUN
  state_name: Cundinamarca
  latitude: '5.45948000'
  longitude: "-74.33823000"
- name: Zipacón
  state_code: CUN
  state_name: Cundinamarca
  latitude: '4.75881000'
  longitude: "-74.38017000"
- name: Zipaquirá
  state_code: CUN
  state_name: Cundinamarca
  latitude: '5.02208000'
  longitude: "-74.00481000"
- name: Barranco Minas
  state_code: GUA
  state_name: Guainía
  latitude: '3.09899000'
  longitude: "-69.58297000"
- name: Cacahual
  state_code: GUA
  state_name: Guainía
  latitude: '3.32533000'
  longitude: "-67.62397000"
- name: Inírida
  state_code: GUA
  state_name: Guainía
  latitude: '3.86528000'
  longitude: "-67.92389000"
- name: La Guadalupe
  state_code: GUA
  state_name: Guainía
  latitude: '1.39579000'
  longitude: "-67.00150000"
- name: Mapiripana
  state_code: GUA
  state_name: Guainía
  latitude: '2.81003000'
  longitude: "-70.28568000"
- name: Morichal
  state_code: GUA
  state_name: Guainía
  latitude: '2.42980000'
  longitude: "-69.83284000"
- name: Pana Pana
  state_code: GUA
  state_name: Guainía
  latitude: '1.96249000'
  longitude: "-69.12600000"
- name: Puerto Colombia
  state_code: GUA
  state_name: Guainía
  latitude: '2.43903000'
  longitude: "-68.16419000"
- name: San Felipe
  state_code: GUA
  state_name: Guainía
  latitude: '2.14321000'
  longitude: "-67.34122000"
- name: Calamar
  state_code: GUV
  state_name: Guaviare
  latitude: '1.95960000'
  longitude: "-72.65315000"
- name: El Retorno
  state_code: GUV
  state_name: Guaviare
  latitude: '2.33022000'
  longitude: "-72.62765000"
- name: Miraflores
  state_code: GUV
  state_name: Guaviare
  latitude: '1.33667000'
  longitude: "-71.95111000"
- name: San José del Guaviare
  state_code: GUV
  state_name: Guaviare
  latitude: '2.57286000'
  longitude: "-72.64591000"
- name: Acevedo
  state_code: HUI
  state_name: Huila
  latitude: '1.83611111'
  longitude: "-75.85500000"
- name: Aipe
  state_code: HUI
  state_name: Huila
  latitude: '3.22194444'
  longitude: "-75.23750000"
- name: Algeciras
  state_code: HUI
  state_name: Huila
  latitude: '2.52194444'
  longitude: "-75.31444444"
- name: Altamira
  state_code: HUI
  state_name: Huila
  latitude: '2.06333333'
  longitude: "-75.78777778"
- name: Baraya
  state_code: HUI
  state_name: Huila
  latitude: '3.15305556'
  longitude: "-75.05250000"
- name: Campoalegre
  state_code: HUI
  state_name: Huila
  latitude: '2.68666667'
  longitude: "-75.32555556"
- name: Colombia
  state_code: HUI
  state_name: Huila
  latitude: '3.37500000'
  longitude: "-74.80194444"
- name: El Agrado
  state_code: HUI
  state_name: Huila
  latitude: '2.25833056'
  longitude: "-75.77250000"
- name: Elias
  state_code: HUI
  state_name: Huila
  latitude: '2.01361111'
  longitude: "-75.93972222"
- name: Garzón
  state_code: HUI
  state_name: Huila
  latitude: '2.19611111'
  longitude: "-75.62916667"
- name: Gigante
  state_code: HUI
  state_name: Huila
  latitude: '2.38666944'
  longitude: "-75.54610000"
- name: Guadalupe
  state_code: HUI
  state_name: Huila
  latitude: '2.02500000'
  longitude: "-75.75638889"
- name: Hobo
  state_code: HUI
  state_name: Huila
  latitude: '2.58250000'
  longitude: "-75.45111111"
- name: Iquira
  state_code: HUI
  state_name: Huila
  latitude: '2.64833333'
  longitude: "-75.63638889"
- name: Isnos
  state_code: HUI
  state_name: Huila
  latitude: '1.92888889'
  longitude: "-76.21583333"
- name: La Argentina
  state_code: HUI
  state_name: Huila
  latitude: '2.19755555'
  longitude: "-75.98888888"
- name: La Plata
  state_code: HUI
  state_name: Huila
  latitude: '2.39000000'
  longitude: "-75.89194444"
- name: Nataga
  state_code: HUI
  state_name: Huila
  latitude: '2.54388889'
  longitude: "-75.80861111"
- name: Neiva
  state_code: HUI
  state_name: Huila
  latitude: '2.92750000'
  longitude: "-75.28750000"
- name: Oporapa
  state_code: HUI
  state_name: Huila
  latitude: '2.02305556'
  longitude: "-75.99527778"
- name: Paicol
  state_code: HUI
  state_name: Huila
  latitude: '2.44972222'
  longitude: "-75.77388889"
- name: Palermo
  state_code: HUI
  state_name: Huila
  latitude: '2.88833333'
  longitude: "-75.43388889"
- name: Palestina
  state_code: HUI
  state_name: Huila
  latitude: '1.72250000'
  longitude: "-76.13055556"
- name: Pital
  state_code: HUI
  state_name: Huila
  latitude: '2.26638889'
  longitude: "-75.80444444"
- name: Pitalito
  state_code: HUI
  state_name: Huila
  latitude: '1.85388889'
  longitude: "-76.05138889"
- name: Rivera
  state_code: HUI
  state_name: Huila
  latitude: '2.77722222'
  longitude: "-75.25638889"
- name: Saladoblanco
  state_code: HUI
  state_name: Huila
  latitude: '1.99333333'
  longitude: "-76.04527778"
- name: San Agustín
  state_code: HUI
  state_name: Huila
  latitude: '1.87916667'
  longitude: "-76.26833333"
- name: Santa María
  state_code: HUI
  state_name: Huila
  latitude: '2.93777778'
  longitude: "-75.58694444"
- name: Suaza
  state_code: HUI
  state_name: Huila
  latitude: '1.97500000'
  longitude: "-75.79555556"
- name: Tarqui
  state_code: HUI
  state_name: Huila
  latitude: '2.11055556'
  longitude: "-75.82305556"
- name: Tello
  state_code: HUI
  state_name: Huila
  latitude: '3.06666667'
  longitude: "-75.13861111"
- name: Teruel
  state_code: HUI
  state_name: Huila
  latitude: '2.74055556'
  longitude: "-75.56833333"
- name: Tesalia
  state_code: HUI
  state_name: Huila
  latitude: '2.48472222'
  longitude: "-75.73000000"
- name: Timana
  state_code: HUI
  state_name: Huila
  latitude: '1.97136000'
  longitude: "-75.93123000"
- name: Villavieja
  state_code: HUI
  state_name: Huila
  latitude: '3.21888889'
  longitude: "-75.21833333"
- name: Yaguará
  state_code: HUI
  state_name: Huila
  latitude: '2.66361111'
  longitude: "-75.51750000"
- name: Albania
  state_code: LAG
  state_name: La Guajira
  latitude: '11.16099000'
  longitude: "-72.59238000"
- name: Barrancas
  state_code: LAG
  state_name: La Guajira
  latitude: '10.97180000'
  longitude: "-72.69115000"
- name: Dibulla
  state_code: LAG
  state_name: La Guajira
  latitude: '11.27251000'
  longitude: "-73.30911000"
- name: Distracción
  state_code: LAG
  state_name: La Guajira
  latitude: '10.89784000'
  longitude: "-72.88666000"
- name: El Molino
  state_code: LAG
  state_name: La Guajira
  latitude: '10.65296000'
  longitude: "-72.92461000"
- name: Fonseca
  state_code: LAG
  state_name: La Guajira
  latitude: '10.82966000'
  longitude: "-72.79778000"
- name: Hatonuevo
  state_code: LAG
  state_name: La Guajira
  latitude: '11.06940000'
  longitude: "-72.76690000"
- name: La Jagua del Pilar
  state_code: LAG
  state_name: La Guajira
  latitude: '10.51061000'
  longitude: "-73.07178000"
- name: Maicao
  state_code: LAG
  state_name: La Guajira
  latitude: '11.37837000'
  longitude: "-72.23950000"
- name: Manaure
  state_code: LAG
  state_name: La Guajira
  latitude: '11.77505000'
  longitude: "-72.44447000"
- name: Riohacha
  state_code: LAG
  state_name: La Guajira
  latitude: '11.54444000'
  longitude: "-72.90722000"
- name: San Juan del Cesar
  state_code: LAG
  state_name: La Guajira
  latitude: '10.77107000'
  longitude: "-73.00314000"
- name: Uribia
  state_code: LAG
  state_name: La Guajira
  latitude: '12.02638000'
  longitude: "-71.74887000"
- name: Urumita
  state_code: LAG
  state_name: La Guajira
  latitude: '10.55894000'
  longitude: "-73.01232000"
- name: Villanueva
  state_code: LAG
  state_name: La Guajira
  latitude: '10.58333000'
  longitude: "-72.96077000"
- name: Algarrobo
  state_code: MAG
  state_name: Magdalena
  latitude: '10.18553000'
  longitude: "-74.06158000"
- name: Aracataca
  state_code: MAG
  state_name: Magdalena
  latitude: '10.59181000'
  longitude: "-74.18983000"
- name: Ariguaní
  state_code: MAG
  state_name: Magdalena
  latitude: '9.89383000'
  longitude: "-74.13583000"
- name: Cerro de San Antonio
  state_code: MAG
  state_name: Magdalena
  latitude: '10.32585000'
  longitude: "-74.86933000"
- name: Chivolo
  state_code: MAG
  state_name: Magdalena
  latitude: '10.02638888'
  longitude: "-74.62138888"
- name: Ciénaga
  state_code: MAG
  state_name: Magdalena
  latitude: '10.83333000'
  longitude: "-74.08333000"
- name: Concordia
  state_code: MAG
  state_name: Magdalena
  latitude: '9.83545000'
  longitude: "-74.45548000"
- name: El Banco
  state_code: MAG
  state_name: Magdalena
  latitude: '9.00114000'
  longitude: "-73.97581000"
- name: El Piñon
  state_code: MAG
  state_name: Magdalena
  latitude: '10.33333000'
  longitude: "-74.66667000"
- name: El Retén
  state_code: MAG
  state_name: Magdalena
  latitude: '10.61135000'
  longitude: "-74.26824000"
- name: Fundación
  state_code: MAG
  state_name: Magdalena
  latitude: '10.52066000'
  longitude: "-74.18504000"
- name: Guamal
  state_code: MAG
  state_name: Magdalena
  latitude: '9.14334000'
  longitude: "-74.22384000"
- name: Nueva Granada
  state_code: MAG
  state_name: Magdalena
  latitude: '9.80168000'
  longitude: "-74.39304000"
- name: Pedraza
  state_code: MAG
  state_name: Magdalena
  latitude: '10.18739000'
  longitude: "-74.91504000"
- name: Pijiño del Carmen
  state_code: MAG
  state_name: Magdalena
  latitude: '9.32908000'
  longitude: "-74.45302000"
- name: Pivijay
  state_code: MAG
  state_name: Magdalena
  latitude: '10.46167000'
  longitude: "-74.61621000"
- name: Plato
  state_code: MAG
  state_name: Magdalena
  latitude: '9.77267000'
  longitude: "-74.74548000"
- name: Puebloviejo
  state_code: MAG
  state_name: Magdalena
  latitude: '10.84239000'
  longitude: "-74.38538000"
- name: Remolino
  state_code: MAG
  state_name: Magdalena
  latitude: '10.65048000'
  longitude: "-74.58442000"
- name: Sabanas de San Angel
  state_code: MAG
  state_name: Magdalena
  latitude: '10.11072000'
  longitude: "-74.26007000"
- name: Salamina
  state_code: MAG
  state_name: Magdalena
  latitude: '10.49027000'
  longitude: "-74.79463000"
- name: San Sebastián de Buenavista
  state_code: MAG
  state_name: Magdalena
  latitude: '9.23916666'
  longitude: "-74.35194444"
- name: San Zenón
  state_code: MAG
  state_name: Magdalena
  latitude: '9.32686000'
  longitude: "-74.32914000"
- name: Santa Ana
  state_code: MAG
  state_name: Magdalena
  latitude: '9.51484000'
  longitude: "-74.34330000"
- name: Santa Bárbara de Pinto
  state_code: MAG
  state_name: Magdalena
  latitude: '9.52107000'
  longitude: "-74.64912000"
- name: Santa Marta
  state_code: MAG
  state_name: Magdalena
  latitude: '11.24348000'
  longitude: "-74.20835000"
- name: Sitionuevo
  state_code: MAG
  state_name: Magdalena
  latitude: '10.77737000'
  longitude: "-74.72049000"
- name: Tenerife
  state_code: MAG
  state_name: Magdalena
  latitude: '9.93201000'
  longitude: "-74.73465000"
- name: Zapayán
  state_code: MAG
  state_name: Magdalena
  latitude: '10.11846000'
  longitude: "-74.69143000"
- name: Zona Bananera
  state_code: MAG
  state_name: Magdalena
  latitude: '10.76417000'
  longitude: "-74.15722000"
- name: Acacías
  state_code: MET
  state_name: Meta
  latitude: '3.98695000'
  longitude: "-73.75797000"
- name: Barranca de Upía
  state_code: MET
  state_name: Meta
  latitude: '4.56963000'
  longitude: "-72.96676000"
- name: Cabuyaro
  state_code: MET
  state_name: Meta
  latitude: '4.28170000'
  longitude: "-72.79399000"
- name: Castilla la Nueva
  state_code: MET
  state_name: Meta
  latitude: '3.82722000'
  longitude: "-73.68831000"
- name: Cubarral
  state_code: MET
  state_name: Meta
  latitude: '3.79536000'
  longitude: "-73.84063000"
- name: Cumaral
  state_code: MET
  state_name: Meta
  latitude: '4.23814000'
  longitude: "-73.34101000"
- name: El Calvario
  state_code: MET
  state_name: Meta
  latitude: '4.35426000'
  longitude: "-73.74431000"
- name: El Castillo
  state_code: MET
  state_name: Meta
  latitude: '3.56363000'
  longitude: "-73.79488000"
- name: El Dorado
  state_code: MET
  state_name: Meta
  latitude: '3.73916777'
  longitude: "-73.83527888"
- name: Fuente de Oro
  state_code: MET
  state_name: Meta
  latitude: '3.46263000'
  longitude: "-73.62162000"
- name: Granada
  state_code: MET
  state_name: Meta
  latitude: '3.54625000'
  longitude: "-73.70687000"
- name: Guamal
  state_code: MET
  state_name: Meta
  latitude: '3.88043000'
  longitude: "-73.76566000"
- name: La Macarena
  state_code: MET
  state_name: Meta
  latitude: '2.00702000'
  longitude: "-74.07320000"
- name: Lejanías
  state_code: MET
  state_name: Meta
  latitude: '3.52762000'
  longitude: "-74.02335000"
- name: Mapiripán
  state_code: MET
  state_name: Meta
  latitude: '2.89115000'
  longitude: "-72.13328000"
- name: Mesetas
  state_code: MET
  state_name: Meta
  latitude: '3.38463000'
  longitude: "-74.04424000"
- name: Puerto Concordia
  state_code: MET
  state_name: Meta
  latitude: '2.62206000'
  longitude: "-72.75724000"
- name: Puerto Gaitán
  state_code: MET
  state_name: Meta
  latitude: '4.31328000'
  longitude: "-72.08157000"
- name: Puerto Lleras
  state_code: MET
  state_name: Meta
  latitude: '3.21794000'
  longitude: "-73.23215000"
- name: Puerto López
  state_code: MET
  state_name: Meta
  latitude: '4.04426000'
  longitude: "-72.65731000"
- name: Puerto Rico
  state_code: MET
  state_name: Meta
  latitude: '2.93833000'
  longitude: "-73.20833000"
- name: Restrepo
  state_code: MET
  state_name: Meta
  latitude: '4.25833000'
  longitude: "-73.56142000"
- name: San Carlos de Guaroa
  state_code: MET
  state_name: Meta
  latitude: '3.71161000'
  longitude: "-73.24344000"
- name: San Juan de Arama
  state_code: MET
  state_name: Meta
  latitude: '3.29034000'
  longitude: "-73.82065000"
- name: San Juanito
  state_code: MET
  state_name: Meta
  latitude: '4.45861111'
  longitude: "-73.67555666"
- name: San Martín
  state_code: MET
  state_name: Meta
  latitude: '3.50819000'
  longitude: "-73.03975000"
- name: Uribe
  state_code: MET
  state_name: Meta
  latitude: '3.24083333'
  longitude: "-74.35361111"
- name: Villavicencio
  state_code: MET
  state_name: Meta
  latitude: '4.07424000'
  longitude: "-73.49150000"
- name: Vistahermosa
  state_code: MET
  state_name: Meta
  latitude: '3.12428000'
  longitude: "-73.75156000"
- name: Aldana
  state_code: NAR
  state_name: Nariño
  latitude: '0.88283000'
  longitude: "-77.70103000"
- name: Ancuya
  state_code: NAR
  state_name: Nariño
  latitude: '1.26330000'
  longitude: "-77.51376000"
- name: Arboleda
  state_code: NAR
  state_name: Nariño
  latitude: '1.49830000'
  longitude: "-77.13613000"
- name: Barbacoas
  state_code: NAR
  state_name: Nariño
  latitude: '1.67154000'
  longitude: "-78.13978000"
- name: Belén
  state_code: NAR
  state_name: Nariño
  latitude: '1.59477000'
  longitude: "-77.05408000"
- name: Buesaco
  state_code: NAR
  state_name: Nariño
  latitude: '1.38364000'
  longitude: "-77.15622000"
- name: Chachagüí
  state_code: NAR
  state_name: Nariño
  latitude: '1.35943000'
  longitude: "-77.28367000"
- name: Colón
  state_code: NAR
  state_name: Nariño
  latitude: '1.62850000'
  longitude: "-77.02927000"
- name: Consaca
  state_code: NAR
  state_name: Nariño
  latitude: '1.20841000'
  longitude: "-77.46323000"
- name: Contadero
  state_code: NAR
  state_name: Nariño
  latitude: '0.93072000'
  longitude: "-77.53333000"
- name: Córdoba
  state_code: NAR
  state_name: Nariño
  latitude: '0.85362000'
  longitude: "-77.51817000"
- name: Cuaspud
  state_code: NAR
  state_name: Nariño
  latitude: '0.87570000'
  longitude: "-77.73640000"
- name: Cumbal
  state_code: NAR
  state_name: Nariño
  latitude: '0.90875000'
  longitude: "-77.79145000"
- name: Cumbitara
  state_code: NAR
  state_name: Nariño
  latitude: '1.64786000'
  longitude: "-77.57819000"
- name: El Charco
  state_code: NAR
  state_name: Nariño
  latitude: '2.47926000'
  longitude: "-78.10972000"
- name: El Peñol
  state_code: NAR
  state_name: Nariño
  latitude: '1.45365000'
  longitude: "-77.44017000"
- name: El Rosario
  state_code: NAR
  state_name: Nariño
  latitude: '1.84593000'
  longitude: "-77.40620000"
- name: El Tablón de Gómez
  state_code: NAR
  state_name: Nariño
  latitude: '1.42717000'
  longitude: "-77.09693000"
- name: El Tambo
  state_code: NAR
  state_name: Nariño
  latitude: '1.43049000'
  longitude: "-77.38326000"
- name: Francisco Pizarro
  state_code: NAR
  state_name: Nariño
  latitude: '2.04060000'
  longitude: "-78.65877000"
- name: Funes
  state_code: NAR
  state_name: Nariño
  latitude: '1.00075000'
  longitude: "-77.44918000"
- name: Guachucal
  state_code: NAR
  state_name: Nariño
  latitude: '0.96093000'
  longitude: "-77.73161000"
- name: Guaitarilla
  state_code: NAR
  state_name: Nariño
  latitude: '1.13103000'
  longitude: "-77.54815000"
- name: Gualmatán
  state_code: NAR
  state_name: Nariño
  latitude: '0.91992000'
  longitude: "-77.56738000"
- name: Iles
  state_code: NAR
  state_name: Nariño
  latitude: '0.97040000'
  longitude: "-77.52146000"
- name: Imués
  state_code: NAR
  state_name: Nariño
  latitude: '1.05516000'
  longitude: "-77.49669000"
- name: Ipiales
  state_code: NAR
  state_name: Nariño
  latitude: '0.82501000'
  longitude: "-77.63966000"
- name: La Cruz
  state_code: NAR
  state_name: Nariño
  latitude: '1.60221000'
  longitude: "-76.97130000"
- name: La Florida
  state_code: NAR
  state_name: Nariño
  latitude: '1.35693000'
  longitude: "-77.41271000"
- name: La Llanada
  state_code: NAR
  state_name: Nariño
  latitude: '1.47310000'
  longitude: "-77.58024000"
- name: La Tola
  state_code: NAR
  state_name: Nariño
  latitude: '2.39949000'
  longitude: "-78.18923000"
- name: La Unión
  state_code: NAR
  state_name: Nariño
  latitude: '1.60450000'
  longitude: "-77.13152000"
- name: Leiva
  state_code: NAR
  state_name: Nariño
  latitude: '1.93497000'
  longitude: "-77.30634000"
- name: Linares
  state_code: NAR
  state_name: Nariño
  latitude: '1.35078000'
  longitude: "-77.52339000"
- name: Los Andes
  state_code: NAR
  state_name: Nariño
  latitude: '1.49474000'
  longitude: "-77.52136000"
- name: Magüí Payán
  state_code: NAR
  state_name: Nariño
  latitude: '1.76645000'
  longitude: "-78.18326000"
- name: Mallama
  state_code: NAR
  state_name: Nariño
  latitude: '1.14109000'
  longitude: "-77.86479000"
- name: Mosquera
  state_code: NAR
  state_name: Nariño
  latitude: '2.49139000'
  longitude: "-78.44307000"
- name: Nariño
  state_code: NAR
  state_name: Nariño
  latitude: '1.28995000'
  longitude: "-77.35721000"
- name: Olaya Herrera
  state_code: NAR
  state_name: Nariño
  latitude: '1.24803000'
  longitude: "-77.49085000"
- name: Ospina
  state_code: NAR
  state_name: Nariño
  latitude: '1.02962000'
  longitude: "-77.55252000"
- name: Pasto
  state_code: NAR
  state_name: Nariño
  latitude: '1.21467000'
  longitude: "-77.27865000"
- name: Policarpa
  state_code: NAR
  state_name: Nariño
  latitude: '1.62843000'
  longitude: "-77.45956000"
- name: Potosí
  state_code: NAR
  state_name: Nariño
  latitude: '0.80739000'
  longitude: "-77.57216000"
- name: Providencia
  state_code: NAR
  state_name: Nariño
  latitude: '1.23888999'
  longitude: "-77.59755555"
- name: Puerres
  state_code: NAR
  state_name: Nariño
  latitude: '1.19374000'
  longitude: "-77.26661000"
- name: Pupiales
  state_code: NAR
  state_name: Nariño
  latitude: '0.87136000'
  longitude: "-77.64027000"
- name: Ricaurte
  state_code: NAR
  state_name: Nariño
  latitude: '1.21474000'
  longitude: "-77.99801000"
- name: Roberto Payán
  state_code: NAR
  state_name: Nariño
  latitude: '1.91757000'
  longitude: "-78.38191000"
- name: Samaniego
  state_code: NAR
  state_name: Nariño
  latitude: '1.33849000'
  longitude: "-77.59570000"
- name: San Bernardo
  state_code: NAR
  state_name: Nariño
  latitude: '1.51525000'
  longitude: "-77.04679000"
- name: San José de Albán
  state_code: NAR
  state_name: Nariño
  latitude: '1.47388999'
  longitude: "-77.08083333"
- name: San Lorenzo
  state_code: NAR
  state_name: Nariño
  latitude: '1.55731000'
  longitude: "-77.24599000"
- name: San Pablo
  state_code: NAR
  state_name: Nariño
  latitude: '1.67250000'
  longitude: "-77.01389000"
- name: San Pedro de Cartago
  state_code: NAR
  state_name: Nariño
  latitude: '1.55151000'
  longitude: "-77.11948000"
- name: Sandoná
  state_code: NAR
  state_name: Nariño
  latitude: '1.28626000'
  longitude: "-77.46921000"
- name: Santa Bárbara
  state_code: NAR
  state_name: Nariño
  latitude: '2.30185000'
  longitude: "-77.91487000"
- name: Santacruz
  state_code: NAR
  state_name: Nariño
  latitude: '1.52090000'
  longitude: "-77.26206000"
- name: Sapuyes
  state_code: NAR
  state_name: Nariño
  latitude: '1.03728000'
  longitude: "-77.62094000"
- name: Taminango
  state_code: NAR
  state_name: Nariño
  latitude: '1.57032000'
  longitude: "-77.28043000"
- name: Tangua
  state_code: NAR
  state_name: Nariño
  latitude: '1.09189000'
  longitude: "-77.38645000"
- name: Tumaco
  state_code: NAR
  state_name: Nariño
  latitude: '1.79112000'
  longitude: "-78.79275000"
- name: Túquerres
  state_code: NAR
  state_name: Nariño
  latitude: '1.08647000'
  longitude: "-77.61858000"
- name: Yacuanquer
  state_code: NAR
  state_name: Nariño
  latitude: '1.11577000'
  longitude: "-77.40169000"
- name: Abrego
  state_code: NSA
  state_name: Norte de Santander
  latitude: '8.00000000'
  longitude: "-73.20000000"
- name: Arboledas
  state_code: NSA
  state_name: Norte de Santander
  latitude: '7.63494000'
  longitude: "-72.86050000"
- name: Bochalema
  state_code: NSA
  state_name: Norte de Santander
  latitude: '7.60217000'
  longitude: "-72.68839000"
- name: Bucarasica
  state_code: NSA
  state_name: Norte de Santander
  latitude: '8.04096000'
  longitude: "-72.86538000"
- name: Cachirá
  state_code: NSA
  state_name: Norte de Santander
  latitude: '7.75000000'
  longitude: "-73.16667000"
- name: Cácota
  state_code: NSA
  state_name: Norte de Santander
  latitude: '7.26787000'
  longitude: "-72.64197000"
- name: Chinácota
  state_code: NSA
  state_name: Norte de Santander
  latitude: '7.60731000'
  longitude: "-72.60108000"
- name: Chitagá
  state_code: NSA
  state_name: Norte de Santander
  latitude: '7.13781000'
  longitude: "-72.66456000"
- name: Convención
  state_code: NSA
  state_name: Norte de Santander
  latitude: '8.82242000'
  longitude: "-73.22850000"
- name: Cúcuta
  state_code: NSA
  state_name: Norte de Santander
  latitude: '7.89391000'
  longitude: "-72.50782000"
- name: Cucutilla
  state_code: NSA
  state_name: Norte de Santander
  latitude: '7.53941000'
  longitude: "-72.77238000"
- name: Durania
  state_code: NSA
  state_name: Norte de Santander
  latitude: '7.71307000'
  longitude: "-72.65759000"
- name: El Carmen
  state_code: NSA
  state_name: Norte de Santander
  latitude: '8.51064000'
  longitude: "-73.44776000"
- name: El Tarra
  state_code: NSA
  state_name: Norte de Santander
  latitude: '8.57562000'
  longitude: "-73.09489000"
- name: El Zulia
  state_code: NSA
  state_name: Norte de Santander
  latitude: '7.93248000'
  longitude: "-72.60125000"
- name: Gramalote
  state_code: NSA
  state_name: Norte de Santander
  latitude: '7.88752000'
  longitude: "-72.79749000"
- name: Hacarí
  state_code: NSA
  state_name: Norte de Santander
  latitude: '8.32333000'
  longitude: "-73.14889000"
- name: Herrán
  state_code: NSA
  state_name: Norte de Santander
  latitude: '7.50611000'
  longitude: "-72.48332000"
- name: La Esperanza
  state_code: NSA
  state_name: Norte de Santander
  latitude: '8.21043000'
  longitude: "-72.46399000"
- name: La Playa
  state_code: NSA
  state_name: Norte de Santander
  latitude: '8.25833000'
  longitude: "-73.19222000"
- name: Labateca
  state_code: NSA
  state_name: Norte de Santander
  latitude: '7.24558000'
  longitude: "-72.55286000"
- name: Los Patios
  state_code: NSA
  state_name: Norte de Santander
  latitude: '7.83793000'
  longitude: "-72.50370000"
- name: Lourdes
  state_code: NSA
  state_name: Norte de Santander
  latitude: '7.96774000'
  longitude: "-72.84519000"
- name: Mutiscua
  state_code: NSA
  state_name: Norte de Santander
  latitude: '7.29810000'
  longitude: "-72.79879000"
- name: Ocaña
  state_code: NSA
  state_name: Norte de Santander
  latitude: '8.23773000'
  longitude: "-73.35604000"
- name: Pamplona
  state_code: NSA
  state_name: Norte de Santander
  latitude: '7.37565000'
  longitude: "-72.64795000"
- name: Pamplonita
  state_code: NSA
  state_name: Norte de Santander
  latitude: '7.45814000'
  longitude: "-72.65965000"
- name: Puerto Santander
  state_code: NSA
  state_name: Norte de Santander
  latitude: '8.36361000'
  longitude: "-72.40630000"
- name: Ragonvalia
  state_code: NSA
  state_name: Norte de Santander
  latitude: '7.57749000'
  longitude: "-72.47574000"
- name: Salazar
  state_code: NSA
  state_name: Norte de Santander
  latitude: '7.78249000'
  longitude: "-72.85741000"
- name: San Calixto
  state_code: NSA
  state_name: Norte de Santander
  latitude: '8.40210000'
  longitude: "-73.20737000"
- name: San Cayetano
  state_code: NSA
  state_name: Norte de Santander
  latitude: '7.84771000'
  longitude: "-72.61014000"
- name: Santiago
  state_code: NSA
  state_name: Norte de Santander
  latitude: '7.86930000'
  longitude: "-72.73753000"
- name: Sardinata
  state_code: NSA
  state_name: Norte de Santander
  latitude: '8.08289000'
  longitude: "-72.80071000"
- name: Silos
  state_code: NSA
  state_name: Norte de Santander
  latitude: '7.20524000'
  longitude: "-72.75639000"
- name: Teorama
  state_code: NSA
  state_name: Norte de Santander
  latitude: '8.43527888'
  longitude: "-73.28638999"
- name: Tibú
  state_code: NSA
  state_name: Norte de Santander
  latitude: '8.63895000'
  longitude: "-72.73583000"
- name: Toledo
  state_code: NSA
  state_name: Norte de Santander
  latitude: '7.30984000'
  longitude: "-72.48295000"
- name: Villa Caro
  state_code: NSA
  state_name: Norte de Santander
  latitude: '7.91472222'
  longitude: "-72.97194444"
- name: Villa del Rosario
  state_code: NSA
  state_name: Norte de Santander
  latitude: '7.75816000'
  longitude: "-72.48182000"
- name: Colón
  state_code: PUT
  state_name: Putumayo
  latitude: '1.19034000'
  longitude: "-76.97369000"
- name: Mocoa
  state_code: PUT
  state_name: Putumayo
  latitude: '1.15284000'
  longitude: "-76.65208000"
- name: Orito
  state_code: PUT
  state_name: Putumayo
  latitude: '0.66749000'
  longitude: "-76.87297000"
- name: Puerto Asís
  state_code: PUT
  state_name: Putumayo
  latitude: '0.50514000'
  longitude: "-76.49571000"
- name: Puerto Caicedo
  state_code: PUT
  state_name: Putumayo
  latitude: '0.68555555'
  longitude: "-76.60444444"
- name: Puerto Guzmán
  state_code: PUT
  state_name: Putumayo
  latitude: '0.97028000'
  longitude: "-76.58583000"
- name: Puerto Leguízamo
  state_code: PUT
  state_name: Putumayo
  latitude: "-0.19337000"
  longitude: "-74.78189000"
- name: San Francisco
  state_code: PUT
  state_name: Putumayo
  latitude: '1.17644000'
  longitude: "-76.87838000"
- name: San Miguel
  state_code: PUT
  state_name: Putumayo
  latitude: '0.34361111'
  longitude: "-76.91083333"
- name: Santiago
  state_code: PUT
  state_name: Putumayo
  latitude: '1.14844000'
  longitude: "-77.00450000"
- name: Sibundoy
  state_code: PUT
  state_name: Putumayo
  latitude: '1.20296000'
  longitude: "-76.92275000"
- name: Valle del Guamuez
  state_code: PUT
  state_name: Putumayo
  latitude: '0.45250000'
  longitude: "-76.91917000"
- name: Villagarzón
  state_code: PUT
  state_name: Putumayo
  latitude: '0.89663000'
  longitude: "-76.72794000"
- name: Armenia
  state_code: QUI
  state_name: Quindío
  latitude: '4.53307000'
  longitude: "-75.70438000"
- name: Buenavista
  state_code: QUI
  state_name: Quindío
  latitude: '4.35969000'
  longitude: "-75.73888000"
- name: Calarca
  state_code: QUI
  state_name: Quindío
  latitude: '4.50000000'
  longitude: "-75.63333000"
- name: Circasia
  state_code: QUI
  state_name: Quindío
  latitude: '4.59940000'
  longitude: "-75.68536000"
- name: Córdoba
  state_code: QUI
  state_name: Quindío
  latitude: '4.38055000'
  longitude: "-75.66685000"
- name: Filandia
  state_code: QUI
  state_name: Quindío
  latitude: '4.67525000'
  longitude: "-75.67142000"
- name: Génova
  state_code: QUI
  state_name: Quindío
  latitude: '4.22743000'
  longitude: "-75.75480000"
- name: La Tebaida
  state_code: QUI
  state_name: Quindío
  latitude: '4.43353000'
  longitude: "-75.81476000"
- name: Montenegro
  state_code: QUI
  state_name: Quindío
  latitude: '4.52676000'
  longitude: "-75.82265000"
- name: Pijao
  state_code: QUI
  state_name: Quindío
  latitude: '4.33350000'
  longitude: "-75.70463000"
- name: Quimbaya
  state_code: QUI
  state_name: Quindío
  latitude: '4.59342000'
