---
- name: Calibishie
  state_code: '02'
  state_name: Saint Andrew
  latitude: '15.59297000'
  longitude: "-61.34901000"
- name: Marigot
  state_code: '02'
  state_name: Saint Andrew
  latitude: '15.53886000'
  longitude: "-61.28375000"
- name: Wesley
  state_code: '02'
  state_name: Saint Andrew
  latitude: '15.56667000'
  longitude: "-61.31667000"
- name: Woodford Hill
  state_code: '02'
  state_name: Saint Andrew
  latitude: '15.58093000'
  longitude: "-61.33149000"
- name: Castle Bruce
  state_code: '03'
  state_name: Saint David
  latitude: '15.44397000'
  longitude: "-61.25723000"
- name: Rosalie
  state_code: '03'
  state_name: Saint David
  latitude: '15.36667000'
  longitude: "-61.26667000"
- name: Roseau
  state_code: '04'
  state_name: Saint George
  latitude: '15.30174000'
  longitude: "-61.38808000"
- name: Portsmouth
  state_code: '05'
  state_name: Saint John
  latitude: '15.58333000'
  longitude: "-61.46667000"
- name: Saint Joseph
  state_code: '06'
  state_name: Saint Joseph
  latitude: '15.40000000'
  longitude: "-61.43333000"
- name: Salisbury
  state_code: '06'
  state_name: Saint Joseph
  latitude: '15.43689000'
  longitude: "-61.43637000"
- name: Pointe Michel
  state_code: '07'
  state_name: Saint Luke
  latitude: '15.25976000'
  longitude: "-61.37452000"
- name: Soufrière
  state_code: '08'
  state_name: Saint Mark
  latitude: '15.23374000'
  longitude: "-61.35881000"
- name: Berekua
  state_code: '09'
  state_name: Saint Patrick
  latitude: '15.23333000'
  longitude: "-61.31667000"
- name: La Plaine
  state_code: '09'
  state_name: Saint Patrick
  latitude: '15.32768000'
  longitude: "-61.24753000"
- name: Mahaut
  state_code: '10'
  state_name: Saint Paul
  latitude: '15.36357000'
  longitude: "-61.39701000"
- name: Pont Cassé
  state_code: '10'
  state_name: Saint Paul
  latitude: '15.36667000'
  longitude: "-61.35000000"
- name: Colihaut
  state_code: '11'
  state_name: Saint Peter
  latitude: '15.48478000'
  longitude: "-61.46215000"
