---
- name: Brändö
  state_code: '01'
  state_name: Åland Islands
  latitude: '60.40750000'
  longitude: '21.07860000'
- name: Eckerö
  state_code: '01'
  state_name: Åland Islands
  latitude: '60.22080000'
  longitude: '19.55890000'
- name: Finström
  state_code: '01'
  state_name: Åland Islands
  latitude: '60.23420000'
  longitude: '20.11390000'
- name: Föglö
  state_code: '01'
  state_name: Åland Islands
  latitude: '60.09890000'
  longitude: '20.37280000'
- name: Geta
  state_code: '01'
  state_name: Åland Islands
  latitude: '60.41830000'
  longitude: '19.71670000'
- name: Hammarland
  state_code: '01'
  state_name: Åland Islands
  latitude: '60.24470000'
  longitude: '19.68920000'
- name: Jomala
  state_code: '01'
  state_name: Åland Islands
  latitude: '60.11810000'
  longitude: '19.89890000'
- name: Kumlinge
  state_code: '01'
  state_name: Åland Islands
  latitude: '60.39920000'
  longitude: '20.76920000'
- name: Lemland
  state_code: '01'
  state_name: Åland Islands
  latitude: '60.09250000'
  longitude: '20.15440000'
- name: Mariehamn
  state_code: '01'
  state_name: Åland Islands
  latitude: '60.10260000'
  longitude: '19.93480000'
- name: Saltvik
  state_code: '01'
  state_name: Åland Islands
  latitude: '60.35750000'
  longitude: '20.15470000'
- name: Sund
  state_code: '01'
  state_name: Åland Islands
  latitude: '60.23610000'
  longitude: '20.21560000'
- name: Äänekoski
  state_code: '08'
  state_name: Central Finland
  latitude: '62.60000000'
  longitude: '25.73333000'
- name: Hankasalmi
  state_code: '08'
  state_name: Central Finland
  latitude: '62.38333000'
  longitude: '26.43333000'
- name: Jämsä
  state_code: '08'
  state_name: Central Finland
  latitude: '61.86420000'
  longitude: '25.19002000'
- name: Jämsänkoski
  state_code: '08'
  state_name: Central Finland
  latitude: '61.91900000'
  longitude: '25.17011000'
- name: Joutsa
  state_code: '08'
  state_name: Central Finland
  latitude: '61.73333000'
  longitude: '26.11667000'
- name: Jyväskylä
  state_code: '08'
  state_name: Central Finland
  latitude: '62.24147000'
  longitude: '25.72088000'
- name: Kannonkoski
  state_code: '08'
  state_name: Central Finland
  latitude: '62.96667000'
  longitude: '25.25000000'
- name: Karstula
  state_code: '08'
  state_name: Central Finland
  latitude: '62.86667000'
  longitude: '24.78333000'
- name: Keuruu
  state_code: '08'
  state_name: Central Finland
  latitude: '62.26667000'
  longitude: '24.70000000'
- name: Kinnula
  state_code: '08'
  state_name: Central Finland
  latitude: '63.38333000'
  longitude: '24.95000000'
- name: Kivijärvi
  state_code: '08'
  state_name: Central Finland
  latitude: '63.11984000'
  longitude: '25.07835000'
- name: Konnevesi
  state_code: '08'
  state_name: Central Finland
  latitude: '62.61667000'
  longitude: '26.31667000'
- name: Korpilahti
  state_code: '08'
  state_name: Central Finland
  latitude: '62.01667000'
  longitude: '25.55000000'
- name: Kuhmoinen
  state_code: '08'
  state_name: Central Finland
  latitude: '61.56667000'
  longitude: '25.18333000'
- name: Kyyjärvi
  state_code: '08'
  state_name: Central Finland
  latitude: '63.03333000'
  longitude: '24.56667000'
- name: Laukaa
  state_code: '08'
  state_name: Central Finland
  latitude: '62.41407000'
  longitude: '25.95194000'
- name: Leivonmäki
  state_code: '08'
  state_name: Central Finland
  latitude: '61.91198000'
  longitude: '26.12796000'
- name: Luhanka
  state_code: '08'
  state_name: Central Finland
  latitude: '61.79682000'
  longitude: '25.70457000'
- name: Multia
  state_code: '08'
  state_name: Central Finland
  latitude: '62.41667000'
  longitude: '24.78333000'
- name: Muurame
  state_code: '08'
  state_name: Central Finland
  latitude: '62.13333000'
  longitude: '25.66667000'
- name: Petäjävesi
  state_code: '08'
  state_name: Central Finland
  latitude: '62.25000000'
  longitude: '25.20000000'
- name: Pihtipudas
  state_code: '08'
  state_name: Central Finland
  latitude: '63.38333000'
  longitude: '25.56667000'
- name: Pylkönmäki
  state_code: '08'
  state_name: Central Finland
  latitude: '62.66667000'
  longitude: '24.80000000'
- name: Saarijärvi
  state_code: '08'
  state_name: Central Finland
  latitude: '62.70486000'
  longitude: '25.25396000'
- name: Säynätsalo
  state_code: '08'
  state_name: Central Finland
  latitude: '62.14025000'
  longitude: '25.76948000'
- name: Sumiainen
  state_code: '08'
  state_name: Central Finland
  latitude: '62.65736000'
  longitude: '26.04642000'
- name: Suolahti
  state_code: '08'
  state_name: Central Finland
  latitude: '62.56421000'
  longitude: '25.85363000'
- name: Toivakka
  state_code: '08'
  state_name: Central Finland
  latitude: '62.10000000'
  longitude: '26.08333000'
- name: Uurainen
  state_code: '08'
  state_name: Central Finland
  latitude: '62.50000000'
  longitude: '25.45000000'
- name: Viitasaari
  state_code: '08'
  state_name: Central Finland
  latitude: '63.06667000'
  longitude: '25.86667000'
- name: Halsua
  state_code: '07'
  state_name: Central Ostrobothnia
  latitude: '63.46667000'
  longitude: '24.16667000'
- name: Kälviä
  state_code: '07'
  state_name: Central Ostrobothnia
  latitude: '63.86067000'
  longitude: '23.45289000'
- name: Kannus
  state_code: '07'
  state_name: Central Ostrobothnia
  latitude: '63.90000000'
  longitude: '23.90000000'
- name: Kaustinen
  state_code: '07'
  state_name: Central Ostrobothnia
  latitude: '63.54878000'
  longitude: '23.68845000'
- name: Kokkola
  state_code: '07'
  state_name: Central Ostrobothnia
  latitude: '63.85414000'
  longitude: '23.58562000'
- name: Lestijärvi
  state_code: '07'
  state_name: Central Ostrobothnia
  latitude: '63.53333000'
  longitude: '24.65000000'
- name: Lohtaja
  state_code: '07'
  state_name: Central Ostrobothnia
  latitude: '64.02472000'
  longitude: '23.50482000'
- name: Perho
  state_code: '07'
  state_name: Central Ostrobothnia
  latitude: '63.21667000'
  longitude: '24.41667000'
- name: Toholampi
  state_code: '07'
  state_name: Central Ostrobothnia
  latitude: '63.76667000'
  longitude: '24.25000000'
- name: Ullava
  state_code: '07'
  state_name: Central Ostrobothnia
  latitude: '63.60000000'
  longitude: '24.08333000'
- name: Veteli
  state_code: '07'
  state_name: Central Ostrobothnia
  latitude: '63.47839000'
  longitude: '23.78285000'
- name: Alastaro
  state_code: '19'
  state_name: Finland Proper
  latitude: '60.95000000'
  longitude: '22.85000000'
- name: Askainen
  state_code: '19'
  state_name: Finland Proper
  latitude: '60.56667000'
  longitude: '21.86667000'
- name: Aura
  state_code: '19'
  state_name: Finland Proper
  latitude: '60.64710000'
  longitude: '22.58755000'
- name: Dragsfjärd
  state_code: '19'
  state_name: Finland Proper
  latitude: '60.06667000'
  longitude: '22.48333000'
- name: Halikko
  state_code: '19'
  state_name: Finland Proper
  latitude: '60.40000000'
  longitude: '23.08333000'
- name: Houtskär
  state_code: '19'
  state_name: Finland Proper
  latitude: '60.22284000'
  longitude: '21.37218000'
- name: Iniö
  state_code: '19'
  state_name: Finland Proper
  latitude: '60.40000000'
  longitude: '21.40000000'
- name: Kaarina
  state_code: '19'
  state_name: Finland Proper
  latitude: '60.40724000'
  longitude: '22.36904000'
- name: Karinainen
  state_code: '19'
  state_name: Finland Proper
  latitude: '60.66667000'
  longitude: '22.76667000'
- name: Kiikala
  state_code: '19'
  state_name: Finland Proper
  latitude: '60.46667000'
  longitude: '23.56667000'
- name: Kimito
  state_code: '19'
  state_name: Finland Proper
  latitude: '60.16047000'
  longitude: '22.72900000'
- name: Kisko
  state_code: '19'
  state_name: Finland Proper
  latitude: '60.23333000'
  longitude: '23.48333000'
- name: Kustavi
  state_code: '19'
  state_name: Finland Proper
  latitude: '60.54529000'
  longitude: '21.35880000'
- name: Kuusjoki
  state_code: '19'
  state_name: Finland Proper
  latitude: '60.51667000'
  longitude: '23.20000000'
- name: Laitila
  state_code: '19'
  state_name: Finland Proper
  latitude: '60.87575000'
  longitude: '21.69765000'
- name: Lemu
  state_code: '19'
  state_name: Finland Proper
  latitude: '60.56667000'
  longitude: '21.96667000'
- name: Lieto
  state_code: '19'
  state_name: Finland Proper
  latitude: '60.51032000'
  longitude: '22.46176000'
- name: Marttila
  state_code: '19'
  state_name: Finland Proper
  latitude: '60.58333000'
  longitude: '22.90000000'
- name: Masku
  state_code: '19'
  state_name: Finland Proper
  latitude: '60.57082000'
  longitude: '22.09883000'
- name: Mellilä
  state_code: '19'
  state_name: Finland Proper
  latitude: '60.76667000'
  longitude: '22.95000000'
- name: Merimasku
  state_code: '19'
  state_name: Finland Proper
  latitude: '60.48333000'
  longitude: '21.86667000'
- name: Mietoinen
  state_code: '19'
  state_name: Finland Proper
  latitude: '60.63333000'
  longitude: '21.93333000'
- name: Muurla
  state_code: '19'
  state_name: Finland Proper
  latitude: '60.35000000'
  longitude: '23.28333000'
- name: Mynämäki
  state_code: '19'
  state_name: Finland Proper
  latitude: '60.67915000'
  longitude: '21.99274000'
- name: Naantali
  state_code: '19'
  state_name: Finland Proper
  latitude: '60.46744000'
  longitude: '22.02428000'
- name: Nagu
  state_code: '19'
  state_name: Finland Proper
  latitude: '60.19375000'
  longitude: '21.90972000'
- name: Nousiainen
  state_code: '19'
  state_name: Finland Proper
  latitude: '60.60416000'
  longitude: '22.07926000'
- name: Oripää
  state_code: '19'
  state_name: Finland Proper
  latitude: '60.85000000'
  longitude: '22.68333000'
- name: Paimio
  state_code: '19'
  state_name: Finland Proper
  latitude: '60.45671000'
  longitude: '22.68694000'
- name: Pargas
  state_code: '19'
  state_name: Finland Proper
  latitude: '60.30672000'
  longitude: '22.30097000'
- name: Perniö
  state_code: '19'
  state_name: Finland Proper
  latitude: '60.20000000'
  longitude: '23.13333000'
- name: Pertteli
  state_code: '19'
  state_name: Finland Proper
  latitude: '60.43333000'
  longitude: '23.26667000'
- name: Piikkiö
  state_code: '19'
  state_name: Finland Proper
  latitude: '60.42481000'
  longitude: '22.51601000'
- name: Pöytyä
  state_code: '19'
  state_name: Finland Proper
  latitude: '60.76667000'
  longitude: '22.66667000'
- name: Pyhäranta
  state_code: '19'
  state_name: Finland Proper
  latitude: '60.95000000'
  longitude: '21.45000000'
- name: Raisio
  state_code: '19'
  state_name: Finland Proper
  latitude: '60.48592000'
  longitude: '22.16895000'
- name: Rusko
  state_code: '19'
  state_name: Finland Proper
  latitude: '60.53333000'
  longitude: '22.21667000'
- name: Rymättylä
  state_code: '19'
  state_name: Finland Proper
  latitude: '60.37658000'
  longitude: '21.94184000'
- name: Salo
  state_code: '19'
  state_name: Finland Proper
  latitude: '60.38333000'
  longitude: '23.13333000'
- name: Särkisalo
  state_code: '19'
  state_name: Finland Proper
  latitude: '60.11389000'
  longitude: '22.95000000'
- name: Sauvo
  state_code: '19'
  state_name: Finland Proper
  latitude: '60.34306000'
  longitude: '22.69642000'
- name: Somero
  state_code: '19'
  state_name: Finland Proper
  latitude: '60.61667000'
  longitude: '23.53333000'
- name: Suomusjärvi
  state_code: '19'
  state_name: Finland Proper
  latitude: '60.35000000'
  longitude: '23.65000000'
- name: Taivassalo
  state_code: '19'
  state_name: Finland Proper
  latitude: '60.56085000'
  longitude: '21.61639000'
- name: Tarvasjoki
  state_code: '19'
  state_name: Finland Proper
  latitude: '60.58333000'
  longitude: '22.73333000'
- name: Turku
  state_code: '19'
  state_name: Finland Proper
  latitude: '60.45148000'
  longitude: '22.26869000'
- name: Uusikaupunki
  state_code: '19'
  state_name: Finland Proper
  latitude: '60.80043000'
  longitude: '21.40841000'
- name: Vahto
  state_code: '19'
  state_name: Finland Proper
  latitude: '60.60000000'
  longitude: '22.30000000'
- name: Väståboland
  state_code: '19'
  state_name: Finland Proper
  latitude: '60.29972000'
  longitude: '22.30040000'
- name: Västanfjärd
  state_code: '19'
  state_name: Finland Proper
  latitude: '60.05000000'
  longitude: '22.68333000'
- name: Vehmaa
  state_code: '19'
  state_name: Finland Proper
  latitude: '60.68333000'
  longitude: '21.66667000'
- name: Velkua
  state_code: '19'
  state_name: Finland Proper
  latitude: '60.46667000'
  longitude: '21.66667000'
- name: Yläne
  state_code: '19'
  state_name: Finland Proper
  latitude: '60.88333000'
  longitude: '22.41667000'
- name: Hyrynsalmi
  state_code: '05'
  state_name: Kainuu
  latitude: '64.66667000'
  longitude: '28.53333000'
- name: Kajaani
  state_code: '05'
  state_name: Kainuu
  latitude: '64.22728000'
  longitude: '27.72846000'
- name: Kuhmo
  state_code: '05'
  state_name: Kainuu
  latitude: '64.13333000'
  longitude: '29.51667000'
- name: Paltamo
  state_code: '05'
  state_name: Kainuu
  latitude: '64.41667000'
  longitude: '27.83333000'
- name: Puolanka
  state_code: '05'
  state_name: Kainuu
  latitude: '64.86667000'
  longitude: '27.66667000'
- name: Ristijärvi
  state_code: '05'
  state_name: Kainuu
  latitude: '64.50000000'
  longitude: '28.21667000'
- name: Sotkamo
  state_code: '05'
  state_name: Kainuu
  latitude: '64.13333000'
  longitude: '28.41667000'
- name: Suomussalmi
  state_code: '05'
  state_name: Kainuu
  latitude: '64.88685000'
  longitude: '28.90778000'
- name: Vaala
  state_code: '05'
  state_name: Kainuu
  latitude: '64.56667000'
  longitude: '26.83333000'
- name: Vuokatti
  state_code: '05'
  state_name: Kainuu
  latitude: '64.14466000'
  longitude: '28.28196000'
- name: Vuolijoki
  state_code: '05'
  state_name: Kainuu
  latitude: '64.18538000'
  longitude: '26.99547000'
- name: Anjala
  state_code: '09'
  state_name: Kymenlaakso
  latitude: '60.68333000'
  longitude: '26.83333000'
- name: Elimäki
  state_code: '09'
  state_name: Kymenlaakso
  latitude: '60.71667000'
  longitude: '26.46667000'
- name: Hamina
  state_code: '09'
  state_name: Kymenlaakso
  latitude: '60.56974000'
  longitude: '27.19794000'
- name: Iitti
  state_code: '09'
  state_name: Kymenlaakso
  latitude: '60.89488000'
  longitude: '26.33869000'
- name: Jaala
  state_code: '09'
  state_name: Kymenlaakso
  latitude: '61.05251000'
  longitude: '26.48117000'
- name: Karhula
  state_code: '09'
  state_name: Kymenlaakso
  latitude: '60.52156000'
  longitude: '26.93125000'
- name: Kotka
  state_code: '09'
  state_name: Kymenlaakso
  latitude: '60.46640000'
  longitude: '26.94582000'
- name: Kouvola
  state_code: '09'
  state_name: Kymenlaakso
  latitude: '60.86667000'
  longitude: '26.70000000'
- name: Miehikkälä
  state_code: '09'
  state_name: Kymenlaakso
  latitude: '60.66667000'
  longitude: '27.70000000'
- name: Pyhtää
  state_code: '09'
  state_name: Kymenlaakso
  latitude: '60.49349000'
  longitude: '26.54346000'
- name: Virojoki
  state_code: '09'
  state_name: Kymenlaakso
  latitude: '60.57940000'
  longitude: '27.70354000'
- name: Enontekiö
  state_code: '10'
  state_name: Lapland
  latitude: '68.38573000'
  longitude: '23.63215000'
- name: Inari
  state_code: '10'
  state_name: Lapland
  latitude: '68.90596000'
  longitude: '27.02881000'
- name: Ivalo
  state_code: '10'
  state_name: Lapland
  latitude: '68.65986000'
  longitude: '27.53891000'
- name: Kemi
  state_code: '10'
  state_name: Lapland
  latitude: '65.73641000'
  longitude: '24.56371000'
- name: Kemijärvi
  state_code: '10'
  state_name: Lapland
  latitude: '66.71309000'
  longitude: '27.43056000'
- name: Keminmaa
  state_code: '10'
  state_name: Lapland
  latitude: '65.80158000'
  longitude: '24.54483000'
- name: Kittilä
  state_code: '10'
  state_name: Lapland
  latitude: '67.66474000'
  longitude: '24.89356000'
- name: Kolari
  state_code: '10'
  state_name: Lapland
  latitude: '67.33047000'
  longitude: '23.77785000'
- name: Muonio
  state_code: '10'
  state_name: Lapland
  latitude: '67.95000000'
  longitude: '23.70000000'
- name: Pelkosenniemi
  state_code: '10'
  state_name: Lapland
  latitude: '67.11083000'
  longitude: '27.51056000'
- name: Pello
  state_code: '10'
  state_name: Lapland
  latitude: '66.77364000'
  longitude: '23.96255000'
- name: Posio
  state_code: '10'
  state_name: Lapland
  latitude: '66.10856000'
  longitude: '28.17186000'
- name: Pyhäjärvi
  state_code: '10'
  state_name: Lapland
  latitude: '67.07010000'
  longitude: '27.21763000'
- name: Ranua
  state_code: '10'
  state_name: Lapland
  latitude: '65.91667000'
  longitude: '26.53333000'
- name: Rovaniemi
  state_code: '10'
  state_name: Lapland
  latitude: '66.50000000'
  longitude: '25.71667000'
- name: Salla
  state_code: '10'
  state_name: Lapland
  latitude: '66.83333000'
  longitude: '28.66667000'
- name: Savukoski
  state_code: '10'
  state_name: Lapland
  latitude: '67.29250000'
  longitude: '28.15806000'
- name: Simo
  state_code: '10'
  state_name: Lapland
  latitude: '65.66667000'
  longitude: '25.05000000'
- name: Sodankylä
  state_code: '10'
  state_name: Lapland
  latitude: '67.41667000'
  longitude: '26.60000000'
- name: Tervola
  state_code: '10'
  state_name: Lapland
  latitude: '66.08333000'
  longitude: '24.80000000'
- name: Tornio
  state_code: '10'
  state_name: Lapland
  latitude: '65.84811000'
  longitude: '24.14662000'
- name: Utsjoki
  state_code: '10'
  state_name: Lapland
  latitude: '69.90864000'
  longitude: '27.02843000'
- name: Ylitornio
  state_code: '10'
  state_name: Lapland
  latitude: '66.30893000'
  longitude: '23.67734000'
- name: Eno
  state_code: '13'
  state_name: North Karelia
  latitude: '62.80511000'
  longitude: '30.15422000'
- name: Ilomantsi
  state_code: '13'
  state_name: North Karelia
  latitude: '62.67162000'
  longitude: '30.93276000'
- name: Joensuu
  state_code: '13'
  state_name: North Karelia
  latitude: '62.60118000'
  longitude: '29.76316000'
- name: Juuka
  state_code: '13'
  state_name: North Karelia
  latitude: '63.23333000'
  longitude: '29.25000000'
- name: Kesälahti
  state_code: '13'
  state_name: North Karelia
  latitude: '61.89752000'
  longitude: '29.83494000'
- name: Kiihtelysvaara
  state_code: '13'
  state_name: North Karelia
  latitude: '62.49525000'
  longitude: '30.25081000'
- name: Kitee
  state_code: '13'
  state_name: North Karelia
  latitude: '62.10000000'
  longitude: '30.15000000'
- name: Kontiolahti
  state_code: '13'
  state_name: North Karelia
  latitude: '62.76023000'
  longitude: '29.84711000'
- name: Lieksa
  state_code: '13'
  state_name: North Karelia
  latitude: '63.31667000'
  longitude: '30.01667000'
- name: Liperi
  state_code: '13'
  state_name: North Karelia
  latitude: '62.53333000'
  longitude: '29.36667000'
- name: Nurmes
  state_code: '13'
  state_name: North Karelia
  latitude: '63.54205000'
  longitude: '29.13965000'
- name: Outokumpu
  state_code: '13'
  state_name: North Karelia
  latitude: '62.72685000'
  longitude: '29.01592000'
- name: Polvijärvi
  state_code: '13'
  state_name: North Karelia
  latitude: '62.85000000'
  longitude: '29.36667000'
- name: Pyhäselkä
  state_code: '13'
  state_name: North Karelia
  latitude: '62.43333000'
  longitude: '29.96667000'
- name: Rääkkylä
  state_code: '13'
  state_name: North Karelia
  latitude: '62.31667000'
  longitude: '29.61667000'
- name: Tohmajärvi
  state_code: '13'
  state_name: North Karelia
  latitude: '62.18333000'
  longitude: '30.38333000'
- name: Tuupovaara
  state_code: '13'
  state_name: North Karelia
  latitude: '62.48372000'
  longitude: '30.62731000'
- name: Valtimo
  state_code: '13'
  state_name: North Karelia
  latitude: '63.66667000'
  longitude: '28.80000000'
- name: Alavieska
  state_code: '14'
  state_name: Northern Ostrobothnia
  latitude: '64.16667000'
  longitude: '24.30000000'
- name: Haapajärvi
  state_code: '14'
  state_name: Northern Ostrobothnia
  latitude: '63.75000000'
  longitude: '25.33333000'
- name: Haapavesi
  state_code: '14'
  state_name: Northern Ostrobothnia
  latitude: '64.13333000'
  longitude: '25.36667000'
- name: Hailuoto
  state_code: '14'
  state_name: Northern Ostrobothnia
  latitude: '65.00900000'
  longitude: '24.71385000'
- name: Haukipudas
  state_code: '14'
  state_name: Northern Ostrobothnia
  latitude: '65.17654000'
  longitude: '25.35233000'
- name: Himanka
  state_code: '14'
  state_name: Northern Ostrobothnia
  latitude: '64.06218000'
  longitude: '23.65447000'
- name: Ii
  state_code: '14'
  state_name: Northern Ostrobothnia
  latitude: '65.31735000'
  longitude: '25.37310000'
- name: Kalajoki
  state_code: '14'
  state_name: Northern Ostrobothnia
  latitude: '64.25000000'
  longitude: '23.95000000'
- name: Kärsämäki
  state_code: '14'
  state_name: Northern Ostrobothnia
  latitude: '63.96667000'
  longitude: '25.76667000'
- name: Kempele
  state_code: '14'
  state_name: Northern Ostrobothnia
  latitude: '64.91314000'
  longitude: '25.50339000'
- name: Kestilä
  state_code: '14'
  state_name: Northern Ostrobothnia
  latitude: '64.35002000'
  longitude: '26.27921000'
- name: Kiiminki
  state_code: '14'
  state_name: Northern Ostrobothnia
  latitude: '65.13139000'
  longitude: '25.79744000'
- name: Kuivaniemi
  state_code: '14'
  state_name: Northern Ostrobothnia
  latitude: '65.57847000'
  longitude: '25.18814000'
- name: Kuusamo
  state_code: '14'
  state_name: Northern Ostrobothnia
  latitude: '65.96667000'
  longitude: '29.18333000'
- name: Liminka
  state_code: '14'
  state_name: Northern Ostrobothnia
  latitude: '64.80985000'
  longitude: '25.41545000'
- name: Lumijoki
  state_code: '14'
  state_name: Northern Ostrobothnia
  latitude: '64.83744000'
  longitude: '25.18607000'
- name: Merijärvi
  state_code: '14'
  state_name: Northern Ostrobothnia
  latitude: '64.30000000'
  longitude: '24.45000000'
- name: Muhos
  state_code: '14'
  state_name: Northern Ostrobothnia
  latitude: '64.80798000'
  longitude: '25.99314000'
- name: Nivala
  state_code: '14'
  state_name: Northern Ostrobothnia
  latitude: '63.91667000'
  longitude: '24.96667000'
- name: Oulainen
  state_code: '14'
  state_name: Northern Ostrobothnia
  latitude: '64.26667000'
  longitude: '24.80000000'
- name: Oulu
  state_code: '14'
  state_name: Northern Ostrobothnia
  latitude: '65.01236000'
  longitude: '25.46816000'
- name: Oulunsalo
  state_code: '14'
  state_name: Northern Ostrobothnia
  latitude: '64.93456000'
  longitude: '25.41121000'
- name: Piippola
  state_code: '14'
  state_name: Northern Ostrobothnia
  latitude: '64.16667000'
  longitude: '25.96667000'
- name: Pudasjärvi
  state_code: '14'
  state_name: Northern Ostrobothnia
  latitude: '65.38333000'
  longitude: '26.91667000'
- name: Pulkkila
  state_code: '14'
  state_name: Northern Ostrobothnia
  latitude: '64.26667000'
  longitude: '25.86667000'
- name: Pyhäjärvi
  state_code: '14'
  state_name: Northern Ostrobothnia
  latitude: '63.66667000'
  longitude: '25.90000000'
- name: Pyhäjoki
  state_code: '14'
  state_name: Northern Ostrobothnia
  latitude: '64.46667000'
  longitude: '24.23333000'
- name: Pyhäntä
  state_code: '14'
  state_name: Northern Ostrobothnia
  latitude: '64.10000000'
  longitude: '26.31667000'
- name: Raahe
  state_code: '14'
  state_name: Northern Ostrobothnia
  latitude: '64.68333000'
  longitude: '24.48333000'
- name: Rantsila
  state_code: '14'
  state_name: Northern Ostrobothnia
  latitude: '64.50613000'
  longitude: '25.66449000'
- name: Reisjärvi
  state_code: '14'
  state_name: Northern Ostrobothnia
  latitude: '63.61667000'
  longitude: '24.90000000'
- name: Ruukki
  state_code: '14'
  state_name: Northern Ostrobothnia
  latitude: '64.66667000'
  longitude: '25.10000000'
- name: Sievi
  state_code: '14'
  state_name: Northern Ostrobothnia
  latitude: '63.90000000'
  longitude: '24.50000000'
- name: Siikajoki
  state_code: '14'
  state_name: Northern Ostrobothnia
  latitude: '64.81455000'
  longitude: '24.75924000'
- name: Taivalkoski
  state_code: '14'
  state_name: Northern Ostrobothnia
  latitude: '65.56667000'
  longitude: '28.25000000'
- name: Tyrnävä
  state_code: '14'
  state_name: Northern Ostrobothnia
  latitude: '64.76469000'
  longitude: '25.65230000'
- name: Utajärvi
  state_code: '14'
  state_name: Northern Ostrobothnia
  latitude: '64.75000000'
  longitude: '26.38333000'
- name: Vihanti
  state_code: '14'
  state_name: Northern Ostrobothnia
  latitude: '64.48472000'
  longitude: '24.99157000'
- name: Yli-Ii
  state_code: '14'
  state_name: Northern Ostrobothnia
  latitude: '65.37181000'
  longitude: '25.84580000'
- name: Ylikiiminki
  state_code: '14'
  state_name: Northern Ostrobothnia
  latitude: '65.08333000'
  longitude: '26.25000000'
- name: Ylivieska
  state_code: '14'
  state_name: Northern Ostrobothnia
  latitude: '64.08333000'
  longitude: '24.55000000'
- name: Hietalahti
  state_code: '12'
  state_name: Ostrobothnia
  latitude: '63.08480000'
  longitude: '21.61716000'
- name: Isokyrö
  state_code: '12'
  state_name: Ostrobothnia
  latitude: '63.01172000'
  longitude: '22.33332000'
- name: Jakobstad
  state_code: '12'
  state_name: Ostrobothnia
  latitude: '63.67486000'
  longitude: '22.70256000'
- name: Kaskinen
  state_code: '12'
  state_name: Ostrobothnia
  latitude: '62.38444000'
  longitude: '21.22331000'
- name: Korsholm
  state_code: '12'
  state_name: Ostrobothnia
  latitude: '63.11418000'
  longitude: '21.68216000'
- name: Korsnäs
  state_code: '12'
  state_name: Ostrobothnia
  latitude: '62.78333000'
  longitude: '21.20000000'
- name: Kristinestad
  state_code: '12'
  state_name: Ostrobothnia
  latitude: '62.27429000'
  longitude: '21.37596000'
- name: Kronoby
  state_code: '12'
  state_name: Ostrobothnia
  latitude: '63.72859000'
  longitude: '23.03387000'
- name: Laihia
  state_code: '12'
  state_name: Ostrobothnia
  latitude: '62.97609000'
  longitude: '22.01143000'
- name: Larsmo
  state_code: '12'
  state_name: Ostrobothnia
  latitude: '63.75388000'
  longitude: '22.74728000'
- name: Malax
  state_code: '12'
  state_name: Ostrobothnia
  latitude: '62.94225000'
  longitude: '21.57311000'
- name: Nykarleby
  state_code: '12'
  state_name: Ostrobothnia
  latitude: '63.52277000'
  longitude: '22.53073000'
- name: Oravais
  state_code: '12'
  state_name: Ostrobothnia
  latitude: '63.30135000'
  longitude: '22.37821000'
- name: Pedersöre
  state_code: '12'
  state_name: Ostrobothnia
  latitude: '63.65000000'
  longitude: '22.68333000'
- name: Replot
  state_code: '12'
  state_name: Ostrobothnia
  latitude: '63.22882000'
  longitude: '21.41691000'
- name: Ristinummi
  state_code: '12'
  state_name: Ostrobothnia
  latitude: '63.09192000'
  longitude: '21.72297000'
- name: Teeriniemi
  state_code: '12'
  state_name: Ostrobothnia
  latitude: '63.09705000'
  longitude: '21.69590000'
- name: Vaasa
  state_code: '12'
  state_name: Ostrobothnia
  latitude: '63.09600000'
  longitude: '21.61577000'
- name: Vähäkyrö
  state_code: '12'
  state_name: Ostrobothnia
  latitude: '63.05635000'
  longitude: '22.10584000'
- name: Vörå
  state_code: '12'
  state_name: Ostrobothnia
  latitude: '63.13607000'
  longitude: '22.25223000'
- name: Artjärvi
  state_code: '16'
  state_name: Päijänne Tavastia
  latitude: '60.74544000'
  longitude: '26.07084000'
- name: Asikkala
  state_code: '16'
  state_name: Päijänne Tavastia
  latitude: '61.21667000'
  longitude: '25.50000000'
- name: Auttoinen
  state_code: '16'
  state_name: Päijänne Tavastia
  latitude: '61.29901000'
  longitude: '25.08887000'
- name: Hämeenkoski
  state_code: '16'
  state_name: Päijänne Tavastia
  latitude: '61.02222000'
  longitude: '25.15417000'
- name: Hartola
  state_code: '16'
  state_name: Päijänne Tavastia
  latitude: '61.58333000'
  longitude: '26.01667000'
- name: Heinola
  state_code: '16'
  state_name: Päijänne Tavastia
  latitude: '61.20564000'
  longitude: '26.03811000'
- name: Hollola
  state_code: '16'
  state_name: Päijänne Tavastia
  latitude: '61.05000000'
  longitude: '25.43333000'
- name: Lahti
  state_code: '16'
  state_name: Päijänne Tavastia
  latitude: '60.98267000'
  longitude: '25.66151000'
- name: Nastola
  state_code: '16'
  state_name: Päijänne Tavastia
  latitude: '60.95000000'
  longitude: '25.93333000'
- name: Orimattila
  state_code: '16'
  state_name: Päijänne Tavastia
  latitude: '60.80487000'
  longitude: '25.72964000'
- name: Padasjoki
  state_code: '16'
  state_name: Päijänne Tavastia
  latitude: '61.35000000'
  longitude: '25.28333000'
- name: Sysmä
  state_code: '16'
  state_name: Päijänne Tavastia
  latitude: '61.50000000'
  longitude: '25.68333000'
- name: Äetsä
  state_code: '11'
  state_name: Pirkanmaa
  latitude: '61.28333000'
  longitude: '22.68333000'
- name: Aimala
  state_code: '11'
  state_name: Pirkanmaa
  latitude: '61.33000000'
  longitude: '23.69000000'
- name: Aitoo
  state_code: '11'
  state_name: Pirkanmaa
  latitude: '61.33897400'
  longitude: '24.49431900'
- name: Akaa
  state_code: '11'
  state_name: Pirkanmaa
  latitude: '61.16666667'
  longitude: '23.86805556'
- name: Amuri
  state_code: '11'
  state_name: Pirkanmaa
  latitude: '61.50000000'
  longitude: '23.74500000'
- name: Haihara
  state_code: '11'
  state_name: Pirkanmaa
  latitude: '61.47630000'
  longitude: '23.87711000'
- name: Hallila
  state_code: '11'
  state_name: Pirkanmaa
  latitude: '61.46250000'
  longitude: '23.82916667'
- name: Hämeenkyrö
  state_code: '11'
  state_name: Pirkanmaa
  latitude: '61.63333333'
  longitude: '23.20000000'
- name: Hervanta
  state_code: '11'
  state_name: Pirkanmaa
  latitude: '61.44810000'
  longitude: '23.85210000'
- name: Ikaalinen
  state_code: '11'
  state_name: Pirkanmaa
  latitude: '61.76944444'
  longitude: '23.06805556'
- name: Juupajoki
  state_code: '11'
  state_name: Pirkanmaa
  latitude: '61.79666667'
  longitude: '24.37000000'
- name: Kangasala
  state_code: '11'
  state_name: Pirkanmaa
  latitude: '61.46388900'
  longitude: '24.06500000'
- name: Kihniö
  state_code: '11'
  state_name: Pirkanmaa
  latitude: '62.20833333'
  longitude: '23.17916667'
- name: Kiikka
  state_code: '11'
  state_name: Pirkanmaa
  latitude: '61.32077778'
  longitude: '22.77538889'
- name: Kiikoinen
  state_code: '11'
  state_name: Pirkanmaa
  latitude: '61.45000000'
  longitude: '22.57500000'
- name: Kolho
  state_code: '11'
  state_name: Pirkanmaa
  latitude: '62.13333333'
  longitude: '24.51666667'
- name: Kuhmalahti
  state_code: '11'
  state_name: Pirkanmaa
  latitude: '61.50500000'
  longitude: '24.56666667'
- name: Kuru
  state_code: '11'
  state_name: Pirkanmaa
  latitude: '61.87558000'
  longitude: '23.71948000'
- name: Kylmäkoski
  state_code: '11'
  state_name: Pirkanmaa
  latitude: '61.15000000'
  longitude: '23.69166667'
- name: Längelmäki
  state_code: '11'
  state_name: Pirkanmaa
  latitude: '61.68890000'
  longitude: '24.69194000'
- name: Lempäälä
  state_code: '11'
  state_name: Pirkanmaa
  latitude: '61.31388889'
  longitude: '23.75277778'
- name: Lentävänniemi
  state_code: '11'
  state_name: Pirkanmaa
  latitude: '61.52801000'
  longitude: '23.70575000'
- name: Lielahti
  state_code: '11'
  state_name: Pirkanmaa
  latitude: '61.51666667'
  longitude: '23.66666667'
- name: Luopioinen
  state_code: '11'
  state_name: Pirkanmaa
  latitude: '61.36293000'
  longitude: '24.66781000'
- name: Mänttä
  state_code: '11'
  state_name: Pirkanmaa
  latitude: '62.03014000'
  longitude: '24.62791000'
- name: Messukylä
  state_code: '11'
  state_name: Pirkanmaa
  latitude: '61.48527778'
  longitude: '23.84472222'
- name: Mouhijärvi
  state_code: '11'
  state_name: Pirkanmaa
  latitude: '61.50000000'
  longitude: '23.01667000'
- name: Naistenmatka
  state_code: '11'
  state_name: Pirkanmaa
  latitude: '61.46518000'
  longitude: '23.65253000'
- name: Nekala
  state_code: '11'
  state_name: Pirkanmaa
  latitude: '61.48333333'
  longitude: '23.79055556'
- name: Nokia
  state_code: '11'
  state_name: Pirkanmaa
  latitude: '61.47666667'
  longitude: '23.50527778'
- name: Nurmi
  state_code: '11'
  state_name: Pirkanmaa
  latitude: '61.53779000'
  longitude: '23.94178000'
- name: Nuutajärvi
  state_code: '11'
  state_name: Pirkanmaa
  latitude: '61.04000000'
  longitude: '23.43000000'
- name: Orivesi
  state_code: '11'
  state_name: Pirkanmaa
  latitude: '61.67777778'
  longitude: '24.35694444'
- name: Osara
  state_code: '11'
  state_name: Pirkanmaa
  latitude: '61.70866000'
  longitude: '23.15871000'
- name: Pälkäne
  state_code: '11'
  state_name: Pirkanmaa
  latitude: '61.35403000'
  longitude: '24.51912000'
- name: Parkano
  state_code: '11'
  state_name: Pirkanmaa
  latitude: '62.00972222'
  longitude: '23.02500000'
- name: Pirkkala
  state_code: '11'
  state_name: Pirkanmaa
  latitude: '61.46666667'
  longitude: '23.65000000'
- name: Pispala
  state_code: '11'
  state_name: Pirkanmaa
  latitude: '61.50611111'
  longitude: '23.70250000'
- name: Pohjaslahti
  state_code: '11'
  state_name: Pirkanmaa
  latitude: '62.15631000'
  longitude: '24.13190000'
- name: Punkalaidun
  state_code: '11'
  state_name: Pirkanmaa
  latitude: '61.11166667'
  longitude: '23.10500000'
- name: Ruovesi
  state_code: '11'
  state_name: Pirkanmaa
  latitude: '61.98333300'
  longitude: '24.08333300'
- name: Sääksmäki
  state_code: '11'
  state_name: Pirkanmaa
  latitude: '61.20000000'
  longitude: '24.06666667'
- name: Sahalahti
  state_code: '11'
  state_name: Pirkanmaa
  latitude: '61.46666667'
  longitude: '24.31666667'
- name: Sastamala
  state_code: '11'
  state_name: Pirkanmaa
  latitude: '61.34166667'
  longitude: '22.90833333'
- name: Suodenniemi
  state_code: '11'
  state_name: Pirkanmaa
  latitude: '61.55810000'
  longitude: '22.78526000'
- name: Suoniemi
  state_code: '11'
  state_name: Pirkanmaa
  latitude: '61.44111111'
  longitude: '23.21500000'
- name: Tampere
  state_code: '11'
  state_name: Pirkanmaa
  latitude: '61.49805556'
  longitude: '23.76000000'
- name: Teisko
  state_code: '11'
  state_name: Pirkanmaa
  latitude: '61.67336111'
  longitude: '23.84766944'
- name: Toijala
  state_code: '11'
  state_name: Pirkanmaa
  latitude: '61.16780000'
  longitude: '23.83819000'
- name: Tottijärvi
  state_code: '11'
  state_name: Pirkanmaa
  latitude: '61.39777778'
  longitude: '23.34277778'
- name: Urjala
  state_code: '11'
  state_name: Pirkanmaa
  latitude: '61.08333333'
  longitude: '23.55000000'
- name: Valkeakoski
  state_code: '11'
  state_name: Pirkanmaa
  latitude: '61.26666667'
  longitude: '24.03055556'
- name: Vammala
  state_code: '11'
  state_name: Pirkanmaa
  latitude: '61.34027778'
  longitude: '22.90972222'
- name: Vesilahti
  state_code: '11'
  state_name: Pirkanmaa
  latitude: '61.31666700'
  longitude: '23.61666700'
- name: Viiala
  state_code: '11'
  state_name: Pirkanmaa
  latitude: '61.21023000'
  longitude: '23.76738000'
- name: Viljakkala
  state_code: '11'
  state_name: Pirkanmaa
  latitude: '61.70601000'
  longitude: '23.26688000'
- name: Vilppula
  state_code: '11'
  state_name: Pirkanmaa
  latitude: '62.02121000'
  longitude: '24.50483000'
- name: Virrat
  state_code: '11'
  state_name: Pirkanmaa
  latitude: '62.24027778'
  longitude: '23.77083333'
- name: Vuores
  state_code: '11'
  state_name: Pirkanmaa
  latitude: '61.43100000'
  longitude: '23.81184000'
- name: Ylöjärvi
  state_code: '11'
  state_name: Pirkanmaa
  latitude: '61.55000000'
  longitude: '23.58333333'
- name: Eura
  state_code: '17'
  state_name: Satakunta
  latitude: '61.13333000'
  longitude: '22.13333000'
- name: Eurajoki
  state_code: '17'
  state_name: Satakunta
  latitude: '61.20000000'
  longitude: '21.73333000'
- name: Harjavalta
  state_code: '17'
  state_name: Satakunta
  latitude: '61.31667000'
  longitude: '22.13333000'
- name: Huittinen
  state_code: '17'
  state_name: Satakunta
  latitude: '61.18333000'
  longitude: '22.70000000'
- name: Jämijärvi
  state_code: '17'
  state_name: Satakunta
  latitude: '61.81667000'
  longitude: '22.70000000'
- name: Kankaanpää
  state_code: '17'
  state_name: Satakunta
  latitude: '61.80000000'
  longitude: '22.41667000'
- name: Karvia
  state_code: '17'
  state_name: Satakunta
  latitude: '62.13333000'
  longitude: '22.56667000'
- name: Kiukainen
  state_code: '17'
  state_name: Satakunta
  latitude: '61.21667000'
  longitude: '22.08333000'
- name: Kokemäki
  state_code: '17'
  state_name: Satakunta
  latitude: '61.25647000'
  longitude: '22.35643000'
- name: Köyliö
  state_code: '17'
  state_name: Satakunta
  latitude: '61.11910000'
  longitude: '22.30976000'
- name: Kullaa
  state_code: '17'
  state_name: Satakunta
  latitude: '61.46998000'
  longitude: '22.16145000'
- name: Längelmäki
  state_code: '17'
  state_name: Satakunta
  latitude: '61.65000000'
  longitude: '22.10000000'
- name: Lappi
  state_code: '17'
  state_name: Satakunta
  latitude: '61.10000000'
  longitude: '21.83333000'
- name: Lavia
  state_code: '17'
  state_name: Satakunta
  latitude: '61.60000000'
  longitude: '22.60000000'
- name: Luvia
  state_code: '17'
  state_name: Satakunta
  latitude: '61.36375000'
  longitude: '21.62556000'
- name: Merikarvia
  state_code: '17'
  state_name: Satakunta
  latitude: '61.85839000'
  longitude: '21.50035000'
- name: Nakkila
  state_code: '17'
  state_name: Satakunta
  latitude: '61.36667000'
  longitude: '22.00000000'
- name: Noormarkku
  state_code: '17'
  state_name: Satakunta
  latitude: '61.59274000'
  longitude: '21.86846000'
- name: Pomarkku
  state_code: '17'
  state_name: Satakunta
  latitude: '61.69348000'
  longitude: '22.00862000'
- name: Pori
  state_code: '17'
  state_name: Satakunta
  latitude: '61.48333000'
  longitude: '21.78333000'
- name: Rauma
  state_code: '17'
  state_name: Satakunta
  latitude: '61.12724000'
  longitude: '21.51127000'
- name: Säkylä
  state_code: '17'
  state_name: Satakunta
  latitude: '61.03333000'
  longitude: '22.33333000'
- name: Siikainen
  state_code: '17'
  state_name: Satakunta
  latitude: '61.87703000'
  longitude: '21.81945000'
- name: Ulvila
  state_code: '17'
  state_name: Satakunta
  latitude: '61.42844000'
  longitude: '21.87103000'
- name: Vampula
  state_code: '17'
  state_name: Satakunta
  latitude: '61.01667000'
  longitude: '22.70000000'
- name: Imatra
  state_code: '02'
  state_name: South Karelia
  latitude: '61.17185000'
  longitude: '28.75242000'
- name: Joutseno
  state_code: '02'
  state_name: South Karelia
  latitude: '61.11796000'
  longitude: '28.50763000'
- name: Lappeenranta
  state_code: '02'
  state_name: South Karelia
  latitude: '61.05871000'
  longitude: '28.18871000'
- name: Lemi
  state_code: '02'
  state_name: South Karelia
  latitude: '61.06244000'
  longitude: '27.80571000'
- name: Luumäki
  state_code: '02'
  state_name: South Karelia
  latitude: '60.92618000'
  longitude: '27.58135000'
- name: Nuijamaa
  state_code: '02'
  state_name: South Karelia
  latitude: '60.96011000'
  longitude: '28.55104000'
- name: Parikkala
  state_code: '02'
  state_name: South Karelia
  latitude: '61.55000000'
  longitude: '29.50000000'
- name: Rautjärvi
  state_code: '02'
  state_name: South Karelia
  latitude: '61.43333000'
  longitude: '29.35000000'
- name: Ruokolahti
  state_code: '02'
  state_name: South Karelia
  latitude: '61.28333000'
  longitude: '28.83333000'
- name: Saari
  state_code: '02'
  state_name: South Karelia
  latitude: '61.65000000'
  longitude: '29.75000000'
- name: Savitaipale
  state_code: '02'
  state_name: South Karelia
  latitude: '61.20000000'
  longitude: '27.70000000'
- name: Taipalsaari
  state_code: '02'
  state_name: South Karelia
  latitude: '61.15000000'
  longitude: '28.05000000'
- name: Ylämaa
  state_code: '02'
  state_name: South Karelia
  latitude: '60.80000000'
  longitude: '28.00000000'
- name: Ähtäri
  state_code: '03'
  state_name: Southern Ostrobothnia
  latitude: '62.55403000'
  longitude: '24.06186000'
- name: Alahärmä
  state_code: '03'
  state_name: Southern Ostrobothnia
  latitude: '63.23333000'
  longitude: '22.85000000'
- name: Alajärvi
  state_code: '03'
  state_name: Southern Ostrobothnia
  latitude: '63.00000000'
  longitude: '23.81667000'
- name: Alavus
  state_code: '03'
  state_name: Southern Ostrobothnia
  latitude: '62.58333000'
  longitude: '23.61667000'
- name: Evijärvi
  state_code: '03'
  state_name: Southern Ostrobothnia
  latitude: '63.36667000'
  longitude: '23.48333000'
- name: Ilmajoki
  state_code: '03'
  state_name: Southern Ostrobothnia
  latitude: '62.73333000'
  longitude: '22.56667000'
- name: Isojoki
  state_code: '03'
  state_name: Southern Ostrobothnia
  latitude: '62.11319000'
  longitude: '21.95884000'
- name: Jalasjärvi
  state_code: '03'
  state_name: Southern Ostrobothnia
  latitude: '62.50000000'
  longitude: '22.75000000'
- name: Jurva
  state_code: '03'
  state_name: Southern Ostrobothnia
  latitude: '62.68333000'
  longitude: '21.98333000'
- name: Karijoki
  state_code: '03'
  state_name: Southern Ostrobothnia
  latitude: '62.30851000'
  longitude: '21.70856000'
- name: Kauhajoki
  state_code: '03'
  state_name: Southern Ostrobothnia
  latitude: '62.43333000'
  longitude: '22.18333000'
- name: Kauhava
  state_code: '03'
  state_name: Southern Ostrobothnia
  latitude: '63.10299000'
  longitude: '23.07129000'
- name: Kortesjärvi
  state_code: '03'
  state_name: Southern Ostrobothnia
  latitude: '63.30000000'
  longitude: '23.16667000'
- name: Kuortane
  state_code: '03'
  state_name: Southern Ostrobothnia
  latitude: '62.80000000'
  longitude: '23.50000000'
- name: Kurikka
  state_code: '03'
  state_name: Southern Ostrobothnia
  latitude: '62.61667000'
  longitude: '22.41667000'
- name: Lappajärvi
  state_code: '03'
  state_name: Southern Ostrobothnia
  latitude: '63.20000000'
  longitude: '23.63333000'
- name: Lapua
  state_code: '03'
  state_name: Southern Ostrobothnia
  latitude: '62.96927000'
  longitude: '23.00880000'
- name: Lehtimäki
  state_code: '03'
  state_name: Southern Ostrobothnia
  latitude: '62.78333000'
  longitude: '23.91667000'
- name: Nurmo
  state_code: '03'
  state_name: Southern Ostrobothnia
  latitude: '62.82870000'
  longitude: '22.90990000'
- name: Seinäjoki
  state_code: '03'
  state_name: Southern Ostrobothnia
  latitude: '62.79446000'
  longitude: '22.82822000'
- name: Soini
  state_code: '03'
  state_name: Southern Ostrobothnia
  latitude: '62.86667000'
  longitude: '24.21667000'
- name: Teuva
  state_code: '03'
  state_name: Southern Ostrobothnia
  latitude: '62.48190000'
  longitude: '21.74156000'
- name: Töysä
  state_code: '03'
  state_name: Southern Ostrobothnia
  latitude: '62.62803000'
  longitude: '23.81828000'
- name: Vimpeli
  state_code: '03'
  state_name: Southern Ostrobothnia
  latitude: '63.16187000'
  longitude: '23.81922000'
- name: Ylihärmä
  state_code: '03'
  state_name: Southern Ostrobothnia
  latitude: '63.15000000'
  longitude: '22.78333000'
- name: Ylistaro
  state_code: '03'
  state_name: Southern Ostrobothnia
  latitude: '62.93958000'
  longitude: '22.51306000'
- name: Enonkoski
  state_code: '04'
  state_name: Southern Savonia
  latitude: '62.08333000'
  longitude: '28.93333000'
- name: Haukivuori
  state_code: '04'
  state_name: Southern Savonia
  latitude: '62.01753000'
  longitude: '27.21906000'
- name: Heinävesi
  state_code: '04'
  state_name: Southern Savonia
  latitude: '62.43333000'
  longitude: '28.60000000'
- name: Hirvensalmi
  state_code: '04'
  state_name: Southern Savonia
  latitude: '61.63333000'
  longitude: '26.80000000'
- name: Jäppilä
  state_code: '04'
  state_name: Southern Savonia
  latitude: '62.37899000'
  longitude: '27.43372000'
- name: Joroinen
  state_code: '04'
  state_name: Southern Savonia
  latitude: '62.17823000'
  longitude: '27.83165000'
- name: Juva
  state_code: '04'
  state_name: Southern Savonia
  latitude: '61.90000000'
  longitude: '27.85000000'
- name: Kangasniemi
  state_code: '04'
  state_name: Southern Savonia
  latitude: '61.99357000'
  longitude: '26.64785000'
- name: Kerimäki
  state_code: '04'
  state_name: Southern Savonia
  latitude: '61.91069000'
  longitude: '29.28228000'
- name: Mäntyharju
  state_code: '04'
  state_name: Southern Savonia
  latitude: '61.41667000'
  longitude: '26.88333000'
- name: Mikkeli
  state_code: '04'
  state_name: Southern Savonia
  latitude: '61.68857000'
  longitude: '27.27227000'
- name: Pertunmaa
  state_code: '04'
  state_name: Southern Savonia
  latitude: '61.50000000'
  longitude: '26.48333000'
- name: Pieksämäki
  state_code: '04'
  state_name: Southern Savonia
  latitude: '62.30000000'
  longitude: '27.13333000'
- name: Punkaharju
  state_code: '04'
  state_name: Southern Savonia
  latitude: '61.75883000'
  longitude: '29.38843000'
- name: Puumala
  state_code: '04'
  state_name: Southern Savonia
  latitude: '61.52728000'
  longitude: '28.17495000'
- name: Rantasalmi
  state_code: '04'
  state_name: Southern Savonia
  latitude: '62.06667000'
  longitude: '28.30000000'
- name: Ristiina
  state_code: '04'
  state_name: Southern Savonia
  latitude: '61.50579000'
  longitude: '27.24643000'
- name: Savonlinna
  state_code: '04'
  state_name: Southern Savonia
  latitude: '61.86990000'
  longitude: '28.87999000'
- name: Savonranta
  state_code: '04'
  state_name: Southern Savonia
  latitude: '62.18333000'
  longitude: '29.20000000'
- name: Sulkava
  state_code: '04'
  state_name: Southern Savonia
  latitude: '61.78691000'
  longitude: '28.37299000'
- name: Virtasalmi
  state_code: '04'
  state_name: Southern Savonia
  latitude: '62.12695000'
  longitude: '27.46276000'
- name: Forssa
  state_code: '06'
  state_name: Tavastia Proper
  latitude: '60.81462000'
  longitude: '23.62146000'
- name: Hämeenlinna
  state_code: '06'
  state_name: Tavastia Proper
  latitude: '60.99596000'
  longitude: '24.46434000'
- name: Hauho
  state_code: '06'
  state_name: Tavastia Proper
  latitude: '61.17255000'
  longitude: '24.56303000'
- name: Hausjärvi
  state_code: '06'
  state_name: Tavastia Proper
  latitude: '60.78333000'
  longitude: '24.93333000'
- name: Humppila
  state_code: '06'
  state_name: Tavastia Proper
  latitude: '60.93333000'
  longitude: '23.36667000'
- name: Janakkala
  state_code: '06'
  state_name: Tavastia Proper
  latitude: '60.90000000'
  longitude: '24.60000000'
- name: Jokioinen
  state_code: '06'
  state_name: Tavastia Proper
  latitude: '60.80162000'
  longitude: '23.48004000'
- name: Kalvola
  state_code: '06'
  state_name: Tavastia Proper
  latitude: '61.10081000'
  longitude: '24.12177000'
- name: Lammi
  state_code: '06'
  state_name: Tavastia Proper
  latitude: '61.08333000'
  longitude: '25.01667000'
- name: Loppi
  state_code: '06'
  state_name: Tavastia Proper
  latitude: '60.71667000'
  longitude: '24.45000000'
- name: Renko
  state_code: '06'
  state_name: Tavastia Proper
  latitude: '60.89563000'
  longitude: '24.28785000'
- name: Riihimäki
  state_code: '06'
  state_name: Tavastia Proper
  latitude: '60.73769000'
  longitude: '24.77726000'
- name: Tammela
  state_code: '06'
  state_name: Tavastia Proper
  latitude: '60.81035000'
  longitude: '23.76823000'
- name: Tervakoski
  state_code: '06'
  state_name: Tavastia Proper
  latitude: '60.81412000'
  longitude: '24.62594000'
- name: Tuulos
  state_code: '06'
  state_name: Tavastia Proper
  latitude: '61.15000000'
  longitude: '24.80000000'
- name: Ypäjä
  state_code: '06'
  state_name: Tavastia Proper
  latitude: '60.80000000'
  longitude: '23.28333000'
- name: Askola
  state_code: '18'
  state_name: Uusimaa
  latitude: '60.53333000'
  longitude: '25.60000000'
- name: Ekenäs
  state_code: '18'
  state_name: Uusimaa
  latitude: '59.97359000'
  longitude: '23.43389000'
- name: Espoo
  state_code: '18'
  state_name: Uusimaa
  latitude: '60.20520000'
  longitude: '24.65220000'
- name: Gumböle
  state_code: '18'
  state_name: Uusimaa
  latitude: '60.21948000'
  longitude: '24.61684000'
- name: Hanko
  state_code: '18'
  state_name: Uusimaa
  latitude: '59.83333000'
  longitude: '22.95000000'
- name: Helsinki
  state_code: '18'
  state_name: Uusimaa
  latitude: '60.16952000'
  longitude: '24.93545000'
- name: Hyvinge
  state_code: '18'
  state_name: Uusimaa
  latitude: '60.63333000'
  longitude: '24.86667000'
- name: Ingå
  state_code: '18'
  state_name: Uusimaa
  latitude: '60.04587000'
  longitude: '24.00459000'
- name: Järvenpää
  state_code: '18'
  state_name: Uusimaa
  latitude: '60.47369000'
  longitude: '25.08992000'
- name: Kaarela
  state_code: '18'
  state_name: Uusimaa
  latitude: '60.25174000'
  longitude: '24.88111000'
- name: Kallio
  state_code: '18'
  state_name: Uusimaa
  latitude: '60.18427000'
  longitude: '24.95034000'
- name: Karis
  state_code: '18'
  state_name: Uusimaa
  latitude: '60.07178000'
  longitude: '23.66163000'
- name: Karjalohja
  state_code: '18'
  state_name: Uusimaa
  latitude: '60.24015000'
  longitude: '23.71789000'
- name: Karkkila
  state_code: '18'
  state_name: Uusimaa
  latitude: '60.53418000'
  longitude: '24.20977000'
- name: Kärkölä
  state_code: '18'
  state_name: Uusimaa
  latitude: '60.61292000'
  longitude: '23.94196000'
- name: Kauniainen
  state_code: '18'
  state_name: Uusimaa
  latitude: '60.21209000'
  longitude: '24.72756000'
- name: Kellokoski
  state_code: '18'
  state_name: Uusimaa
  latitude: '60.53271000'
  longitude: '25.10917000'
- name: Kerava
  state_code: '18'
  state_name: Uusimaa
  latitude: '60.40338000'
  longitude: '25.10500000'
- name: Kilo
  state_code: '18'
  state_name: Uusimaa
  latitude: '60.21746000'
  longitude: '24.78151000'
- name: Kirkkonummi
  state_code: '18'
  state_name: Uusimaa
  latitude: '60.12381000'
  longitude: '24.43853000'
- name: Koukkuniemi
  state_code: '18'
  state_name: Uusimaa
  latitude: '60.15261000'
  longitude: '24.76467000'
- name: Lapinjärvi
  state_code: '18'
  state_name: Uusimaa
  latitude: '60.62443000'
  longitude: '26.19720000'
- name: Lauttasaari
  state_code: '18'
  state_name: Uusimaa
  latitude: '60.15896000'
  longitude: '24.86797000'
- name: Liljendal
  state_code: '18'
  state_name: Uusimaa
  latitude: '60.57346000'
  longitude: '26.05257000'
- name: Lohja
  state_code: '18'
  state_name: Uusimaa
  latitude: '60.24859000'
  longitude: '24.06534000'
- name: Lovisa
  state_code: '18'
  state_name: Uusimaa
  latitude: '60.45659000'
  longitude: '26.22505000'
- name: Mäntsälä
  state_code: '18'
  state_name: Uusimaa
  latitude: '60.63333000'
  longitude: '25.31667000'
- name: Mellunkylä
  state_code: '18'
  state_name: Uusimaa
  latitude: '60.23355000'
  longitude: '25.09947000'
- name: Munkkiniemi
  state_code: '18'
  state_name: Uusimaa
  latitude: '60.19861000'
  longitude: '24.87772000'
- name: Myrskylä
  state_code: '18'
  state_name: Uusimaa
  latitude: '60.66965000'
  longitude: '25.84750000'
- name: Nurmijärvi
  state_code: '18'
  state_name: Uusimaa
  latitude: '60.46407000'
  longitude: '24.80730000'
- name: Otaniemi
  state_code: '18'
  state_name: Uusimaa
  latitude: '60.18395000'
  longitude: '24.82786000'
- name: Pernå
  state_code: '18'
  state_name: Uusimaa
  latitude: '60.44869000'
  longitude: '26.03187000'
- name: Pohja
  state_code: '18'
  state_name: Uusimaa
  latitude: '60.09626000'
  longitude: '23.52757000'
- name: Pornainen
  state_code: '18'
  state_name: Uusimaa
  latitude: '60.47581000'
  longitude: '25.37490000'
- name: Porvoo
  state_code: '18'
  state_name: Uusimaa
  latitude: '60.39233000'
  longitude: '25.66507000'
- name: Pukkila
  state_code: '18'
  state_name: Uusimaa
  latitude: '60.65000000'
  longitude: '25.56667000'
- name: Raaseporin
  state_code: '18'
  state_name: Uusimaa
  latitude: '60.00273000'
  longitude: '23.55499000'
- name: Ruotsinpyhtää
  state_code: '18'
  state_name: Uusimaa
  latitude: '60.52680000'
  longitude: '26.46203000'
- name: Sammatti
  state_code: '18'
  state_name: Uusimaa
  latitude: '60.31991000'
  longitude: '23.82085000'
- name: Sibbo
  state_code: '18'
  state_name: Uusimaa
  latitude: '60.37752000'
  longitude: '25.26906000'
- name: Siuntio
  state_code: '18'
  state_name: Uusimaa
  latitude: '60.13862000'
  longitude: '24.22715000'
- name: Tuusula
  state_code: '18'
  state_name: Uusimaa
  latitude: '60.40368000'
  longitude: '25.02638000'
- name: Vantaa
  state_code: '18'
  state_name: Uusimaa
  latitude: '60.29414000'
  longitude: '25.04099000'
- name: Vihti
  state_code: '18'
  state_name: Uusimaa
  latitude: '60.41699000'
  longitude: '24.31965000'
- name: Vuosaari
  state_code: '18'
  state_name: Uusimaa
  latitude: '60.20963000'
  longitude: '25.14195000'
