---
- name: Eiði
  state_code: EY
  state_name: Eysturoy
  latitude: '62.27890000'
  longitude: "-7.01230000"
- name: Eystur
  state_code: EY
  state_name: Eysturoy
  latitude: '62.15670000'
  longitude: "-6.82330000"
- name: Fuglafjørður
  state_code: EY
  state_name: Eysturoy
  latitude: '62.21010000'
  longitude: "-6.81230000"
- name: Nes
  state_code: EY
  state_name: Eysturoy
  latitude: '62.09870000'
  longitude: "-6.76540000"
- name: Runavík
  state_code: EY
  state_name: Eysturoy
  latitude: '62.13230000'
  longitude: "-6.78900000"
- name: Sjóvar
  state_code: EY
  state_name: Eysturoy
  latitude: '62.12340000'
  longitude: "-6.87650000"
- name: Fugloy
  state_code: 'NO'
  state_name: Northern Isles
  latitude: '62.45670000'
  longitude: "-6.72340000"
- name: Hvannasund
  state_code: 'NO'
  state_name: Northern Isles
  latitude: '62.34560000'
  longitude: "-6.78900000"
- name: Klaksvík
  state_code: 'NO'
  state_name: Northern Isles
  latitude: '62.22100000'
  longitude: "-6.58000000"
- name: Kunoy
  state_code: 'NO'
  state_name: Northern Isles
  latitude: '62.34560000'
  longitude: "-6.89010000"
- name: Viðareiði
  state_code: 'NO'
  state_name: Northern Isles
  latitude: '62.45670000'
  longitude: "-6.72340000"
- name: Húsavík
  state_code: SA
  state_name: Sandoy
  latitude: '61.90120000'
  longitude: "-6.84560000"
- name: Sandur
  state_code: SA
  state_name: Sandoy
  latitude: '61.90120000'
  longitude: "-6.84560000"
- name: Skálavík
  state_code: SA
  state_name: Sandoy
  latitude: '61.98760000'
  longitude: "-6.76540000"
- name: Skopun
  state_code: SA
  state_name: Sandoy
  latitude: '62.01230000'
  longitude: "-6.98760000"
- name: Skúvoy
  state_code: SA
  state_name: Sandoy
  latitude: '61.98760000'
  longitude: "-6.76540000"
- name: Kvívík
  state_code: ST
  state_name: Streymoy
  latitude: '62.14560000'
  longitude: "-7.20980000"
- name: Sunda
  state_code: ST
  state_name: Streymoy
  latitude: '62.13450000'
  longitude: "-7.09870000"
- name: Tórshavn
  state_code: ST
  state_name: Streymoy
  latitude: '62.00000000'
  longitude: "-7.00000000"
- name: Vestmanna
  state_code: ST
  state_name: Streymoy
  latitude: '62.15670000'
  longitude: "-7.23450000"
- name: Fámjin
  state_code: SU
  state_name: Suðuroy
  latitude: '61.45670000'
  longitude: "-6.89010000"
- name: Hov
  state_code: SU
  state_name: Suðuroy
  latitude: '61.45670000'
  longitude: "-6.89010000"
- name: Hvalba
  state_code: SU
  state_name: Suðuroy
  latitude: '61.59870000'
  longitude: "-6.98760000"
- name: Porkeri
  state_code: SU
  state_name: Suðuroy
  latitude: '61.54320000'
  longitude: "-6.98760000"
- name: Sumba
  state_code: SU
  state_name: Suðuroy
  latitude: '61.45670000'
  longitude: "-6.89010000"
- name: Tvøroyri
  state_code: SU
  state_name: Suðuroy
  latitude: '61.56230000'
  longitude: "-6.77800000"
- name: Vágur
  state_code: SU
  state_name: Suðuroy
  latitude: '61.47890000'
  longitude: "-6.81010000"
- name: Sørvágur
  state_code: VA
  state_name: Vágar
  latitude: '62.06540000'
  longitude: "-7.37870000"
- name: Vágar
  state_code: VA
  state_name: Vágar
  latitude: '62.06670000'
  longitude: "-7.10000000"
