---
- name: Cocobeach
  state_code: '1'
  state_name: Estuaire
  latitude: '1.00019000'
  longitude: '9.58229000'
- name: Libreville
  state_code: '1'
  state_name: Estuaire
  latitude: '0.39241000'
  longitude: '9.45356000'
- name: Ntoum
  state_code: '1'
  state_name: Estuaire
  latitude: '0.39051000'
  longitude: '9.76096000'
- name: Franceville
  state_code: '2'
  state_name: Haut-Ogooué
  latitude: "-1.63333000"
  longitude: '13.58357000'
- name: Lékoni
  state_code: '2'
  state_name: Haut-Ogooué
  latitude: "-1.58431000"
  longitude: '14.25905000'
- name: Moanda
  state_code: '2'
  state_name: Haut-Ogooué
  latitude: "-1.56652000"
  longitude: '13.19870000'
- name: Mounana
  state_code: '2'
  state_name: Haut-Ogooué
  latitude: "-1.40850000"
  longitude: '13.15857000'
- name: Okondja
  state_code: '2'
  state_name: Haut-Ogooué
  latitude: "-0.65487000"
  longitude: '13.67533000'
- name: Lambaréné
  state_code: '3'
  state_name: Moyen-Ogooué
  latitude: "-0.70010000"
  longitude: '10.24055000'
- name: Ndjolé
  state_code: '3'
  state_name: Moyen-Ogooué
  latitude: "-0.17827000"
  longitude: '10.76488000'
- name: Fougamou
  state_code: '4'
  state_name: Ngounié
  latitude: "-1.21544000"
  longitude: '10.58378000'
- name: Mbigou
  state_code: '4'
  state_name: Ngounié
  latitude: "-1.90046000"
  longitude: '11.90600000'
- name: Mimongo
  state_code: '4'
  state_name: Ngounié
  latitude: "-1.61952000"
  longitude: '11.60675000'
- name: Mouila
  state_code: '4'
  state_name: Ngounié
  latitude: "-1.86846000"
  longitude: '11.05594000'
- name: Ndendé
  state_code: '4'
  state_name: Ngounié
  latitude: "-2.40077000"
  longitude: '11.35813000'
- name: Mayumba
  state_code: '5'
  state_name: Nyanga
  latitude: "-3.43198000"
  longitude: '10.65540000'
- name: Tchibanga
  state_code: '5'
  state_name: Nyanga
  latitude: "-2.93323000"
  longitude: '10.98178000'
- name: Booué
  state_code: '6'
  state_name: Ogooué-Ivindo
  latitude: "-0.09207000"
  longitude: '11.93846000'
- name: Makokou
  state_code: '6'
  state_name: Ogooué-Ivindo
  latitude: '0.57381000'
  longitude: '12.86419000'
- name: Zadie
  state_code: '6'
  state_name: Ogooué-Ivindo
  latitude: '0.92582000'
  longitude: '13.90813000'
- name: Koulamoutou
  state_code: '7'
  state_name: Ogooué-Lolo
  latitude: "-1.13667000"
  longitude: '12.46399000'
- name: Lastoursville
  state_code: '7'
  state_name: Ogooué-Lolo
  latitude: "-0.81742000"
  longitude: '12.70818000'
- name: Gamba
  state_code: '8'
  state_name: Ogooué-Maritime
  latitude: "-2.65000000"
  longitude: '10.00000000'
- name: Omboué
  state_code: '8'
  state_name: Ogooué-Maritime
  latitude: "-1.57464000"
  longitude: '9.26184000'
- name: Port-Gentil
  state_code: '8'
  state_name: Ogooué-Maritime
  latitude: "-0.71933000"
  longitude: '8.78151000'
- name: Bitam
  state_code: '9'
  state_name: Woleu-Ntem
  latitude: '2.07597000'
  longitude: '11.50065000'
- name: Mitzic
  state_code: '9'
  state_name: Woleu-Ntem
  latitude: '0.78205000'
  longitude: '11.54904000'
- name: Oyem
  state_code: '9'
  state_name: Woleu-Ntem
  latitude: '1.59950000'
  longitude: '11.57933000'
