---
- name: Baie-Mahault
  state_code: '01'
  state_name: Basse-Terre
  latitude: '16.24976070'
  longitude: "-61.67750720"
- name: Baillif
  state_code: '01'
  state_name: Basse-Terre
  latitude: '16.04973310'
  longitude: "-61.75705910"
- name: Basse-Terre
  state_code: '01'
  state_name: Basse-Terre
  latitude: '15.99916310'
  longitude: "-61.74998100"
- name: Bouillante
  state_code: '01'
  state_name: Basse-Terre
  latitude: '16.13869370'
  longitude: "-61.79898970"
- name: Capesterre-Belle-Eau
  state_code: '01'
  state_name: Basse-Terre
  latitude: '16.04854020'
  longitude: "-61.70210450"
- name: Deshaies
  state_code: '01'
  state_name: Basse-Terre
  latitude: '16.31936050'
  longitude: "-61.82425780"
- name: Gourbeyre
  state_code: '01'
  state_name: Basse-Terre
  latitude: '16.00565950'
  longitude: "-61.73023870"
- name: Goyave
  state_code: '01'
  state_name: Basse-Terre
  latitude: '16.12310770'
  longitude: "-61.69740210"
- name: Lamentin
  state_code: '01'
  state_name: Basse-Terre
  latitude: '16.24431320'
  longitude: "-61.75191940"
- name: Petit-Bourg
  state_code: '01'
  state_name: Basse-Terre
  latitude: '16.16948810'
  longitude: "-61.74043310"
- name: Pointe-Noire
  state_code: '01'
  state_name: Basse-Terre
  latitude: '16.22702770'
  longitude: "-61.80631220"
- name: Saint-Claude
  state_code: '01'
  state_name: Basse-Terre
  latitude: '16.04057440'
  longitude: "-61.73648730"
- name: Sainte-Rose
  state_code: '01'
  state_name: Basse-Terre
  latitude: '16.29372520'
  longitude: "-61.76595760"
- name: Terre-de-Bas
  state_code: '01'
  state_name: Basse-Terre
  latitude: '15.85541960'
  longitude: "-61.65329200"
- name: Terre-de-Haut
  state_code: '01'
  state_name: Basse-Terre
  latitude: '15.85803760'
  longitude: "-61.60960980"
- name: Trois-Rivières
  state_code: '01'
  state_name: Basse-Terre
  latitude: '15.99313620'
  longitude: "-61.69052960"
- name: Vieux-Fort
  state_code: '01'
  state_name: Basse-Terre
  latitude: '15.96070380'
  longitude: "-61.71351770"
- name: Vieux-Habitants
  state_code: '01'
  state_name: Basse-Terre
  latitude: '16.08466180'
  longitude: "-61.79939230"
- name: Anse-Bertrand
  state_code: '02'
  state_name: Pointe-à-Pitre
  latitude: '16.46681810'
  longitude: "-61.55217680"
- name: Capesterre-de-Marie-Galante
  state_code: '02'
  state_name: Pointe-à-Pitre
  latitude: '15.91763990'
  longitude: "-61.27077860"
- name: Grand-Bourg
  state_code: '02'
  state_name: Pointe-à-Pitre
  latitude: '15.90853800'
  longitude: "-61.33406180"
- name: La Désirade
  state_code: '02'
  state_name: Pointe-à-Pitre
  latitude: '16.25845450'
  longitude: "-61.14902790"
- name: Le Gosier
  state_code: '02'
  state_name: Pointe-à-Pitre
  latitude: '16.22726250'
  longitude: "-61.55734490"
- name: Le Moule
  state_code: '02'
  state_name: Pointe-à-Pitre
  latitude: '16.33536870'
  longitude: "-61.44242930"
- name: Les Abymes
  state_code: '02'
  state_name: Pointe-à-Pitre
  latitude: '16.26773830'
  longitude: "-61.57907270"
- name: Morne-à-l'Eau
  state_code: '02'
  state_name: Pointe-à-Pitre
  latitude: '16.32110610'
  longitude: "-61.66356890"
- name: Petit-Canal
  state_code: '02'
  state_name: Pointe-à-Pitre
  latitude: '16.39213100'
  longitude: "-61.53713120"
- name: Pointe-à-Pitre
  state_code: '02'
  state_name: Pointe-à-Pitre
  latitude: '16.23313040'
  longitude: "-61.56234850"
- name: Port-Louis
  state_code: '02'
  state_name: Pointe-à-Pitre
  latitude: '16.42012820'
  longitude: "-61.57039890"
- name: Saint-François
  state_code: '02'
  state_name: Pointe-à-Pitre
  latitude: '16.27834950'
  longitude: "-61.33624980"
- name: Saint-Louis
  state_code: '02'
  state_name: Pointe-à-Pitre
  latitude: '15.96535890'
  longitude: "-61.35562500"
- name: Sainte-Anne
  state_code: '02'
  state_name: Pointe-à-Pitre
  latitude: '16.25646130'
  longitude: "-61.47202880"
