---
- name: Mabaruma
  state_code: BA
  state_name: Barima-Waini
  latitude: '8.20000000'
  longitude: "-59.78333000"
- name: Bartica
  state_code: CU
  state_name: Cuyuni-Mazaruni
  latitude: '6.40799000'
  longitude: "-58.62192000"
- name: Georgetown
  state_code: DE
  state_name: Demerara-Mahaica
  latitude: '6.80448000'
  longitude: "-58.15527000"
- name: Mahaica Village
  state_code: DE
  state_name: Demerara-Mahaica
  latitude: '6.68405000'
  longitude: "-57.92181000"
- name: New Amsterdam
  state_code: EB
  state_name: East Berbice-Corentyne
  latitude: '6.24793000'
  longitude: "-57.51710000"
- name: Skeldon
  state_code: EB
  state_name: East Berbice-Corentyne
  latitude: '5.88333000'
  longitude: "-57.13333000"
- name: Parika
  state_code: ES
  state_name: Essequibo Islands-West Demerara
  latitude: '6.83712000'
  longitude: "-58.42941000"
- name: Vreed-en-Hoop
  state_code: ES
  state_name: Essequibo Islands-West Demerara
  latitude: '6.80927000'
  longitude: "-58.19798000"
- name: Mahaicony Village
  state_code: MA
  state_name: Mahaica-Berbice
  latitude: '6.57633000'
  longitude: "-57.80486000"
- name: Rosignol
  state_code: MA
  state_name: Mahaica-Berbice
  latitude: '6.27095000'
  longitude: "-57.53697000"
- name: Anna Regina
  state_code: PM
  state_name: Pomeroon-Supenaam
  latitude: '7.26439000'
  longitude: "-58.50769000"
- name: Mahdia
  state_code: PT
  state_name: Potaro-Siparuni
  latitude: '5.26667000'
  longitude: "-59.15000000"
- name: Linden
  state_code: UD
  state_name: Upper Demerara-Berbice
  latitude: '6.00809000'
  longitude: "-58.30714000"
- name: Lethem
  state_code: UT
  state_name: Upper Takutu-Upper Essequibo
  latitude: '3.38333000'
  longitude: "-59.80000000"
