---
- name: Admiralty
  state_code: HCW
  state_name: Central and Western
  latitude: '22.27800000'
  longitude: '114.16400000'
- name: Central
  state_code: HCW
  state_name: Central and Western
  latitude: '22.28100000'
  longitude: '114.15900000'
- name: Tai O
  state_code: NIS
  state_name: Islands
  latitude: '22.24700000'
  longitude: '113.86900000'
- name: Kowloon Tong
  state_code: KKC
  state_name: Kowloon City
  latitude: '22.33700000'
  longitude: '114.17900000'
- name: Kwun Tong
  state_code: KKT
  state_name: Kwun Tong
  latitude: '22.31000000'
  longitude: '114.22500000'
- name: Lam Tin
  state_code: KKT
  state_name: Kwun Tong
  latitude: '22.30700000'
  longitude: '114.23500000'
- name: Sheung Shui
  state_code: NNO
  state_name: North
  latitude: '22.50100000'
  longitude: '114.12300000'
- name: Sai Kung
  state_code: NSK
  state_name: Sai Kung
  latitude: '22.38400000'
  longitude: '114.27300000'
- name: Tseung Kwan O
  state_code: NSK
  state_name: Sai Kung
  latitude: '22.31900000'
  longitude: '114.26300000'
- name: Ma On Shan
  state_code: NST
  state_name: Sha Tin
  latitude: '22.42200000'
  longitude: '114.23000000'
- name: Sha Tin
  state_code: NST
  state_name: Sha Tin
  latitude: '22.38300000'
  longitude: '114.18800000'
- name: Sha Tin Wai
  state_code: NST
  state_name: Sha Tin
  latitude: '22.38000000'
  longitude: '114.19100000'
- name: Cheung Sha Wan
  state_code: KSS
  state_name: Sham Shui Po
  latitude: '22.33600000'
  longitude: '114.15100000'
- name: Lai Chi Kok
  state_code: KSS
  state_name: Sham Shui Po
  latitude: '22.33700000'
  longitude: '114.14600000'
- name: Aberdeen
  state_code: HSO
  state_name: Southern
  latitude: '22.24700000'
  longitude: '114.15200000'
- name: Stanley
  state_code: HSO
  state_name: Southern
  latitude: '22.22000000'
  longitude: '114.21400000'
- name: Stanley Peninsula
  state_code: HSO
  state_name: Southern
  latitude: '22.21000000'
  longitude: '114.21700000'
- name: Tai Mei Tuk
  state_code: NTP
  state_name: Tai Po
  latitude: '22.45700000'
  longitude: '114.18400000'
- name: Tai Po
  state_code: NTP
  state_name: Tai Po
  latitude: '22.44900000'
  longitude: '114.16000000'
- name: Tsuen Wan
  state_code: NTW
  state_name: Tsuen Wan
  latitude: '22.37100000'
  longitude: '114.11400000'
- name: "Tuen Mun\t"
  state_code: NTW
  state_name: Tsuen Wan
  latitude: '22.39500000'
  longitude: '113.97300000'
- name: Causeway Bay
  state_code: HWC
  state_name: Wan Chai
  latitude: '22.28000000'
  longitude: '114.18500000'
- name: Wan Chai
  state_code: HWC
  state_name: Wan Chai
  latitude: '22.27800000'
  longitude: '114.18200000'
- name: Wong Tai Sin
  state_code: KWT
  state_name: Wong Tai Sin
  latitude: '22.34100000'
  longitude: '114.19300000'
- name: Mong Kok
  state_code: KYT
  state_name: Yau Tsim Mong
  latitude: '22.31900000'
  longitude: '114.16900000'
- name: Tsim Sha Tsui
  state_code: KYT
  state_name: Yau Tsim Mong
  latitude: '22.29800000'
  longitude: '114.17200000'
- name: Yuen Long
  state_code: NYL
  state_name: Yuen Long
  latitude: '22.44400000'
  longitude: '114.02700000'
