---
- name: Banda Aceh
  state_code: AC
  state_name: Aceh
  latitude: '5.54167000'
  longitude: '95.33333000'
- name: Bireun
  state_code: AC
  state_name: Aceh
  latitude: '5.20300000'
  longitude: '96.70090000'
- name: Kabupaten Aceh Barat
  state_code: AC
  state_name: Aceh
  latitude: '4.45000000'
  longitude: '96.16667000'
- name: Kabupaten Aceh Barat Daya
  state_code: AC
  state_name: Aceh
  latitude: '3.83333000'
  longitude: '96.88333000'
- name: Kabupaten Aceh Besar
  state_code: AC
  state_name: Aceh
  latitude: '5.38333000'
  longitude: '95.51667000'
- name: Kabupaten Aceh Jaya
  state_code: AC
  state_name: Aceh
  latitude: '4.86000000'
  longitude: '95.64000000'
- name: Kabupaten Aceh Selatan
  state_code: AC
  state_name: Aceh
  latitude: '3.16667000'
  longitude: '97.41667000'
- name: Kabupaten Aceh Singkil
  state_code: AC
  state_name: Aceh
  latitude: '2.41667000'
  longitude: '97.91667000'
- name: Kabupaten Aceh Tamiang
  state_code: AC
  state_name: Aceh
  latitude: '4.25000000'
  longitude: '97.96667000'
- name: Kabupaten Aceh Tengah
  state_code: AC
  state_name: Aceh
  latitude: '4.51000000'
  longitude: '96.85500000'
- name: Kabupaten Aceh Tenggara
  state_code: AC
  state_name: Aceh
  latitude: '3.36667000'
  longitude: '97.70000000'
- name: Kabupaten Aceh Timur
  state_code: AC
  state_name: Aceh
  latitude: '4.63333000'
  longitude: '97.63333000'
- name: Kabupaten Aceh Utara
  state_code: AC
  state_name: Aceh
  latitude: '4.97000000'
  longitude: '97.14000000'
- name: Kabupaten Bener Meriah
  state_code: AC
  state_name: Aceh
  latitude: '4.73015000'
  longitude: '96.86156000'
- name: Kabupaten Bireuen
  state_code: AC
  state_name: Aceh
  latitude: '5.08333000'
  longitude: '96.58333000'
- name: Kabupaten Gayo Lues
  state_code: AC
  state_name: Aceh
  latitude: '3.95000000'
  longitude: '97.39000000'
- name: Kabupaten Nagan Raya
  state_code: AC
  state_name: Aceh
  latitude: '4.16667000'
  longitude: '96.51667000'
- name: Kabupaten Pidie
  state_code: AC
  state_name: Aceh
  latitude: '5.08000000'
  longitude: '96.11000000'
- name: Kabupaten Simeulue
  state_code: AC
  state_name: Aceh
  latitude: '2.61667000'
  longitude: '96.08333000'
- name: Langsa
  state_code: AC
  state_name: Aceh
  latitude: '4.46830000'
  longitude: '97.96830000'
- name: Lhokseumawe
  state_code: AC
  state_name: Aceh
  latitude: '5.18010000'
  longitude: '97.15070000'
- name: Meulaboh
  state_code: AC
  state_name: Aceh
  latitude: '4.14402000'
  longitude: '96.12664000'
- name: Reuleuet
  state_code: AC
  state_name: Aceh
  latitude: '5.21667000'
  longitude: '96.28333000'
- name: Sabang
  state_code: AC
  state_name: Aceh
  latitude: '5.88969000'
  longitude: '95.31644000'
- name: Sigli
  state_code: AC
  state_name: Aceh
  latitude: '5.38480000'
  longitude: '95.96090000'
- name: Sinabang
  state_code: AC
  state_name: Aceh
  latitude: '2.48030000'
  longitude: '96.38010000'
- name: Singkil
  state_code: AC
  state_name: Aceh
  latitude: '2.28740000'
  longitude: '97.78840000'
- name: Amlapura
  state_code: BA
  state_name: Bali
  latitude: "-8.45000000"
  longitude: '115.61667000'
- name: Amlapura city
  state_code: BA
  state_name: Bali
  latitude: "-8.44869000"
  longitude: '115.60621000'
- name: Banjar
  state_code: BA
  state_name: Bali
  latitude: "-8.19000000"
  longitude: '114.96750000'
- name: Banjar Wangsian
  state_code: BA
  state_name: Bali
  latitude: "-8.49497000"
  longitude: '115.42342000'
- name: Bedugul
  state_code: BA
  state_name: Bali
  latitude: "-8.45040000"
  longitude: '115.59250000'
- name: Denpasar
  state_code: BA
  state_name: Bali
  latitude: "-8.65000000"
  longitude: '115.21667000'
- name: Jimbaran
  state_code: BA
  state_name: Bali
  latitude: "-8.79093000"
  longitude: '115.16006000'
- name: Kabupaten Badung
  state_code: BA
  state_name: Bali
  latitude: "-8.51667000"
  longitude: '115.20000000'
- name: Kabupaten Bangli
  state_code: BA
  state_name: Bali
  latitude: "-8.28333000"
  longitude: '115.35000000'
- name: Kabupaten Buleleng
  state_code: BA
  state_name: Bali
  latitude: "-8.25000000"
  longitude: '114.96667000'
- name: Kabupaten Gianyar
  state_code: BA
  state_name: Bali
  latitude: "-8.46667000"
  longitude: '115.28333000'
- name: Kabupaten Jembrana
  state_code: BA
  state_name: Bali
  latitude: "-8.30000000"
  longitude: '114.66667000'
- name: Kabupaten Karang Asem
  state_code: BA
  state_name: Bali
  latitude: "-8.38910000"
  longitude: '115.53930000'
- name: Kabupaten Klungkung
  state_code: BA
  state_name: Bali
  latitude: "-8.55000000"
  longitude: '115.40000000'
- name: Kabupaten Tabanan
  state_code: BA
  state_name: Bali
  latitude: "-8.43333000"
  longitude: '115.06667000'
- name: Klungkung
  state_code: BA
  state_name: Bali
  latitude: "-8.53333000"
  longitude: '115.40000000'
- name: Kuta
  state_code: BA
  state_name: Bali
  latitude: "-8.72332000"
  longitude: '115.17234000'
- name: Legian
  state_code: BA
  state_name: Bali
  latitude: "-8.70415000"
  longitude: '115.17028000'
- name: Lovina
  state_code: BA
  state_name: Bali
  latitude: "-8.14927000"
  longitude: '115.03999000'
- name: Munduk
  state_code: BA
  state_name: Bali
  latitude: "-8.26866000"
  longitude: '115.07947000'
- name: Negara
  state_code: BA
  state_name: Bali
  latitude: "-8.35694000"
  longitude: '114.61694000'
- name: Nusa Dua
  state_code: BA
  state_name: Bali
  latitude: "-8.80047000"
  longitude: '115.23341000'
- name: Seririt
  state_code: BA
  state_name: Bali
  latitude: "-8.19280000"
  longitude: '114.93880000'
- name: Singaraja
  state_code: BA
  state_name: Bali
  latitude: "-8.11200000"
  longitude: '115.08818000'
- name: Tabanan
  state_code: BA
  state_name: Bali
  latitude: "-8.54130000"
  longitude: '115.12522000'
- name: Ubud
  state_code: BA
  state_name: Bali
  latitude: "-8.50980000"
  longitude: '115.26540000'
- name: Kabupaten Lebak
  state_code: BT
  state_name: Banten
  latitude: "-6.65000000"
  longitude: '106.21667000'
- name: Kabupaten Pandeglang
  state_code: BT
  state_name: Banten
  latitude: "-6.63333000"
  longitude: '105.75000000'
- name: Kabupaten Serang
  state_code: BT
  state_name: Banten
  latitude: "-6.15000000"
  longitude: '106.00000000'
- name: Kabupaten Tangerang
  state_code: BT
  state_name: Banten
  latitude: "-6.20000000"
  longitude: '106.46667000'
- name: Kota Cilegon
  state_code: BT
  state_name: Banten
  latitude: "-5.96849850"
  longitude: '105.92142320'
- name: Kota Serang
  state_code: BT
  state_name: Banten
  latitude: "-6.11528000"
  longitude: '106.15417000'
- name: Kota Tangerang
  state_code: BT
  state_name: Banten
  latitude: "-6.17806000"
  longitude: '106.63000000'
- name: Kota Tangerang Selatan
  state_code: BT
  state_name: Banten
  latitude: "-6.28862000"
  longitude: '106.71789000'
- name: Bengkulu
  state_code: BE
  state_name: Bengkulu
  latitude: "-3.80044000"
  longitude: '102.26554000'
- name: Curup
  state_code: BE
  state_name: Bengkulu
  latitude: "-3.47030000"
  longitude: '102.52070000'
- name: Kabupaten Bengkulu Selatan
  state_code: BE
  state_name: Bengkulu
  latitude: "-4.35000000"
  longitude: '103.03333000'
- name: Kabupaten Bengkulu Tengah
  state_code: BE
  state_name: Bengkulu
  latitude: "-3.20679000"
  longitude: '102.12616000'
- name: Kabupaten Bengkulu Utara
  state_code: BE
  state_name: Bengkulu
  latitude: "-3.33333000"
  longitude: '102.05000000'
- name: Kabupaten Kaur
  state_code: BE
  state_name: Bengkulu
  latitude: "-4.78179000"
  longitude: '103.36109000'
- name: Kabupaten Kepahiang
  state_code: BE
  state_name: Bengkulu
  latitude: "-3.60194000"
  longitude: '102.56424000'
- name: Kabupaten Lebong
  state_code: BE
  state_name: Bengkulu
  latitude: "-3.24278000"
  longitude: '102.33490000'
- name: Kabupaten Mukomuko
  state_code: BE
  state_name: Bengkulu
  latitude: "-3.07438000"
  longitude: '101.54766000'
- name: Kabupaten Rejang Lebong
  state_code: BE
  state_name: Bengkulu
  latitude: "-3.43333000"
  longitude: '102.71667000'
- name: Kabupaten Seluma
  state_code: BE
  state_name: Bengkulu
  latitude: "-3.96644000"
  longitude: '102.47429000'
- name: Kabupaten Bantul
  state_code: YO
  state_name: DI Yogyakarta
  latitude: "-7.90000000"
  longitude: '110.36667000'
- name: Kabupaten Gunung Kidul
  state_code: YO
  state_name: DI Yogyakarta
  latitude: "-7.98333000"
  longitude: '110.61667000'
- name: Kabupaten Kulon Progo
  state_code: YO
  state_name: DI Yogyakarta
  latitude: "-7.64500000"
  longitude: '110.02694000'
- name: Kabupaten Sleman
  state_code: YO
  state_name: DI Yogyakarta
  latitude: "-7.68167000"
  longitude: '110.32333000'
- name: Yogyakarta
  state_code: YO
  state_name: DI Yogyakarta
  latitude: "-7.80139000"
  longitude: '110.36472000'
- name: Jakarta Barat
  state_code: JK
  state_name: DKI Jakarta
  latitude: "-6.15999160"
  longitude: '106.67485740'
- name: Jakarta Pusat
  state_code: JK
  state_name: DKI Jakarta
  latitude: "-6.18222610"
  longitude: '106.79526480'
- name: Jakarta Selatan
  state_code: JK
  state_name: DKI Jakarta
  latitude: "-6.28392950"
  longitude: '106.71967730'
- name: Jakarta Timur
  state_code: JK
  state_name: DKI Jakarta
  latitude: "-6.26097100"
  longitude: '106.82261800'
- name: Jakarta Utara
  state_code: JK
  state_name: DKI Jakarta
  latitude: "-6.13570900"
  longitude: '106.75949840'
- name: Gorontalo
  state_code: GO
  state_name: Gorontalo
  latitude: '0.53750000'
  longitude: '123.06250000'
- name: Kabupaten Boalemo
  state_code: GO
  state_name: Gorontalo
  latitude: '0.62689000'
  longitude: '122.35680000'
- name: Kabupaten Bone Bolango
  state_code: GO
  state_name: Gorontalo
  latitude: '0.50296000'
  longitude: '123.27501000'
- name: Kabupaten Gorontalo
  state_code: GO
  state_name: Gorontalo
  latitude: '0.57280000'
  longitude: '122.23370000'
- name: Kabupaten Gorontalo Utara
  state_code: GO
  state_name: Gorontalo
  latitude: '0.77000000'
  longitude: '122.31667000'
- name: Kabupaten Pohuwato
  state_code: GO
  state_name: Gorontalo
  latitude: '0.70980000'
  longitude: '121.59582000'
- name: Bejubang Dua
  state_code: JA
  state_name: Jambi
  latitude: "-1.79230000"
  longitude: '103.31670000'
- name: Jambi City
  state_code: JA
  state_name: Jambi
  latitude: "-1.60000000"
  longitude: '103.61667000'
- name: Kabupaten Batang Hari
  state_code: JA
  state_name: Jambi
  latitude: "-1.75000000"
  longitude: '103.11667000'
- name: Kabupaten Bungo
  state_code: JA
  state_name: Jambi
  latitude: "-1.50222000"
  longitude: '101.96000000'
- name: Kabupaten Kerinci
  state_code: JA
  state_name: Jambi
  latitude: "-2.03333000"
  longitude: '101.53333000'
- name: Kabupaten Merangin
  state_code: JA
  state_name: Jambi
  latitude: "-2.06933000"
  longitude: '102.13303000'
- name: Kabupaten Muaro Jambi
  state_code: JA
  state_name: Jambi
  latitude: "-1.55214000"
  longitude: '103.82163000'
- name: Kabupaten Sarolangun
  state_code: JA
  state_name: Jambi
  latitude: "-2.30000000"
  longitude: '102.65000000'
- name: Kabupaten Tanjung Jabung Barat
  state_code: JA
  state_name: Jambi
  latitude: "-1.15440000"
  longitude: '103.24402000'
- name: Kabupaten Tanjung Jabung Timur
  state_code: JA
  state_name: Jambi
  latitude: "-1.13198000"
  longitude: '103.61755000'
- name: Kabupaten Tebo
  state_code: JA
  state_name: Jambi
  latitude: "-1.45576000"
  longitude: '102.37473000'
- name: Kuala Tungkal
  state_code: JA
  state_name: Jambi
  latitude: "-0.81623000"
  longitude: '103.46111000'
- name: Mendaha
  state_code: JA
  state_name: Jambi
  latitude: "-1.01630000"
  longitude: '103.59331000'
- name: Simpang
  state_code: JA
  state_name: Jambi
  latitude: "-1.26424000"
  longitude: '104.09701000'
- name: Sungai Penuh
  state_code: JA
  state_name: Jambi
  latitude: "-2.05610000"
  longitude: '101.39130000'
- name: Arjawinangun
  state_code: JB
  state_name: Jawa Barat
  latitude: "-6.64528000"
  longitude: '108.41028000'
- name: Astanajapura
  state_code: JB
  state_name: Jawa Barat
  latitude: "-6.80170000"
  longitude: '108.63110000'
- name: Bandung
  state_code: JB
  state_name: Jawa Barat
  latitude: "-6.92222000"
  longitude: '107.60694000'
- name: Banjar
  state_code: JB
  state_name: Jawa Barat
  latitude: "-7.19550000"
  longitude: '107.43130000'
- name: Banjaran
  state_code: JB
  state_name: Jawa Barat
  latitude: "-7.04528000"
  longitude: '107.58778000'
- name: Bekasi
  state_code: JB
  state_name: Jawa Barat
  latitude: "-6.23490000"
  longitude: '106.98960000'
- name: Bogor
  state_code: JB
  state_name: Jawa Barat
  latitude: "-6.59444000"
  longitude: '106.78917000'
- name: Caringin
  state_code: JB
  state_name: Jawa Barat
  latitude: "-6.70611000"
  longitude: '106.82139000'
- name: Ciamis
  state_code: JB
  state_name: Jawa Barat
  latitude: "-7.32570000"
  longitude: '108.35340000'
- name: Ciampea
  state_code: JB
  state_name: Jawa Barat
  latitude: "-6.55472000"
  longitude: '106.70083000'
- name: Cibinong
  state_code: JB
  state_name: Jawa Barat
  latitude: "-6.48167000"
  longitude: '106.85417000'
- name: Cicurug
  state_code: JB
  state_name: Jawa Barat
  latitude: "-6.78139000"
  longitude: '106.78250000'
- name: Cikampek
  state_code: JB
  state_name: Jawa Barat
  latitude: "-6.41972000"
  longitude: '107.45583000'
- name: Cikarang
  state_code: JB
  state_name: Jawa Barat
  latitude: "-6.26111000"
  longitude: '107.15278000'
- name: Cikupa
  state_code: JB
  state_name: Jawa Barat
  latitude: "-6.23639000"
  longitude: '106.50833000'
- name: Cileungsir
  state_code: JB
  state_name: Jawa Barat
  latitude: "-6.39472000"
  longitude: '106.95917000'
- name: Cileunyi
  state_code: JB
  state_name: Jawa Barat
  latitude: "-6.93889000"
  longitude: '107.75278000'
- name: Cimahi
  state_code: JB
  state_name: Jawa Barat
  latitude: "-6.87222000"
  longitude: '107.54250000'
- name: Ciputat
  state_code: JB
  state_name: Jawa Barat
  latitude: "-6.23750000"
  longitude: '106.69556000'
- name: Ciranjang-hilir
  state_code: JB
  state_name: Jawa Barat
  latitude: "-6.82000000"
  longitude: '107.25722000'
- name: Cirebon
  state_code: JB
  state_name: Jawa Barat
  latitude: "-6.70630000"
  longitude: '108.55700000'
- name: Citeureup
  state_code: JB
  state_name: Jawa Barat
  latitude: "-6.48556000"
  longitude: '106.88194000'
- name: Depok
  state_code: JB
  state_name: Jawa Barat
  latitude: "-6.40000000"
  longitude: '106.81861000'
- name: Indramayu
  state_code: JB
  state_name: Jawa Barat
  latitude: "-6.32639000"
  longitude: '108.32000000'
- name: Jatibarang
  state_code: JB
  state_name: Jawa Barat
  latitude: "-6.47472000"
  longitude: '108.31528000'
- name: Jatiwangi
  state_code: JB
  state_name: Jawa Barat
  latitude: "-6.73361000"
  longitude: '108.26278000'
- name: Kabupaten Bandung
  state_code: JB
  state_name: Jawa Barat
  latitude: "-7.10000000"
  longitude: '107.60000000'
- name: Kabupaten Bandung Barat
  state_code: JB
  state_name: Jawa Barat
  latitude: "-6.83333000"
  longitude: '107.48333000'
- name: Kabupaten Bekasi
  state_code: JB
  state_name: Jawa Barat
  latitude: "-6.24667000"
  longitude: '107.10833000'
- name: Kabupaten Bogor
  state_code: JB
  state_name: Jawa Barat
  latitude: "-6.58333000"
  longitude: '106.71667000'
- name: Kabupaten Ciamis
  state_code: JB
  state_name: Jawa Barat
  latitude: "-7.28333000"
  longitude: '108.41667000'
- name: Kabupaten Cianjur
  state_code: JB
  state_name: Jawa Barat
  latitude: "-6.77250000"
  longitude: '107.08306000'
- name: Kabupaten Cirebon
  state_code: JB
  state_name: Jawa Barat
  latitude: "-6.80000000"
  longitude: '108.56667000'
- name: Kabupaten Garut
  state_code: JB
  state_name: Jawa Barat
  latitude: "-7.38333000"
  longitude: '107.76667000'
- name: Kabupaten Indramayu
  state_code: JB
  state_name: Jawa Barat
  latitude: "-6.45000000"
  longitude: '108.16667000'
- name: Kabupaten Karawang
  state_code: JB
  state_name: Jawa Barat
  latitude: "-6.26667000"
  longitude: '107.41667000'
- name: Kabupaten Kuningan
  state_code: JB
  state_name: Jawa Barat
  latitude: "-7.00000000"
  longitude: '108.55000000'
- name: Kabupaten Majalengka
  state_code: JB
  state_name: Jawa Barat
  latitude: "-6.81667000"
  longitude: '108.28333000'
- name: Kabupaten Pangandaran
  state_code: JB
  state_name: Jawa Barat
  latitude: "-7.66730000"
  longitude: '108.64037000'
- name: Kabupaten Purwakarta
  state_code: JB
  state_name: Jawa Barat
  latitude: "-6.58333000"
  longitude: '107.45000000'
- name: Kabupaten Subang
  state_code: JB
  state_name: Jawa Barat
  latitude: "-6.50833000"
  longitude: '107.70250000'
- name: Kabupaten Sukabumi
  state_code: JB
  state_name: Jawa Barat
  latitude: "-7.06667000"
  longitude: '106.70000000'
- name: Kabupaten Sumedang
  state_code: JB
  state_name: Jawa Barat
  latitude: "-6.81667000"
  longitude: '107.98333000'
- name: Kabupaten Tasikmalaya
  state_code: JB
  state_name: Jawa Barat
  latitude: "-7.50000000"
  longitude: '108.13333000'
- name: Karangampel
  state_code: JB
  state_name: Jawa Barat
  latitude: "-6.46222000"
  longitude: '108.45194000'
- name: Karangsembung
  state_code: JB
  state_name: Jawa Barat
  latitude: "-6.84870000"
  longitude: '108.64220000'
- name: Kawalu
  state_code: JB
  state_name: Jawa Barat
  latitude: "-7.38170000"
  longitude: '108.20820000'
- name: Klangenan
  state_code: JB
  state_name: Jawa Barat
  latitude: "-6.70944000"
  longitude: '108.44000000'
- name: Kresek
  state_code: JB
  state_name: Jawa Barat
  latitude: "-6.13139000"
  longitude: '106.37972000'
- name: Kuningan
  state_code: JB
  state_name: Jawa Barat
  latitude: "-6.97583000"
  longitude: '108.48306000'
- name: Lembang
  state_code: JB
  state_name: Jawa Barat
  latitude: "-6.81167000"
  longitude: '107.61750000'
- name: Majalengka
  state_code: JB
  state_name: Jawa Barat
  latitude: "-6.83611000"
  longitude: '108.22778000'
- name: Margahayukencana
  state_code: JB
  state_name: Jawa Barat
  latitude: "-6.97083000"
  longitude: '107.56750000'
- name: Ngawi
  state_code: JB
  state_name: Jawa Barat
  latitude: "-7.40380000"
  longitude: '111.44610000'
- name: Padalarang
  state_code: JB
  state_name: Jawa Barat
  latitude: "-6.83778000"
  longitude: '107.47278000'
- name: Palimanan
  state_code: JB
  state_name: Jawa Barat
  latitude: "-6.70694000"
  longitude: '108.42417000'
- name: Pamanukan
  state_code: JB
  state_name: Jawa Barat
  latitude: "-6.28417000"
  longitude: '107.81056000'
- name: Pameungpeuk
  state_code: JB
  state_name: Jawa Barat
  latitude: "-7.01833000"
  longitude: '107.60389000'
- name: Pamulang
  state_code: JB
  state_name: Jawa Barat
  latitude: "-6.34278000"
  longitude: '106.73833000'
- name: Parung
  state_code: JB
  state_name: Jawa Barat
  latitude: "-6.42139000"
  longitude: '106.73306000'
- name: Pasarkemis
  state_code: JB
  state_name: Jawa Barat
  latitude: "-6.17028000"
  longitude: '106.53028000'
- name: Paseh
  state_code: JB
  state_name: Jawa Barat
  latitude: "-7.10260000"
  longitude: '107.76410000'
- name: Pelabuhanratu
  state_code: JB
  state_name: Jawa Barat
  latitude: "-6.98750000"
  longitude: '106.55139000'
- name: Plumbon
  state_code: JB
  state_name: Jawa Barat
  latitude: "-6.70500000"
  longitude: '108.47278000'
- name: Purwakarta
  state_code: JB
  state_name: Jawa Barat
  latitude: "-6.55694000"
  longitude: '107.44333000'
- name: Rajapolah
  state_code: JB
  state_name: Jawa Barat
  latitude: "-7.22100000"
  longitude: '108.18960000'
- name: Rengasdengklok
  state_code: JB
  state_name: Jawa Barat
  latitude: "-6.15917000"
  longitude: '107.29806000'
- name: Sawangan
  state_code: JB
  state_name: Jawa Barat
  latitude: "-6.40278000"
  longitude: '106.77444000'
- name: Sepatan
  state_code: JB
  state_name: Jawa Barat
  latitude: "-6.11889000"
  longitude: '106.57500000'
- name: Serpong
  state_code: JB
  state_name: Jawa Barat
  latitude: "-6.31694000"
  longitude: '106.66417000'
- name: Singaparna
  state_code: JB
  state_name: Jawa Barat
  latitude: "-7.35150000"
  longitude: '108.11100000'
- name: Soreang
  state_code: JB
  state_name: Jawa Barat
  latitude: "-7.03306000"
  longitude: '107.51833000'
- name: Sukabumi
  state_code: JB
  state_name: Jawa Barat
  latitude: "-6.91806000"
  longitude: '106.92667000'
- name: Sumber
  state_code: JB
  state_name: Jawa Barat
  latitude: "-6.76028000"
  longitude: '108.48306000'
- name: Sumedang
  state_code: JB
  state_name: Jawa Barat
  latitude: "-6.85861000"
  longitude: '107.91639000'
- name: Sumedang Utara
  state_code: JB
  state_name: Jawa Barat
  latitude: "-6.85000000"
  longitude: '107.91667000'
- name: Tasikmalaya
  state_code: JB
  state_name: Jawa Barat
  latitude: "-7.32740000"
  longitude: '108.22070000'
- name: Teluknaga
  state_code: JB
  state_name: Jawa Barat
  latitude: "-6.09889000"
  longitude: '106.63806000'
- name: Wanaraja
  state_code: JB
  state_name: Jawa Barat
  latitude: "-7.17490000"
  longitude: '107.98080000'
- name: Weru
  state_code: JB
  state_name: Jawa Barat
  latitude: "-6.71100000"
  longitude: '108.50370000'
- name: Adiwerna
  state_code: JT
  state_name: Jawa Tengah
  latitude: "-6.93750000"
  longitude: '109.13250000'
- name: Ambarawa
  state_code: JT
  state_name: Jawa Tengah
  latitude: "-7.26333000"
  longitude: '110.39750000'
- name: Baekrajan
  state_code: JT
  state_name: Jawa Tengah
  latitude: "-6.76740000"
  longitude: '110.85410000'
- name: Baki
  state_code: JT
  state_name: Jawa Tengah
  latitude: "-7.61278000"
  longitude: '110.78389000'
- name: Balapulang
  state_code: JT
  state_name: Jawa Tengah
  latitude: "-7.04858000"
  longitude: '109.10056000'
- name: Banyumas
  state_code: JT
  state_name: Jawa Tengah
  latitude: "-7.51417000"
  longitude: '109.29417000'
- name: Batang
  state_code: JT
  state_name: Jawa Tengah
  latitude: "-6.48460000"
  longitude: '110.70830000'
- name: Baturaden
  state_code: JT
  state_name: Jawa Tengah
  latitude: "-7.30000000"
  longitude: '109.21667000'
- name: Blora
  state_code: JT
  state_name: Jawa Tengah
  latitude: "-6.96980000"
  longitude: '111.41860000'
- name: Boyolali
  state_code: JT
  state_name: Jawa Tengah
  latitude: "-7.53306000"
  longitude: '110.59583000'
- name: Buaran
  state_code: JT
  state_name: Jawa Tengah
  latitude: "-7.05000000"
  longitude: '109.55000000'
- name: Bulakamba
  state_code: JT
  state_name: Jawa Tengah
  latitude: "-6.87480000"
  longitude: '108.95590000'
- name: Candi Prambanan
  state_code: JT
  state_name: Jawa Tengah
  latitude: "-7.75000000"
  longitude: '110.49417000'
- name: Ceper
  state_code: JT
  state_name: Jawa Tengah
  latitude: "-7.67417000"
  longitude: '110.67889000'
- name: Cepu
  state_code: JT
  state_name: Jawa Tengah
  latitude: "-7.14750000"
  longitude: '111.59060000'
- name: Colomadu
  state_code: JT
  state_name: Jawa Tengah
  latitude: "-7.53333000"
  longitude: '110.75000000'
- name: Comal
  state_code: JT
  state_name: Jawa Tengah
  latitude: "-6.90530000"
  longitude: '109.53470000'
- name: Delanggu
  state_code: JT
  state_name: Jawa Tengah
  latitude: "-7.61667000"
  longitude: '110.68333000'
- name: Demak
  state_code: JT
  state_name: Jawa Tengah
  latitude: "-6.89090000"
  longitude: '110.63960000'
- name: Dukuhturi
  state_code: JT
  state_name: Jawa Tengah
  latitude: "-6.90000000"
  longitude: '109.08333000'
- name: Gatak
  state_code: JT
  state_name: Jawa Tengah
  latitude: "-7.59083000"
  longitude: '110.70444000'
- name: Gebog
  state_code: JT
  state_name: Jawa Tengah
  latitude: "-6.73500000"
  longitude: '110.84440000'
- name: Gombong
  state_code: JT
  state_name: Jawa Tengah
  latitude: "-7.60722000"
  longitude: '109.51417000'
- name: Grogol
  state_code: JT
  state_name: Jawa Tengah
  latitude: "-7.60111000"
  longitude: '110.81861000'
- name: Gunung Kendil
  state_code: JT
  state_name: Jawa Tengah
  latitude: "-7.33167000"
  longitude: '110.40417000'
- name: Jaten
  state_code: JT
  state_name: Jawa Tengah
  latitude: "-7.57722000"
  longitude: '110.89750000'
- name: Jatiroto
  state_code: JT
  state_name: Jawa Tengah
  latitude: "-7.88333000"
  longitude: '111.11667000'
- name: Jekulo
  state_code: JT
  state_name: Jawa Tengah
  latitude: "-6.80570000"
  longitude: '110.92620000'
- name: Jogonalan
  state_code: JT
  state_name: Jawa Tengah
  latitude: "-7.70361000"
  longitude: '110.53611000'
- name: Juwana
  state_code: JT
  state_name: Jawa Tengah
  latitude: "-6.71500000"
  longitude: '111.15140000'
- name: Kabupaten Banjarnegara
  state_code: JT
  state_name: Jawa Tengah
  latitude: "-7.35111000"
  longitude: '109.58750000'
- name: Kabupaten Banyumas
  state_code: JT
  state_name: Jawa Tengah
  latitude: "-7.45000000"
  longitude: '109.16667000'
- name: Kabupaten Batang
  state_code: JT
  state_name: Jawa Tengah
  latitude: "-7.03333000"
  longitude: '109.88333000'
- name: Kabupaten Blora
  state_code: JT
  state_name: Jawa Tengah
  latitude: "-7.06667000"
  longitude: '111.38333000'
- name: Kabupaten Boyolali
  state_code: JT
  state_name: Jawa Tengah
  latitude: "-7.50000000"
  longitude: '110.70000000'
- name: Kabupaten Brebes
  state_code: JT
  state_name: Jawa Tengah
  latitude: "-7.05000000"
  longitude: '108.90000000'
- name: Kabupaten Cilacap
  state_code: JT
  state_name: Jawa Tengah
  latitude: "-7.57417000"
  longitude: '108.98861000'
- name: Kabupaten Demak
  state_code: JT
  state_name: Jawa Tengah
  latitude: "-6.89930000"
  longitude: '110.61220000'
- name: Kabupaten Grobogan
  state_code: JT
  state_name: Jawa Tengah
  latitude: "-7.11667000"
  longitude: '110.91667000'
- name: Kabupaten Jepara
  state_code: JT
  state_name: Jawa Tengah
  latitude: "-6.58333000"
  longitude: '110.76667000'
- name: Kabupaten Karanganyar
  state_code: JT
  state_name: Jawa Tengah
  latitude: "-7.62806000"
  longitude: '111.06250000'
- name: Kabupaten Kebumen
  state_code: JT
  state_name: Jawa Tengah
  latitude: "-7.63917000"
  longitude: '109.66056000'
- name: Kabupaten Kendal
  state_code: JT
  state_name: Jawa Tengah
  latitude: "-7.02560000"
  longitude: '110.16850000'
- name: Kabupaten Klaten
  state_code: JT
  state_name: Jawa Tengah
  latitude: "-7.68333000"
  longitude: '110.61667000'
- name: Kabupaten Kudus
  state_code: JT
  state_name: Jawa Tengah
  latitude: "-6.80000000"
  longitude: '110.86667000'
- name: Kabupaten Magelang
  state_code: JT
  state_name: Jawa Tengah
  latitude: "-7.42750000"
  longitude: '110.16194000'
- name: Kabupaten Pati
  state_code: JT
  state_name: Jawa Tengah
  latitude: "-6.76667000"
  longitude: '111.10000000'
- name: Kabupaten Pekalongan
  state_code: JT
  state_name: Jawa Tengah
  latitude: "-7.03190000"
  longitude: '109.62400000'
- name: Kabupaten Pemalang
  state_code: JT
  state_name: Jawa Tengah
  latitude: "-7.03333000"
  longitude: '109.40000000'
- name: Kabupaten Purbalingga
  state_code: JT
  state_name: Jawa Tengah
  latitude: "-7.28417000"
  longitude: '109.35028000'
- name: Kabupaten Purworejo
  state_code: JT
  state_name: Jawa Tengah
  latitude: "-7.70000000"
  longitude: '109.96667000'
- name: Kabupaten Rembang
  state_code: JT
  state_name: Jawa Tengah
  latitude: "-6.78333000"
  longitude: '111.46667000'
- name: Kabupaten Semarang
  state_code: JT
  state_name: Jawa Tengah
  latitude: "-7.20667000"
  longitude: '110.44139000'
- name: Kabupaten Sragen
  state_code: JT
  state_name: Jawa Tengah
  latitude: "-7.41278000"
  longitude: '110.93500000'
- name: Kabupaten Sukoharjo
  state_code: JT
  state_name: Jawa Tengah
  latitude: "-7.68333000"
  longitude: '110.83333000'
- name: Kabupaten Tegal
  state_code: JT
  state_name: Jawa Tengah
  latitude: "-7.03333000"
  longitude: '109.16667000'
- name: Kabupaten Temanggung
  state_code: JT
  state_name: Jawa Tengah
  latitude: "-7.25000000"
  longitude: '110.11667000'
- name: Kabupaten Wonogiri
  state_code: JT
  state_name: Jawa Tengah
  latitude: "-7.91667000"
  longitude: '111.00000000'
- name: Kabupaten Wonosobo
  state_code: JT
  state_name: Jawa Tengah
  latitude: "-7.36139000"
  longitude: '109.92667000'
- name: Karanganom
  state_code: JT
  state_name: Jawa Tengah
  latitude: "-7.64889000"
  longitude: '110.62500000'
- name: Kartasura
  state_code: JT
  state_name: Jawa Tengah
  latitude: "-7.55194000"
  longitude: '110.73778000'
- name: Kebonarun
  state_code: JT
  state_name: Jawa Tengah
  latitude: "-7.70028000"
  longitude: '110.56306000'
- name: Kedungwuni
  state_code: JT
  state_name: Jawa Tengah
  latitude: "-6.97038000"
  longitude: '109.64794000'
- name: Ketanggungan
  state_code: JT
  state_name: Jawa Tengah
  latitude: "-6.93830000"
  longitude: '108.89100000'
- name: Klaten
  state_code: JT
  state_name: Jawa Tengah
  latitude: "-7.70583000"
  longitude: '110.60639000'
- name: Kroya
  state_code: JT
  state_name: Jawa Tengah
  latitude: "-7.63306000"
  longitude: '109.24611000'
- name: Kudus
  state_code: JT
  state_name: Jawa Tengah
  latitude: "-6.80480000"
  longitude: '110.84050000'
- name: Kutoarjo
  state_code: JT
  state_name: Jawa Tengah
  latitude: "-7.71694000"
  longitude: '109.91278000'
- name: Lasem
  state_code: JT
  state_name: Jawa Tengah
  latitude: "-6.69220000"
  longitude: '111.45270000'
- name: Lebaksiu
  state_code: JT
  state_name: Jawa Tengah
  latitude: "-7.04960000"
  longitude: '109.14410000'
- name: Magelang
  state_code: JT
  state_name: Jawa Tengah
  latitude: "-7.47056000"
  longitude: '110.21778000'
- name: Majenang
  state_code: JT
  state_name: Jawa Tengah
  latitude: "-7.29750000"
  longitude: '108.76420000'
- name: Margasari
  state_code: JT
  state_name: Jawa Tengah
  latitude: "-7.10000000"
  longitude: '109.01667000'
- name: Mertoyudan
  state_code: JT
  state_name: Jawa Tengah
  latitude: "-7.52000000"
  longitude: '110.22639000'
- name: Mlonggo
  state_code: JT
  state_name: Jawa Tengah
  latitude: "-6.53333000"
  longitude: '110.70000000'
- name: Mranggen
  state_code: JT
  state_name: Jawa Tengah
  latitude: "-7.02680000"
  longitude: '110.51580000'
- name: Muntilan
  state_code: JT
  state_name: Jawa Tengah
  latitude: "-7.58111000"
  longitude: '110.29278000'
- name: Ngemplak
  state_code: JT
  state_name: Jawa Tengah
  latitude: "-7.54972000"
  longitude: '110.71639000'
- name: Pati
  state_code: JT
  state_name: Jawa Tengah
  latitude: "-6.75590000"
  longitude: '111.03800000'
- name: Pecangaan
  state_code: JT
  state_name: Jawa Tengah
  latitude: "-6.69780000"
  longitude: '110.71070000'
- name: Pekalongan
  state_code: JT
  state_name: Jawa Tengah
  latitude: "-6.88860000"
  longitude: '109.67530000'
- name: Pemalang
  state_code: JT
  state_name: Jawa Tengah
  latitude: "-6.89193000"
  longitude: '109.38263000'
- name: Purbalingga
  state_code: JT
  state_name: Jawa Tengah
  latitude: "-7.38806000"
  longitude: '109.36389000'
- name: Purwodadi
  state_code: JT
  state_name: Jawa Tengah
  latitude: "-7.08680000"
  longitude: '110.91580000'
- name: Purwokerto
  state_code: JT
  state_name: Jawa Tengah
  latitude: "-7.42139000"
  longitude: '109.23444000'
- name: Randudongkal
  state_code: JT
  state_name: Jawa Tengah
  latitude: "-7.09810000"
  longitude: '109.32430000'
- name: Rembangan
  state_code: JT
  state_name: Jawa Tengah
  latitude: "-6.70360000"
  longitude: '111.34160000'
- name: Salatiga
  state_code: JT
  state_name: Jawa Tengah
  latitude: "-7.33194000"
  longitude: '110.49278000'
- name: Selogiri
  state_code: JT
  state_name: Jawa Tengah
  latitude: "-7.78333000"
  longitude: '110.86667000'
- name: Semarang
  state_code: JT
  state_name: Jawa Tengah
  latitude: "-6.99306000"
  longitude: '110.42083000'
- name: Sidareja
  state_code: JT
  state_name: Jawa Tengah
  latitude: "-7.48460000"
  longitude: '108.79230000'
- name: Slawi
  state_code: JT
  state_name: Jawa Tengah
  latitude: "-6.98160000"
  longitude: '109.14070000'
- name: Sokaraja
  state_code: JT
  state_name: Jawa Tengah
  latitude: "-7.45806000"
  longitude: '109.28806000'
- name: Sragen
  state_code: JT
  state_name: Jawa Tengah
  latitude: "-7.42639000"
  longitude: '111.02222000'
- name: Surakarta
  state_code: JT
  state_name: Jawa Tengah
  latitude: "-7.55611000"
  longitude: '110.83167000'
- name: Tarub
  state_code: JT
  state_name: Jawa Tengah
  latitude: "-6.93333000"
  longitude: '109.16667000'
- name: Tayu
  state_code: JT
  state_name: Jawa Tengah
  latitude: "-6.53970000"
  longitude: '111.05180000'
- name: Tegal
  state_code: JT
  state_name: Jawa Tengah
  latitude: "-6.86940000"
  longitude: '109.14020000'
- name: Trucuk
  state_code: JT
  state_name: Jawa Tengah
  latitude: "-7.71833000"
  longitude: '110.65889000'
- name: Ungaran
  state_code: JT
  state_name: Jawa Tengah
  latitude: "-7.13972000"
  longitude: '110.40500000'
- name: Wangon
  state_code: JT
  state_name: Jawa Tengah
  latitude: "-7.51611000"
  longitude: '109.05389000'
- name: Wedi
  state_code: JT
  state_name: Jawa Tengah
  latitude: "-7.74306000"
  longitude: '110.57944000'
- name: Welahan
  state_code: JT
  state_name: Jawa Tengah
  latitude: "-6.80000000"
  longitude: '110.71667000'
- name: Weleri
  state_code: JT
  state_name: Jawa Tengah
  latitude: "-6.97130000"
  longitude: '110.06660000'
- name: Wiradesa
  state_code: JT
  state_name: Jawa Tengah
  latitude: "-6.89220000"
  longitude: '109.61900000'
- name: Wonopringgo
  state_code: JT
  state_name: Jawa Tengah
  latitude: "-6.98333000"
  longitude: '109.61667000'
- name: Wonosobo
  state_code: JT
  state_name: Jawa Tengah
  latitude: "-7.35889000"
  longitude: '109.90306000'
- name: Babat
  state_code: JI
  state_name: Jawa Timur
  latitude: "-7.11282000"
  longitude: '112.16354000'
- name: Balung
  state_code: JI
  state_name: Jawa Timur
  latitude: "-7.73333000"
  longitude: '113.91667000'
- name: Bangil
  state_code: JI
  state_name: Jawa Timur
  latitude: "-7.59939000"
  longitude: '112.81860000'
- name: Bangkalan
  state_code: JI
  state_name: Jawa Timur
  latitude: "-7.04550000"
  longitude: '112.73510000'
- name: Banyuwangi
  state_code: JI
  state_name: Jawa Timur
  latitude: "-8.23250000"
  longitude: '114.35755000'
- name: Batu
  state_code: JI
  state_name: Jawa Timur
  latitude: "-7.87000000"
  longitude: '112.52833000'
- name: Besuki
  state_code: JI
  state_name: Jawa Timur
  latitude: "-7.73379000"
  longitude: '113.69785000'
- name: Blitar
  state_code: JI
  state_name: Jawa Timur
  latitude: "-8.09830000"
  longitude: '112.16810000'
- name: Bojonegoro
  state_code: JI
  state_name: Jawa Timur
  latitude: "-7.15020000"
  longitude: '111.88170000'
- name: Bondowoso
  state_code: JI
  state_name: Jawa Timur
  latitude: "-7.91346000"
  longitude: '113.82145000'
- name: Boyolangu
  state_code: JI
  state_name: Jawa Timur
  latitude: "-8.11810000"
  longitude: '111.89350000'
- name: Buduran
  state_code: JI
  state_name: Jawa Timur
  latitude: "-7.42810000"
  longitude: '112.72340000'
- name: Dampit
  state_code: JI
  state_name: Jawa Timur
  latitude: "-8.21162000"
  longitude: '112.74934000'
- name: Diwek
  state_code: JI
  state_name: Jawa Timur
  latitude: "-7.57897000"
  longitude: '112.23109000'
- name: Driyorejo
  state_code: JI
  state_name: Jawa Timur
  latitude: "-7.36590000"
  longitude: '112.62190000'
- name: Gambiran Satu
  state_code: JI
  state_name: Jawa Timur
  latitude: "-8.39390000"
  longitude: '114.14640000'
- name: Gampengrejo
  state_code: JI
  state_name: Jawa Timur
  latitude: "-7.76667000"
  longitude: '112.01667000'
- name: Gedangan
  state_code: JI
  state_name: Jawa Timur
  latitude: "-7.39083000"
  longitude: '112.72667000'
- name: Genteng
  state_code: JI
  state_name: Jawa Timur
  latitude: "-8.36667000"
  longitude: '114.15000000'
- name: Gongdanglegi Kulon
  state_code: JI
  state_name: Jawa Timur
  latitude: "-8.17529000"
  longitude: '112.63594000'
- name: Gresik
  state_code: JI
  state_name: Jawa Timur
  latitude: "-7.15389000"
  longitude: '112.65611000'
- name: Gresik Regency
  state_code: JI
  state_name: Jawa Timur
  latitude: "-7.19330000"
  longitude: '112.55300000'
- name: Jember
  state_code: JI
  state_name: Jawa Timur
  latitude: "-8.17211000"
  longitude: '113.69953000'
- name: Jombang
  state_code: JI
  state_name: Jawa Timur
  latitude: "-7.54595000"
  longitude: '112.23307000'
- name: Kabupaten Bangkalan
  state_code: JI
  state_name: Jawa Timur
  latitude: "-7.05000000"
  longitude: '112.93333000'
- name: Kabupaten Banyuwangi
  state_code: JI
  state_name: Jawa Timur
  latitude: "-8.33333000"
  longitude: '114.20000000'
- name: Kabupaten Blitar
  state_code: JI
  state_name: Jawa Timur
  latitude: "-8.13333000"
  longitude: '112.25000000'
- name: Kabupaten Bojonegoro
  state_code: JI
  state_name: Jawa Timur
  latitude: "-7.25000000"
  longitude: '111.80000000'
- name: Kabupaten Bondowoso
  state_code: JI
  state_name: Jawa Timur
  latitude: "-7.94040000"
  longitude: '113.98340000'
- name: Kabupaten Jember
  state_code: JI
  state_name: Jawa Timur
  latitude: "-8.25000000"
  longitude: '113.65000000'
- name: Kabupaten Jombang
  state_code: JI
  state_name: Jawa Timur
  latitude: "-7.55000000"
  longitude: '112.25000000'
- name: Kabupaten Kediri
  state_code: JI
  state_name: Jawa Timur
  latitude: "-7.83333000"
  longitude: '112.16667000'
- name: Kabupaten Lamongan
  state_code: JI
  state_name: Jawa Timur
  latitude: "-7.13333000"
  longitude: '112.31667000'
- name: Kabupaten Lumajang
  state_code: JI
  state_name: Jawa Timur
  latitude: "-8.11667000"
  longitude: '113.15000000'
- name: Kabupaten Madiun
  state_code: JI
  state_name: Jawa Timur
  latitude: "-7.61667000"
  longitude: '111.65000000'
- name: Kabupaten Magetan
  state_code: JI
  state_name: Jawa Timur
  latitude: "-7.64472000"
  longitude: '111.35917000'
- name: Kabupaten Malang
  state_code: JI
  state_name: Jawa Timur
  latitude: "-8.16667000"
  longitude: '112.66667000'
- name: Kabupaten Mojokerto
  state_code: JI
  state_name: Jawa Timur
  latitude: "-7.55000000"
  longitude: '112.50000000'
- name: Kabupaten Nganjuk
  state_code: JI
  state_name: Jawa Timur
  latitude: "-7.60000000"
  longitude: '111.93333000'
- name: Kabupaten Ngawi
  state_code: JI
  state_name: Jawa Timur
  latitude: "-7.47444000"
  longitude: '111.33444000'
- name: Kabupaten Pacitan
  state_code: JI
  state_name: Jawa Timur
  latitude: "-8.13333000"
  longitude: '111.16667000'
- name: Kabupaten Pamekasan
  state_code: JI
  state_name: Jawa Timur
  latitude: "-7.06667000"
  longitude: '113.50000000'
- name: Kabupaten Pasuruan
  state_code: JI
  state_name: Jawa Timur
  latitude: "-7.73333000"
  longitude: '112.83333000'
- name: Kabupaten Ponorogo
  state_code: JI
  state_name: Jawa Timur
  latitude: "-7.93333000"
  longitude: '111.50000000'
- name: Kabupaten Probolinggo
  state_code: JI
  state_name: Jawa Timur
  latitude: "-7.86667000"
  longitude: '113.31667000'
- name: Kabupaten Sampang
  state_code: JI
  state_name: Jawa Timur
  latitude: "-7.05000000"
  longitude: '113.25000000'
- name: Kabupaten Sidoarjo
  state_code: JI
  state_name: Jawa Timur
  latitude: "-7.45000000"
  longitude: '112.70000000'
- name: Kabupaten Situbondo
  state_code: JI
  state_name: Jawa Timur
  latitude: "-7.71667000"
  longitude: '114.05000000'
- name: Kabupaten Sumenep
  state_code: JI
  state_name: Jawa Timur
  latitude: "-7.11667000"
  longitude: '114.33333000'
- name: Kabupaten Trenggalek
  state_code: JI
  state_name: Jawa Timur
  latitude: "-8.16667000"
  longitude: '111.61667000'
- name: Kabupaten Tuban
  state_code: JI
  state_name: Jawa Timur
  latitude: "-6.96667000"
  longitude: '111.90000000'
- name: Kabupaten Tulungagung
  state_code: JI
  state_name: Jawa Timur
  latitude: "-8.11667000"
  longitude: '111.91667000'
- name: Kalianget
  state_code: JI
  state_name: Jawa Timur
  latitude: "-7.05370000"
  longitude: '113.94244000'
- name: Kamal
  state_code: JI
  state_name: Jawa Timur
  latitude: "-7.16778000"
  longitude: '112.71917000'
- name: Kebomas
  state_code: JI
  state_name: Jawa Timur
  latitude: "-7.16667000"
  longitude: '112.63330000'
- name: Kediri
  state_code: JI
  state_name: Jawa Timur
  latitude: "-7.81667000"
  longitude: '112.01667000'
- name: Kedungwaru
  state_code: JI
  state_name: Jawa Timur
  latitude: "-8.06667000"
  longitude: '111.91667000'
- name: Kencong
  state_code: JI
  state_name: Jawa Timur
  latitude: "-8.28333000"
  longitude: '113.36667000'
- name: Kepanjen
  state_code: JI
  state_name: Jawa Timur
  latitude: "-8.13030000"
  longitude: '112.57270000'
- name: Kertosono
  state_code: JI
  state_name: Jawa Timur
  latitude: "-7.58333000"
  longitude: '112.10000000'
- name: Kraksaan
  state_code: JI
  state_name: Jawa Timur
  latitude: "-7.75845000"
  longitude: '113.39624000'
- name: Krian
  state_code: JI
  state_name: Jawa Timur
  latitude: "-7.41040000"
  longitude: '112.57920000'
- name: Lamongan
  state_code: JI
  state_name: Jawa Timur
  latitude: "-7.11667000"
  longitude: '112.41667000'
- name: Lawang
  state_code: JI
  state_name: Jawa Timur
  latitude: "-7.83530000"
  longitude: '112.69470000'
- name: Lumajang
  state_code: JI
  state_name: Jawa Timur
  latitude: "-8.13350000"
  longitude: '113.22480000'
- name: Madiun
  state_code: JI
  state_name: Jawa Timur
  latitude: "-7.62980000"
  longitude: '111.52390000'
- name: Malang
  state_code: JI
  state_name: Jawa Timur
  latitude: "-7.97970000"
  longitude: '112.63040000'
- name: Mojoagung
  state_code: JI
  state_name: Jawa Timur
  latitude: "-7.56667000"
  longitude: '112.35000000'
- name: Mojokerto
  state_code: JI
  state_name: Jawa Timur
  latitude: "-7.46640000"
  longitude: '112.43380000'
- name: Muncar
  state_code: JI
  state_name: Jawa Timur
  latitude: "-8.43333000"
  longitude: '114.33333000'
- name: Nganjuk
  state_code: JI
  state_name: Jawa Timur
  latitude: "-7.60510000"
  longitude: '111.90350000'
- name: Ngoro
  state_code: JI
  state_name: Jawa Timur
  latitude: "-7.68386000"
  longitude: '112.25804000'
- name: Ngunut
  state_code: JI
  state_name: Jawa Timur
  latitude: "-8.10580000"
  longitude: '112.01591000'
- name: Paciran
  state_code: JI
  state_name: Jawa Timur
  latitude: "-6.87666000"
  longitude: '112.37606000'
- name: Pakisaji
  state_code: JI
  state_name: Jawa Timur
  latitude: "-8.06650000"
  longitude: '112.59810000'
- name: Pamekasan
  state_code: JI
  state_name: Jawa Timur
  latitude: "-7.15680000"
  longitude: '113.47460000'
- name: Panarukan
  state_code: JI
  state_name: Jawa Timur
  latitude: "-7.70181000"
  longitude: '113.91844000'
- name: Pandaan
  state_code: JI
  state_name: Jawa Timur
  latitude: "-7.65268000"
  longitude: '112.68750000'
- name: Panji
  state_code: JI
  state_name: Jawa Timur
  latitude: "-7.72528000"
  longitude: '114.09954000'
- name: Pare
  state_code: JI
  state_name: Jawa Timur
  latitude: "-7.76790000"
  longitude: '112.19800000'
- name: Pasuruan
  state_code: JI
  state_name: Jawa Timur
  latitude: "-7.64530000"
  longitude: '112.90750000'
- name: Ponorogo
  state_code: JI
  state_name: Jawa Timur
  latitude: "-7.86850000"
  longitude: '111.46200000'
- name: Prigen
  state_code: JI
  state_name: Jawa Timur
  latitude: "-7.68333000"
  longitude: '112.61667000'
- name: Probolinggo
  state_code: JI
  state_name: Jawa Timur
  latitude: "-7.75430000"
  longitude: '113.21590000'
- name: Sampang
  state_code: JI
  state_name: Jawa Timur
  latitude: "-7.18720000"
  longitude: '113.23940000'
- name: Sidoarjo
  state_code: JI
  state_name: Jawa Timur
  latitude: "-7.44780000"
  longitude: '112.71830000'
- name: Singojuruh
  state_code: JI
  state_name: Jawa Timur
  latitude: "-8.31667000"
  longitude: '114.23333000'
- name: Singosari
  state_code: JI
  state_name: Jawa Timur
  latitude: "-7.89240000"
  longitude: '112.66580000'
- name: Situbondo
  state_code: JI
  state_name: Jawa Timur
  latitude: "-7.70623000"
  longitude: '114.00976000'
- name: Soko
  state_code: JI
  state_name: Jawa Timur
  latitude: "-7.48315000"
  longitude: '112.42704000'
- name: Srono
  state_code: JI
  state_name: Jawa Timur
  latitude: "-8.40003000"
  longitude: '114.26661000'
- name: Sumberpucung
  state_code: JI
  state_name: Jawa Timur
  latitude: "-8.15856000"
  longitude: '112.48292000'
- name: Sumenep
  state_code: JI
  state_name: Jawa Timur
  latitude: "-7.01667000"
  longitude: '113.86667000'
- name: Surabaya
  state_code: JI
  state_name: Jawa Timur
  latitude: "-7.24917000"
  longitude: '112.75083000'
- name: Tanggul
  state_code: JI
  state_name: Jawa Timur
  latitude: "-8.16450000"
  longitude: '113.45250000'
- name: Tanggulangin
  state_code: JI
  state_name: Jawa Timur
  latitude: "-7.49958000"
  longitude: '112.69992000'
- name: Trenggalek
  state_code: JI
  state_name: Jawa Timur
  latitude: "-8.07640000"
  longitude: '111.70641000'
- name: Tuban
  state_code: JI
  state_name: Jawa Timur
  latitude: "-6.89760000"
  longitude: '112.06490000'
- name: Tulangan Utara
  state_code: JI
  state_name: Jawa Timur
  latitude: "-7.47370000"
  longitude: '112.65050000'
- name: Tulungagung
  state_code: JI
  state_name: Jawa Timur
  latitude: "-8.06570000"
  longitude: '111.90250000'
- name: Wongsorejo
  state_code: JI
  state_name: Jawa Timur
  latitude: "-7.99080000"
  longitude: '114.40090000'
- name: Bengkayang
  state_code: KB
  state_name: Kalimantan Barat
  latitude: '1.06911000'
  longitude: '109.66393000'
- name: Kapuas Hulu
  state_code: KB
  state_name: Kalimantan Barat
  latitude: '0.83333000'
  longitude: '112.80000000'
- name: Kayong Utara
  state_code: KB
  state_name: Kalimantan Barat
  latitude: "-1.06023000"
  longitude: '110.10402000'
- name: Ketapang
  state_code: KB
  state_name: Kalimantan Barat
  latitude: "-1.85000000"
  longitude: '109.98333333'
- name: Kubu Raya
  state_code: KB
  state_name: Kalimantan Barat
  latitude: "-0.31924000"
  longitude: '109.51865000'
- name: Landak
  state_code: KB
  state_name: Kalimantan Barat
  latitude: '0.42373000'
  longitude: '109.75917000'
- name: Manismata
  state_code: KB
  state_name: Kalimantan Barat
  latitude: "-2.46666667"
  longitude: '111.03333333'
- name: Melawi
  state_code: KB
  state_name: Kalimantan Barat
  latitude: "-0.33617000"
  longitude: '111.69800000'
- name: Mempawah
  state_code: KB
  state_name: Kalimantan Barat
  latitude: '0.25000000'
  longitude: '109.16667000'
- name: Pemangkat
  state_code: KB
  state_name: Kalimantan Barat
  latitude: '1.17680000'
  longitude: '108.96240000'
- name: Pontianak
  state_code: KB
  state_name: Kalimantan Barat
  latitude: "-0.02055556"
  longitude: '109.34138889'
- name: Sambas
  state_code: KB
  state_name: Kalimantan Barat
  latitude: '1.43333000'
  longitude: '109.35000000'
- name: Sanggau
  state_code: KB
  state_name: Kalimantan Barat
  latitude: '0.11944444'
  longitude: '110.58888889'
- name: Sekadau
  state_code: KB
  state_name: Kalimantan Barat
  latitude: '0.03485000'
  longitude: '110.95066000'
- name: Singkawang
  state_code: KB
  state_name: Kalimantan Barat
  latitude: '0.90000000'
  longitude: '108.98333333'
- name: Sintang
  state_code: KB
  state_name: Kalimantan Barat
  latitude: '0.06805556'
  longitude: '111.49805556'
- name: Amuntai
  state_code: KS
  state_name: Kalimantan Selatan
  latitude: "-2.41773000"
  longitude: '115.24941000'
- name: Banjarmasin
  state_code: KS
  state_name: Kalimantan Selatan
  latitude: "-3.31987000"
  longitude: '114.59075000'
- name: Barabai
  state_code: KS
  state_name: Kalimantan Selatan
  latitude: "-2.58333000"
  longitude: '115.38333000'
- name: Kabupaten Balangan
  state_code: KS
  state_name: Kalimantan Selatan
  latitude: "-2.32314000"
  longitude: '115.62922000'
- name: Kabupaten Banjar
  state_code: KS
  state_name: Kalimantan Selatan
  latitude: "-3.31667000"
  longitude: '115.08333000'
- name: Kabupaten Barito Kuala
  state_code: KS
  state_name: Kalimantan Selatan
  latitude: "-3.08333000"
  longitude: '114.61667000'
- name: Kabupaten Hulu Sungai Selatan
  state_code: KS
  state_name: Kalimantan Selatan
  latitude: "-2.75000000"
  longitude: '115.20000000'
- name: Kabupaten Hulu Sungai Tengah
  state_code: KS
  state_name: Kalimantan Selatan
  latitude: "-2.61667000"
  longitude: '115.41667000'
- name: Kabupaten Hulu Sungai Utara
  state_code: KS
  state_name: Kalimantan Selatan
  latitude: "-2.45000000"
  longitude: '115.13333000'
- name: Kabupaten Kota Baru
  state_code: KS
  state_name: Kalimantan Selatan
  latitude: "-3.00000000"
  longitude: '116.00000000'
- name: Kabupaten Tabalong
  state_code: KS
  state_name: Kalimantan Selatan
  latitude: "-1.88333000"
  longitude: '115.50000000'
- name: Kabupaten Tanah Bumbu
  state_code: KS
  state_name: Kalimantan Selatan
  latitude: "-3.45413000"
  longitude: '115.70372000'
- name: Kabupaten Tanah Laut
  state_code: KS
  state_name: Kalimantan Selatan
  latitude: "-3.88333000"
  longitude: '114.86667000'
- name: Kabupaten Tapin
  state_code: KS
  state_name: Kalimantan Selatan
  latitude: "-2.91667000"
  longitude: '115.03333000'
- name: Martapura
  state_code: KS
  state_name: Kalimantan Selatan
  latitude: "-3.41090000"
  longitude: '114.86420000'
- name: Kabupaten Barito Selatan
  state_code: KT
  state_name: Kalimantan Tengah
  latitude: "-1.86667000"
  longitude: '114.73333000'
- name: Kabupaten Barito Timur
  state_code: KT
  state_name: Kalimantan Tengah
  latitude: "-1.93333000"
  longitude: '115.10000000'
- name: Kabupaten Barito Utara
  state_code: KT
  state_name: Kalimantan Tengah
  latitude: "-0.98333000"
  longitude: '115.10000000'
- name: Kabupaten Gunung Mas
  state_code: KT
  state_name: Kalimantan Tengah
  latitude: "-0.95000000"
  longitude: '113.50000000'
- name: Kabupaten Kapuas
  state_code: KT
  state_name: Kalimantan Tengah
  latitude: "-2.01667000"
  longitude: '114.38333000'
- name: Kabupaten Katingan
  state_code: KT
  state_name: Kalimantan Tengah
  latitude: "-2.06667000"
  longitude: '113.40000000'
- name: Kabupaten Kotawaringin Barat
  state_code: KT
  state_name: Kalimantan Tengah
  latitude: "-2.40000000"
  longitude: '111.73333000'
- name: Kabupaten Kotawaringin Timur
  state_code: KT
  state_name: Kalimantan Tengah
  latitude: "-2.08333000"
  longitude: '112.75000000'
- name: Kabupaten Lamandau
  state_code: KT
  state_name: Kalimantan Tengah
  latitude: "-1.83828000"
  longitude: '111.28690000'
- name: Kabupaten Murung Raya
  state_code: KT
  state_name: Kalimantan Tengah
  latitude: "-0.01667000"
  longitude: '114.26667000'
- name: Kabupaten Pulang Pisau
  state_code: KT
  state_name: Kalimantan Tengah
  latitude: "-3.11858000"
  longitude: '113.86230000'
- name: Kabupaten Seruyan
  state_code: KT
  state_name: Kalimantan Tengah
  latitude: "-2.33333000"
  longitude: '112.25000000'
- name: Kabupaten Sukamara
  state_code: KT
  state_name: Kalimantan Tengah
  latitude: "-2.62675000"
  longitude: '111.23681000'
- name: Kualakapuas
  state_code: KT
  state_name: Kalimantan Tengah
  latitude: "-3.00913000"
  longitude: '114.38759000'
- name: Palangkaraya
  state_code: KT
  state_name: Kalimantan Tengah
  latitude: "-2.20833000"
  longitude: '113.91667000'
- name: Pangkalanbuun
  state_code: KT
  state_name: Kalimantan Tengah
  latitude: "-2.68320000"
  longitude: '111.62590000'
- name: Sampit
  state_code: KT
  state_name: Kalimantan Tengah
  latitude: "-2.53150000"
  longitude: '112.94960000'
- name: Balikpapan
  state_code: KI
  state_name: Kalimantan Timur
  latitude: "-1.26753000"
  longitude: '116.82887000'
- name: Bontang
  state_code: KI
  state_name: Kalimantan Timur
  latitude: '0.13240000'
  longitude: '117.48540000'
- name: City of Balikpapan
  state_code: KI
  state_name: Kalimantan Timur
  latitude: "-1.24204000"
  longitude: '116.89419000'
- name: Kabupaten Berau
  state_code: KI
  state_name: Kalimantan Timur
  latitude: '2.00000000'
  longitude: '117.30000000'
- name: Kabupaten Kutai Barat
  state_code: KI
  state_name: Kalimantan Timur
  latitude: "-0.59417000"
  longitude: '115.51575000'
- name: Kabupaten Kutai Kartanegara
  state_code: KI
  state_name: Kalimantan Timur
  latitude: "-0.44019000"
  longitude: '116.98139000'
- name: Kabupaten Kutai Timur
  state_code: KI
  state_name: Kalimantan Timur
  latitude: '1.03769000'
  longitude: '117.83112000'
- name: Kabupaten Mahakam Hulu
  state_code: KI
  state_name: Kalimantan Timur
  latitude: '0.37822000'
  longitude: '115.38048000'
- name: Kabupaten Paser
  state_code: KI
  state_name: Kalimantan Timur
  latitude: "-1.43517000"
  longitude: '116.23535000'
- name: Kabupaten Penajam Paser Utara
  state_code: KI
  state_name: Kalimantan Timur
  latitude: "-1.25000000"
  longitude: '116.83333000'
- name: Loa Janan
  state_code: KI
  state_name: Kalimantan Timur
  latitude: "-0.58295000"
  longitude: '117.09503000'
- name: Samarinda
  state_code: KI
  state_name: Kalimantan Timur
  latitude: "-0.49167000"
  longitude: '117.14583000'
- name: Kabupaten Bulungan
  state_code: KU
  state_name: Kalimantan Utara
  latitude: '3.00000000'
  longitude: '117.16667000'
- name: Kabupaten Malinau
  state_code: KU
  state_name: Kalimantan Utara
  latitude: '2.45000000'
  longitude: '115.68333000'
- name: Kabupaten Nunukan
  state_code: KU
  state_name: Kalimantan Utara
  latitude: '4.13333000'
  longitude: '116.70000000'
- name: Kabupaten Tana Tidung
  state_code: KU
  state_name: Kalimantan Utara
  latitude: '3.55000000'
  longitude: '117.25000000'
- name: Tanjung Selor
  state_code: KU
  state_name: Kalimantan Utara
  latitude: '2.83750000'
  longitude: '117.36528000'
- name: Tarakan
  state_code: KU
  state_name: Kalimantan Utara
  latitude: '3.31332000'
  longitude: '117.59152000'
- name: Kabupaten Bangka
  state_code: BB
  state_name: Kepulauan Bangka Belitung
  latitude: "-1.91667000"
  longitude: '105.93333000'
- name: Kabupaten Bangka Barat
  state_code: BB
  state_name: Kepulauan Bangka Belitung
  latitude: "-1.95839000"
  longitude: '105.53741000'
- name: Kabupaten Bangka Selatan
  state_code: BB
  state_name: Kepulauan Bangka Belitung
  latitude: "-2.66803000"
  longitude: '106.01257000'
- name: Kabupaten Bangka Tengah
  state_code: BB
  state_name: Kepulauan Bangka Belitung
  latitude: "-2.33989000"
  longitude: '106.11420000'
- name: Kabupaten Belitung
  state_code: BB
  state_name: Kepulauan Bangka Belitung
  latitude: "-2.86667000"
  longitude: '107.70000000'
- name: Kabupaten Belitung Timur
  state_code: BB
  state_name: Kepulauan Bangka Belitung
  latitude: "-2.96270000"
  longitude: '108.15216000'
- name: Manggar
  state_code: BB
  state_name: Kepulauan Bangka Belitung
  latitude: "-2.88333000"
  longitude: '108.26667000'
- name: Muntok
  state_code: BB
  state_name: Kepulauan Bangka Belitung
  latitude: "-2.06719000"
  longitude: '105.16228000'
- name: Pangkalpinang
  state_code: BB
  state_name: Kepulauan Bangka Belitung
  latitude: "-2.12914000"
  longitude: '106.11377000'
- name: Sungailiat
  state_code: BB
  state_name: Kepulauan Bangka Belitung
  latitude: "-1.85442000"
  longitude: '106.12215000'
- name: Tanjung Pandan
  state_code: BB
  state_name: Kepulauan Bangka Belitung
  latitude: "-2.73353000"
  longitude: '107.63477000'
- name: Kabupaten Bintan
  state_code: KR
  state_name: Kepulauan Riau
  latitude: '0.95000000'
  longitude: '104.61944000'
- name: Kabupaten Karimun
  state_code: KR
  state_name: Kepulauan Riau
  latitude: '0.80764000'
  longitude: '103.41911000'
- name: Kabupaten Kepulauan Anambas
  state_code: KR
  state_name: Kepulauan Riau
  latitude: '3.00000000'
  longitude: '106.00000000'
- name: Kabupaten Lingga
  state_code: KR
  state_name: Kepulauan Riau
  latitude: '0.20000000'
  longitude: '104.61667000'
- name: Kabupaten Natuna
  state_code: KR
  state_name: Kepulauan Riau
  latitude: '4.71417000'
  longitude: '107.97639000'
- name: Kijang
  state_code: KR
  state_name: Kepulauan Riau
  latitude: '0.90000000'
  longitude: '104.63333000'
- name: Tanjung Pinang
  state_code: KR
  state_name: Kepulauan Riau
  latitude: '0.91667000'
  longitude: '104.45833000'
- name: Bandar Lampung
  state_code: LA
  state_name: Lampung
  latitude: "-5.42917000"
  longitude: '105.26111000'
- name: Kabupaten Lampung Barat
  state_code: LA
  state_name: Lampung
  latitude: "-5.14904000"
  longitude: '104.19309000'
- name: Kabupaten Lampung Selatan
  state_code: LA
  state_name: Lampung
  latitude: "-5.45310000"
  longitude: '104.98770000'
- name: Kabupaten Lampung Tengah
  state_code: LA
  state_name: Lampung
  latitude: "-4.86667000"
  longitude: '105.26667000'
- name: Kabupaten Lampung Timur
  state_code: LA
  state_name: Lampung
  latitude: "-5.10273000"
  longitude: '105.68003000'
- name: Kabupaten Lampung Utara
  state_code: LA
  state_name: Lampung
  latitude: "-4.81667000"
  longitude: '104.80000000'
- name: Kabupaten Mesuji
  state_code: LA
  state_name: Lampung
  latitude: "-4.04390000"
  longitude: '105.40130000'
- name: Kabupaten Pesawaran
  state_code: LA
  state_name: Lampung
  latitude: "-5.42980000"
  longitude: '105.17899000'
- name: Kabupaten Pesisir Barat
  state_code: LA
  state_name: Lampung
  latitude: "-5.19323000"
  longitude: '103.93976000'
- name: Kabupaten Pringsewu
  state_code: LA
  state_name: Lampung
  latitude: "-5.42211000"
  longitude: '104.93454000'
- name: Kabupaten Tanggamus
  state_code: LA
  state_name: Lampung
  latitude: "-5.38508000"
  longitude: '104.62349000'
- name: Kabupaten Tulangbawang
  state_code: LA
  state_name: Lampung
  latitude: "-4.20604000"
  longitude: '105.57999000'
- name: Kabupaten Way Kanan
  state_code: LA
  state_name: Lampung
  latitude: "-4.44705000"
  longitude: '104.52753000'
- name: Kotabumi
  state_code: LA
  state_name: Lampung
  latitude: "-4.82505000"
  longitude: '104.88170000'
- name: Metro
  state_code: LA
  state_name: Lampung
  latitude: "-5.11306000"
  longitude: '105.30667000'
- name: Terbanggi Besar
  state_code: LA
  state_name: Lampung
  latitude: "-4.87898000"
  longitude: '105.21818000'
- name: Amahai
  state_code: MA
  state_name: Maluku
  latitude: "-3.33984000"
  longitude: '128.91975000'
- name: Ambon
  state_code: MA
  state_name: Maluku
  latitude: "-3.69583000"
  longitude: '128.18333000'
- name: Kabupaten Buru
  state_code: MA
  state_name: Maluku
  latitude: "-3.32767000"
  longitude: '126.68413000'
- name: Kabupaten Buru Selatan
  state_code: MA
  state_name: Maluku
  latitude: "-3.52187000"
  longitude: '126.59271000'
- name: Kabupaten Kepulauan Aru
  state_code: MA
  state_name: Maluku
  latitude: "-6.17059000"
  longitude: '134.46991000'
- name: Kabupaten Maluku Barat Daya
  state_code: MA
  state_name: Maluku
  latitude: "-7.82960000"
  longitude: '126.17386000'
- name: Kabupaten Maluku Tengah
  state_code: MA
  state_name: Maluku
  latitude: "-3.29167000"
  longitude: '128.96750000'
- name: Kabupaten Maluku Tenggara
  state_code: MA
  state_name: Maluku
  latitude: "-5.75000000"
  longitude: '132.73333000'
- name: Kabupaten Maluku Tenggara Barat
  state_code: MA
  state_name: Maluku
  latitude: "-7.61186000"
  longitude: '131.38000000'
- name: Kabupaten Seram Bagian Barat
  state_code: MA
  state_name: Maluku
  latitude: "-3.10270000"
  longitude: '128.42996000'
- name: Kabupaten Seram Bagian Timur
  state_code: MA
  state_name: Maluku
  latitude: "-3.39851000"
  longitude: '130.39167000'
- name: Tual
  state_code: MA
  state_name: Maluku
  latitude: "-5.62878000"
  longitude: '132.75229000'
- name: East Halmahera Regency
  state_code: MU
  state_name: Maluku Utara
  latitude: '1.33517000'
  longitude: '128.48627000'
- name: Kabupaten Halmahera Barat
  state_code: MU
  state_name: Maluku Utara
  latitude: '1.41709000'
  longitude: '127.55264000'
- name: Kabupaten Halmahera Selatan
  state_code: MU
  state_name: Maluku Utara
  latitude: "-0.39550000"
  longitude: '127.90833000'
- name: Kabupaten Halmahera Tengah
  state_code: MU
  state_name: Maluku Utara
  latitude: '0.48056000'
  longitude: '128.25000000'
- name: Kabupaten Halmahera Utara
  state_code: MU
  state_name: Maluku Utara
  latitude: '1.73194000'
  longitude: '128.00778000'
- name: Kabupaten Kepulauan Sula
  state_code: MU
  state_name: Maluku Utara
  latitude: "-1.86460000"
  longitude: '125.69046000'
- name: Kabupaten Pulau Morotai
  state_code: MU
  state_name: Maluku Utara
  latitude: '2.19924000'
  longitude: '128.40546000'
- name: Kabupaten Pulau Taliabu
  state_code: MU
  state_name: Maluku Utara
  latitude: "-1.84578000"
  longitude: '124.78992000'
- name: Sofifi
  state_code: MU
  state_name: Maluku Utara
  latitude: '0.73729000'
  longitude: '127.55880000'
- name: Ternate
  state_code: MU
  state_name: Maluku Utara
  latitude: '0.79065000'
  longitude: '127.38424000'
- name: Tobelo
  state_code: MU
  state_name: Maluku Utara
  latitude: '1.72837000'
  longitude: '128.00948000'
- name: Bima
  state_code: NB
  state_name: Nusa Tenggara Barat
  latitude: "-8.46006000"
  longitude: '118.72667000'
- name: Dompu
  state_code: NB
  state_name: Nusa Tenggara Barat
  latitude: "-8.53650000"
  longitude: '118.46340000'
- name: Gili Air
  state_code: NB
  state_name: Nusa Tenggara Barat
  latitude: "-8.35783000"
  longitude: '116.08240000'
- name: Kabupaten Bima
  state_code: NB
  state_name: Nusa Tenggara Barat
  latitude: "-8.60000000"
  longitude: '118.61667000'
- name: Kabupaten Dompu
  state_code: NB
  state_name: Nusa Tenggara Barat
  latitude: "-8.50940000"
  longitude: '118.48160000'
- name: Kabupaten Lombok Barat
  state_code: NB
  state_name: Nusa Tenggara Barat
  latitude: "-8.69583000"
  longitude: '116.11667000'
- name: Kabupaten Lombok Tengah
  state_code: NB
  state_name: Nusa Tenggara Barat
  latitude: "-8.70000000"
  longitude: '116.30000000'
- name: Kabupaten Lombok Timur
  state_code: NB
  state_name: Nusa Tenggara Barat
  latitude: "-8.53333000"
  longitude: '116.53333000'
- name: Kabupaten Lombok Utara
  state_code: NB
  state_name: Nusa Tenggara Barat
  latitude: "-8.35214000"
  longitude: '116.40152000'
- name: Kabupaten Sumbawa
  state_code: NB
  state_name: Nusa Tenggara Barat
  latitude: "-8.74390000"
  longitude: '117.33240000'
- name: Kabupaten Sumbawa Barat
  state_code: NB
  state_name: Nusa Tenggara Barat
  latitude: "-8.75159000"
  longitude: '116.92132000'
- name: Labuan Lombok
  state_code: NB
  state_name: Nusa Tenggara Barat
  latitude: "-8.50000000"
  longitude: '116.66667000'
- name: Lembar
  state_code: NB
  state_name: Nusa Tenggara Barat
  latitude: "-8.72640000"
  longitude: '116.07440000'
- name: Mataram
  state_code: NB
  state_name: Nusa Tenggara Barat
  latitude: "-8.58333000"
  longitude: '116.11667000'
- name: Pemenang
  state_code: NB
  state_name: Nusa Tenggara Barat
  latitude: "-8.40401000"
  longitude: '116.10255000'
- name: Pototano
  state_code: NB
  state_name: Nusa Tenggara Barat
  latitude: "-8.41260000"
  longitude: '117.48110000'
- name: Praya
  state_code: NB
  state_name: Nusa Tenggara Barat
  latitude: "-8.70536000"
  longitude: '116.27036000'
- name: Senggigi
  state_code: NB
  state_name: Nusa Tenggara Barat
  latitude: "-8.49190000"
  longitude: '116.04240000'
- name: Sumbawa Besar
  state_code: NB
  state_name: Nusa Tenggara Barat
  latitude: "-8.49317000"
  longitude: '117.42024000'
- name: Atambua
  state_code: NT
  state_name: Nusa Tenggara Timur
  latitude: "-9.10611000"
  longitude: '124.89250000'
- name: Ende
  state_code: NT
  state_name: Nusa Tenggara Timur
  latitude: "-8.84320000"
  longitude: '121.66230000'
- name: Kabupaten Alor
  state_code: NT
  state_name: Nusa Tenggara Timur
  latitude: "-8.30000000"
  longitude: '124.56667000'
- name: Kabupaten Belu
  state_code: NT
  state_name: Nusa Tenggara Timur
  latitude: "-9.41258000"
  longitude: '124.95066000'
- name: Kabupaten Ende
  state_code: NT
  state_name: Nusa Tenggara Timur
  latitude: "-8.84056000"
  longitude: '121.66389000'
- name: Kabupaten Flores Timur
  state_code: NT
  state_name: Nusa Tenggara Timur
  latitude: "-8.24224000"
  longitude: '122.96817000'
- name: Kabupaten Kupang
  state_code: NT
  state_name: Nusa Tenggara Timur
  latitude: "-9.91667000"
  longitude: '123.83333000'
- name: Kabupaten Lembata
  state_code: NT
  state_name: Nusa Tenggara Timur
  latitude: "-8.41396000"
  longitude: '123.55225000'
- name: Kabupaten Malaka
  state_code: NT
  state_name: Nusa Tenggara Timur
  latitude: "-9.56320000"
  longitude: '124.89481000'
- name: Kabupaten Manggarai
  state_code: NT
  state_name: Nusa Tenggara Timur
  latitude: "-8.56667000"
  longitude: '120.41667000'
- name: Kabupaten Manggarai Barat
  state_code: NT
  state_name: Nusa Tenggara Timur
  latitude: "-8.64484000"
  longitude: '119.88281000'
- name: Kabupaten Manggarai Timur
  state_code: NT
  state_name: Nusa Tenggara Timur
  latitude: "-8.55533000"
  longitude: '120.59761000'
- name: Kabupaten Nagekeo
  state_code: NT
  state_name: Nusa Tenggara Timur
  latitude: "-8.87210000"
  longitude: '121.20963000'
- name: Kabupaten Ngada
  state_code: NT
  state_name: Nusa Tenggara Timur
  latitude: "-8.66667000"
  longitude: '121.00000000'
- name: Kabupaten Rote Ndao
  state_code: NT
  state_name: Nusa Tenggara Timur
  latitude: "-10.73617000"
  longitude: '123.12054000'
- name: Kabupaten Sabu Raijua
  state_code: NT
  state_name: Nusa Tenggara Timur
  latitude: "-10.56286000"
  longitude: '121.78894000'
- name: Kabupaten Sikka
  state_code: NT
  state_name: Nusa Tenggara Timur
  latitude: "-8.66667000"
  longitude: '122.36667000'
- name: Kabupaten Sumba Barat
  state_code: NT
  state_name: Nusa Tenggara Timur
  latitude: "-9.56667000"
  longitude: '119.45000000'
- name: Kabupaten Sumba Barat Daya
  state_code: NT
  state_name: Nusa Tenggara Timur
  latitude: "-9.56216000"
  longitude: '119.08905000'
- name: Kabupaten Sumba Tengah
  state_code: NT
  state_name: Nusa Tenggara Timur
  latitude: "-9.62941000"
  longitude: '119.61914000'
- name: Kabupaten Sumba Timur
  state_code: NT
  state_name: Nusa Tenggara Timur
  latitude: "-9.88333000"
  longitude: '120.25000000'
- name: Kabupaten Timor Tengah Selatan
  state_code: NT
  state_name: Nusa Tenggara Timur
  latitude: "-9.83333000"
  longitude: '124.40000000'
- name: Kabupaten Timor Tengah Utara
  state_code: NT
  state_name: Nusa Tenggara Timur
  latitude: "-9.33136000"
  longitude: '124.51904000'
- name: Kefamenanu
  state_code: NT
  state_name: Nusa Tenggara Timur
  latitude: "-9.44667000"
  longitude: '124.47806000'
- name: Komodo
  state_code: NT
  state_name: Nusa Tenggara Timur
  latitude: "-8.58950000"
  longitude: '119.49130000'
- name: Kupang
  state_code: NT
  state_name: Nusa Tenggara Timur
  latitude: "-10.17083000"
  longitude: '123.60694000'
- name: Labuan Bajo
  state_code: NT
  state_name: Nusa Tenggara Timur
  latitude: "-8.49640000"
  longitude: '119.88770000'
- name: Maumere
  state_code: NT
  state_name: Nusa Tenggara Timur
  latitude: "-8.61990000"
  longitude: '122.21110000'
- name: Naisano Dua
  state_code: NT
  state_name: Nusa Tenggara Timur
  latitude: "-9.59806000"
  longitude: '123.77028000'
- name: Ruteng
  state_code: NT
  state_name: Nusa Tenggara Timur
  latitude: "-8.61139000"
  longitude: '120.46444000'
- name: Soe
  state_code: NT
  state_name: Nusa Tenggara Timur
  latitude: "-9.86071000"
  longitude: '124.28395000'
- name: Waingapu
  state_code: NT
  state_name: Nusa Tenggara Timur
  latitude: "-9.65670000"
  longitude: '120.26410000'
- name: Abepura
  state_code: PA
  state_name: Papua
  latitude: "-2.59640000"
  longitude: '140.63240000'
- name: Biak
  state_code: PA
  state_name: Papua
  latitude: "-1.17670000"
  longitude: '136.08200000'
- name: Insrom
  state_code: PA
  state_name: Papua
  latitude: "-1.14473000"
  longitude: '136.03134000'
- name: Jayapura
  state_code: PA
  state_name: Papua
  latitude: "-2.53371000"
  longitude: '140.71813000'
- name: Kabupaten Biak Numfor
  state_code: PA
  state_name: Papua
  latitude: "-1.03333000"
  longitude: '136.00000000'
- name: Kabupaten Jayapura
  state_code: PA
  state_name: Papua
  latitude: "-3.00000000"
  longitude: '139.95000000'
- name: Kabupaten Keerom
  state_code: PA
  state_name: Papua
  latitude: "-3.30000000"
  longitude: '140.61667000'
- name: Kabupaten Kepulauan Yapen
  state_code: PA
  state_name: Papua
  latitude: "-1.78773000"
  longitude: '136.27716000'
- name: Kabupaten Mamberamo Raya
  state_code: PA
  state_name: Papua
  latitude: "-2.23561000"
  longitude: '137.78229000'
- name: Kabupaten Sarmi
  state_code: PA
  state_name: Papua
  latitude: "-2.41667000"
  longitude: '139.08333000'
- name: Kabupaten Supiori
  state_code: PA
  state_name: Papua
  latitude: "-0.73881000"
  longitude: '135.61111000'
- name: Kabupaten Waropen
  state_code: PA
  state_name: Papua
  latitude: "-2.28600000"
  longitude: '137.01837000'
- name: Kabupaten Fakfak
  state_code: PB
  state_name: Papua Barat
  latitude: "-2.92641000"
  longitude: '132.29608000'
- name: Kabupaten Kaimana
  state_code: PB
  state_name: Papua Barat
  latitude: "-3.66093000"
  longitude: '133.77451000'
- name: Kabupaten Manokwari
  state_code: PB
  state_name: Papua Barat
  latitude: "-0.90000000"
  longitude: '133.75000000'
- name: Kabupaten Manokwari Selatan
  state_code: PB
  state_name: Papua Barat
  latitude: "-1.07980000"
  longitude: '133.96729000'
- name: Kabupaten Teluk Bintuni
  state_code: PB
  state_name: Papua Barat
  latitude: "-1.88037000"
  longitude: '133.33105000'
- name: Kabupaten Teluk Wondama
  state_code: PB
  state_name: Papua Barat
  latitude: "-2.70000000"
  longitude: '134.50000000'
- name: Manokwari
  state_code: PB
  state_name: Papua Barat
  latitude: "-0.86291000"
  longitude: '134.06402000'
- name: Kabupaten Maybrat
  state_code: PD
  state_name: Papua Barat Daya
  latitude: "-1.21550000"
  longitude: '132.35092000'
- name: Kabupaten Raja Ampat
  state_code: PD
  state_name: Papua Barat Daya
  latitude: "-0.50000000"
  longitude: '130.00000000'
- name: Kabupaten Sorong
  state_code: PD
  state_name: Papua Barat Daya
  latitude: "-1.16667000"
  longitude: '131.50000000'
- name: Kabupaten Sorong Selatan
  state_code: PD
  state_name: Papua Barat Daya
  latitude: "-1.50495000"
  longitude: '132.28638000'
- name: Kabupaten Tambrauw
  state_code: PD
  state_name: Papua Barat Daya
  latitude: "-0.60515000"
  longitude: '132.48962000'
- name: Sorong
  state_code: PD
  state_name: Papua Barat Daya
  latitude: "-0.87956000"
  longitude: '131.26104000'
- name: Kabupaten Jayawijaya
  state_code: PE
  state_name: Papua Pegunungan
  latitude: "-4.08333000"
  longitude: '139.08333000'
- name: Kabupaten Lanny Jaya
  state_code: PE
  state_name: Papua Pegunungan
  latitude: "-3.91244000"
  longitude: '138.28766000'
- name: Kabupaten Mamberamo Tengah
  state_code: PE
  state_name: Papua Pegunungan
  latitude: "-2.46064000"
  longitude: '138.45245000'
- name: Kabupaten Nduga
  state_code: PE
  state_name: Papua Pegunungan
  latitude: "-4.45093000"
  longitude: '138.10089000'
- name: Kabupaten Pegunungan Bintang
  state_code: PE
  state_name: Papua Pegunungan
  latitude: "-4.52167000"
  longitude: '140.29541000'
- name: Kabupaten Tolikara
  state_code: PE
  state_name: Papua Pegunungan
  latitude: "-3.42661000"
  longitude: '137.41699000'
- name: Kabupaten Yahukimo
  state_code: PE
  state_name: Papua Pegunungan
  latitude: "-4.60403000"
  longitude: '139.58405000'
- name: Kabupaten Yalimo
  state_code: PE
  state_name: Papua Pegunungan
  latitude: "-3.86037000"
  longitude: '138.47305000'
- name: Kabupaten Asmat
  state_code: PS
  state_name: Papua Selatan
  latitude: "-5.37950000"
  longitude: '138.46344000'
- name: Kabupaten Boven Digoel
  state_code: PS
  state_name: Papua Selatan
  latitude: "-5.70519000"
  longitude: '140.36349000'
- name: Kabupaten Mappi
  state_code: PS
  state_name: Papua Selatan
  latitude: "-6.49971000"
  longitude: '139.34441000'
- name: Kabupaten Merauke
  state_code: PS
  state_name: Papua Selatan
  latitude: "-7.66667000"
  longitude: '139.66667000'
- name: Kabupaten Deiyai
  state_code: PT
  state_name: Papua Tengah
  latitude: "-3.94737000"
  longitude: '135.95032000'
- name: Kabupaten Dogiyai
  state_code: PT
  state_name: Papua Tengah
  latitude: "-4.03186000"
  longitude: '135.43945000'
- name: Kabupaten Intan Jaya
  state_code: PT
  state_name: Papua Tengah
  latitude: "-3.41016000"
  longitude: '136.70837000'
- name: Kabupaten Mimika
  state_code: PT
  state_name: Papua Tengah
  latitude: "-4.54357000"
  longitude: '136.56555000'
- name: Kabupaten Nabire
  state_code: PT
  state_name: Papua Tengah
  latitude: "-3.54016000"
  longitude: '135.55511000'
- name: Kabupaten Paniai
  state_code: PT
  state_name: Papua Tengah
  latitude: "-3.90000000"
  longitude: '136.60000000'
- name: Kabupaten Puncak
  state_code: PT
  state_name: Papua Tengah
  latitude: "-3.67241000"
  longitude: '137.43896000'
- name: Kabupaten Puncak Jaya
  state_code: PT
  state_name: Papua Tengah
  latitude: "-3.51069440"
  longitude: '137.86611111'
- name: Nabire
  state_code: PT
  state_name: Papua Tengah
  latitude: "-3.35989000"
  longitude: '135.50074000'
- name: Balaipungut
  state_code: RI
  state_name: Riau
  latitude: '1.05949000'
  longitude: '101.29054000'
- name: Batam
  state_code: RI
  state_name: Riau
  latitude: '1.14937000'
  longitude: '104.02491000'
- name: Dumai
  state_code: RI
  state_name: Riau
  latitude: '1.66711000'
  longitude: '101.44316000'
- name: Kabupaten Bengkalis
  state_code: RI
  state_name: Riau
  latitude: '0.98380000'
  longitude: '102.50960000'
- name: Kabupaten Indragiri Hilir
  state_code: RI
  state_name: Riau
  latitude: "-0.33333000"
  longitude: '103.16667000'
- name: Kabupaten Indragiri Hulu
  state_code: RI
  state_name: Riau
  latitude: "-0.55000000"
  longitude: '102.31667000'
- name: Kabupaten Kampar
  state_code: RI
  state_name: Riau
  latitude: '0.23440000'
  longitude: '101.21310000'
- name: Kabupaten Kepulauan Meranti
  state_code: RI
  state_name: Riau
  latitude: '0.97488000'
  longitude: '102.69539000'
- name: Kabupaten Kuantan Singingi
  state_code: RI
  state_name: Riau
  latitude: "-0.47532000"
  longitude: '101.45857000'
- name: Kabupaten Pelalawan
  state_code: RI
  state_name: Riau
  latitude: '0.20822000'
  longitude: '102.18607000'
- name: Kabupaten Rokan Hilir
  state_code: RI
  state_name: Riau
  latitude: '2.16599000'
  longitude: '100.82514000'
- name: Kabupaten Rokan Hulu
  state_code: RI
  state_name: Riau
  latitude: '0.88333000'
  longitude: '100.48333000'
- name: Kabupaten Siak
  state_code: RI
  state_name: Riau
  latitude: '0.97453000'
  longitude: '102.01355000'
- name: Pekanbaru
  state_code: RI
  state_name: Riau
  latitude: '0.51667000'
  longitude: '101.44167000'
- name: Kabupaten Majene
  state_code: SR
  state_name: Sulawesi Barat
  latitude: "-3.15000000"
  longitude: '118.86667000'
- name: Kabupaten Mamasa
  state_code: SR
  state_name: Sulawesi Barat
  latitude: "-2.96492000"
  longitude: '119.30631000'
- name: Kabupaten Mamuju
  state_code: SR
  state_name: Sulawesi Barat
  latitude: "-2.50000000"
  longitude: '119.41667000'
- name: Kabupaten Mamuju Tengah
  state_code: SR
  state_name: Sulawesi Barat
  latitude: "-2.82120000"
  longitude: '119.26620000'
- name: Kabupaten Mamuju Utara
  state_code: SR
  state_name: Sulawesi Barat
  latitude: "-1.51639000"
  longitude: '119.42139000'
- name: Kabupaten Polewali Mandar
  state_code: SR
  state_name: Sulawesi Barat
  latitude: "-3.30000000"
  longitude: '119.16667000'
- name: Majene
  state_code: SR
  state_name: Sulawesi Barat
  latitude: "-3.54030000"
  longitude: '118.97070000'
- name: Mamuju
  state_code: SR
  state_name: Sulawesi Barat
  latitude: "-2.68056000"
  longitude: '118.88611000'
- name: Polewali
  state_code: SR
  state_name: Sulawesi Barat
  latitude: "-3.43240000"
  longitude: '119.34350000'
- name: Galesong
  state_code: SN
  state_name: Sulawesi Selatan
  latitude: "-5.31660000"
  longitude: '119.36610000'
- name: Kabupaten Bantaeng
  state_code: SN
  state_name: Sulawesi Selatan
  latitude: "-5.48333000"
  longitude: '119.98333000'
- name: Kabupaten Barru
  state_code: SN
  state_name: Sulawesi Selatan
  latitude: "-4.43333000"
  longitude: '119.68333000'
- name: Kabupaten Bone
  state_code: SN
  state_name: Sulawesi Selatan
  latitude: "-4.70000000"
  longitude: '120.13333000'
- name: Kabupaten Bulukumba
  state_code: SN
  state_name: Sulawesi Selatan
  latitude: "-5.41667000"
  longitude: '120.23333000'
- name: Kabupaten Enrekang
  state_code: SN
  state_name: Sulawesi Selatan
  latitude: "-3.50000000"
  longitude: '119.86667000'
- name: Kabupaten Gowa
  state_code: SN
  state_name: Sulawesi Selatan
  latitude: "-5.31667000"
  longitude: '119.75000000'
- name: Kabupaten Jeneponto
  state_code: SN
  state_name: Sulawesi Selatan
  latitude: "-5.63333000"
  longitude: '119.73333000'
- name: Kabupaten Luwu
  state_code: SN
  state_name: Sulawesi Selatan
  latitude: "-2.55770000"
  longitude: '121.32420000'
- name: Kabupaten Luwu Timur
  state_code: SN
  state_name: Sulawesi Selatan
  latitude: "-2.50957000"
  longitude: '120.39780000'
- name: Kabupaten Luwu Utara
  state_code: SN
  state_name: Sulawesi Selatan
  latitude: "-2.60000000"
  longitude: '120.25000000'
- name: Kabupaten Maros
  state_code: SN
  state_name: Sulawesi Selatan
  latitude: "-5.05000000"
  longitude: '119.71667000'
- name: Kabupaten Pangkajene Dan Kepulauan
  state_code: SN
  state_name: Sulawesi Selatan
  latitude: "-4.78270000"
  longitude: '119.55060000'
- name: Kabupaten Pinrang
  state_code: SN
  state_name: Sulawesi Selatan
  latitude: "-3.61667000"
  longitude: '119.60000000'
- name: Kabupaten Sidenreng Rappang
  state_code: SN
  state_name: Sulawesi Selatan
  latitude: "-3.85000000"
  longitude: '119.96667000'
- name: Kabupaten Sinjai
  state_code: SN
  state_name: Sulawesi Selatan
  latitude: "-5.21667000"
  longitude: '120.15000000'
- name: Kabupaten Soppeng
  state_code: SN
  state_name: Sulawesi Selatan
  latitude: "-4.38420000"
  longitude: '119.89000000'
- name: Kabupaten Takalar
  state_code: SN
  state_name: Sulawesi Selatan
  latitude: "-5.41667000"
  longitude: '119.51667000'
- name: Kabupaten Tana Toraja
  state_code: SN
  state_name: Sulawesi Selatan
  latitude: "-3.00240000"
  longitude: '119.79655000'
- name: Kabupaten Toraja Utara
  state_code: SN
  state_name: Sulawesi Selatan
  latitude: "-2.92738000"
  longitude: '119.79218000'
- name: Kabupaten Wajo
  state_code: SN
  state_name: Sulawesi Selatan
  latitude: "-4.00000000"
  longitude: '120.16667000'
- name: Makassar
  state_code: SN
  state_name: Sulawesi Selatan
  latitude: "-5.14861000"
  longitude: '119.43194000'
- name: Maros
  state_code: SN
  state_name: Sulawesi Selatan
  latitude: "-5.00600000"
  longitude: '119.57270000'
- name: Palopo
  state_code: SN
  state_name: Sulawesi Selatan
  latitude: "-2.99250000"
  longitude: '120.19694000'
- name: Parepare
  state_code: SN
  state_name: Sulawesi Selatan
  latitude: "-4.01350000"
  longitude: '119.62550000'
- name: Rantepao
  state_code: SN
  state_name: Sulawesi Selatan
  latitude: "-2.97010000"
  longitude: '119.89780000'
- name: Selayar Islands Regency
  state_code: SN
  state_name: Sulawesi Selatan
  latitude: "-6.81667000"
  longitude: '120.80000000'
- name: Sengkang
  state_code: SN
  state_name: Sulawesi Selatan
  latitude: "-4.12790000"
  longitude: '120.02970000'
- name: Sinjai
  state_code: SN
  state_name: Sulawesi Selatan
  latitude: "-5.12410000"
  longitude: '120.25300000'
- name: Watampone
  state_code: SN
  state_name: Sulawesi Selatan
  latitude: "-4.53860000"
  longitude: '120.32790000'
- name: Kabupaten Banggai
  state_code: ST
  state_name: Sulawesi Tengah
  latitude: "-0.91141000"
  longitude: '122.71836000'
- name: Kabupaten Banggai Kepulauan
  state_code: ST
  state_name: Sulawesi Tengah
  latitude: "-1.30236000"
  longitude: '123.03726000'
- name: Kabupaten Banggai Laut
  state_code: ST
  state_name: Sulawesi Tengah
  latitude: "-1.61841000"
  longitude: '123.49388000'
- name: Kabupaten Buol
  state_code: ST
  state_name: Sulawesi Tengah
  latitude: '1.04656000'
  longitude: '121.36867000'
- name: Kabupaten Donggala
  state_code: ST
  state_name: Sulawesi Tengah
  latitude: "-0.58333000"
  longitude: '119.85000000'
- name: Kabupaten Morowali Utara
  state_code: ST
  state_name: Sulawesi Tengah
  latitude: "-1.72070000"
  longitude: '121.24649000'
- name: Kabupaten Parigi Moutong
  state_code: ST
  state_name: Sulawesi Tengah
  latitude: '0.33680000'
  longitude: '120.17841000'
- name: Kabupaten Poso
  state_code: ST
  state_name: Sulawesi Tengah
  latitude: "-1.65000000"
  longitude: '120.50000000'
- name: Kabupaten Sigi
  state_code: ST
  state_name: Sulawesi Tengah
  latitude: "-1.38500000"
  longitude: '119.96694000'
- name: Kabupaten Toli-Toli
  state_code: ST
  state_name: Sulawesi Tengah
  latitude: '1.30862000'
  longitude: '120.88643000'
- name: Luwuk
  state_code: ST
  state_name: Sulawesi Tengah
  latitude: "-0.95160000"
  longitude: '122.78750000'
- name: Morowali Regency
  state_code: ST
  state_name: Sulawesi Tengah
  latitude: "-2.76062000"
  longitude: '121.95267000'
- name: Palu
  state_code: ST
  state_name: Sulawesi Tengah
  latitude: "-0.90833000"
  longitude: '119.87083000'
- name: Poso
  state_code: ST
  state_name: Sulawesi Tengah
  latitude: "-1.39590000"
  longitude: '120.75240000'
- name: Tojo Una-Una Regency
  state_code: ST
  state_name: Sulawesi Tengah
  latitude: "-1.20360000"
  longitude: '121.48201000'
- name: Kabupaten Bombana
  state_code: SG
  state_name: Sulawesi Tenggara
  latitude: "-4.62570000"
  longitude: '121.81641000'
- name: Kabupaten Buton
  state_code: SG
  state_name: Sulawesi Tenggara
  latitude: "-5.31667000"
  longitude: '122.91667000'
- name: Kabupaten Buton Selatan
  state_code: SG
  state_name: Sulawesi Tenggara
  latitude: "-5.56667000"
  longitude: '122.70000000'
- name: Kabupaten Buton Tengah
  state_code: SG
  state_name: Sulawesi Tenggara
  latitude: "-5.31667000"
  longitude: '122.33333000'
- name: Kabupaten Buton Utara
  state_code: SG
  state_name: Sulawesi Tenggara
  latitude: "-5.01457000"
  longitude: '122.93015000'
- name: Kabupaten Kolaka
  state_code: SG
  state_name: Sulawesi Tenggara
  latitude: "-4.08333000"
  longitude: '121.66667000'
- name: Kabupaten Kolaka Timur
  state_code: SG
  state_name: Sulawesi Tenggara
  latitude: "-4.01807000"
  longitude: '121.86172000'
- name: Kabupaten Kolaka Utara
  state_code: SG
  state_name: Sulawesi Tenggara
  latitude: "-3.10452000"
  longitude: '121.12427000'
- name: Kabupaten Konawe
  state_code: SG
  state_name: Sulawesi Tenggara
  latitude: "-3.91717000"
  longitude: '122.08823000'
- name: Kabupaten Konawe Kepulauan
  state_code: SG
  state_name: Sulawesi Tenggara
  latitude: "-4.11656000"
  longitude: '123.10181000'
- name: Kabupaten Konawe Selatan
  state_code: SG
  state_name: Sulawesi Tenggara
  latitude: "-4.19191000"
  longitude: '122.44854000'
- name: Kabupaten Konawe Utara
  state_code: SG
  state_name: Sulawesi Tenggara
  latitude: "-3.41552000"
  longitude: '121.99081000'
- name: Kabupaten Muna
  state_code: SG
  state_name: Sulawesi Tenggara
  latitude: "-4.96667000"
  longitude: '122.66667000'
- name: Kabupaten Muna Barat
  state_code: SG
  state_name: Sulawesi Tenggara
  latitude: "-4.83333000"
  longitude: '122.48333000'
- name: Katabu
  state_code: SG
  state_name: Sulawesi Tenggara
  latitude: "-4.93330000"
  longitude: '122.51670000'
- name: Kendari
  state_code: SG
  state_name: Sulawesi Tenggara
  latitude: "-3.97780000"
  longitude: '122.51507000'
- name: Wakatobi Regency
  state_code: SG
  state_name: Sulawesi Tenggara
  latitude: "-5.31934000"
  longitude: '123.59480000'
- name: Kabupaten Bolaang Mongondow
  state_code: SA
  state_name: Sulawesi Utara
  latitude: '0.75000000'
  longitude: '124.08333000'
- name: Kabupaten Bolaang Mongondow Selatan
  state_code: SA
  state_name: Sulawesi Utara
  latitude: '0.40912000'
  longitude: '123.75961000'
- name: Kabupaten Bolaang Mongondow Timur
  state_code: SA
  state_name: Sulawesi Utara
  latitude: '0.72073000'
  longitude: '124.50256000'
- name: Kabupaten Bolaang Mongondow Utara
  state_code: SA
  state_name: Sulawesi Utara
  latitude: '0.78527000'
  longitude: '123.41766000'
- name: Kabupaten Kepulauan Sangihe
  state_code: SA
  state_name: Sulawesi Utara
  latitude: '3.50000000'
  longitude: '125.55000000'
- name: Kabupaten Kepulauan Talaud
  state_code: SA
  state_name: Sulawesi Utara
  latitude: '4.31178000'
  longitude: '126.78085000'
- name: Kabupaten Minahasa
  state_code: SA
  state_name: Sulawesi Utara
  latitude: '1.25370000'
  longitude: '124.83000000'
- name: Kabupaten Minahasa Selatan
  state_code: SA
  state_name: Sulawesi Utara
  latitude: '1.21291000'
  longitude: '124.59708000'
- name: Kabupaten Minahasa Tenggara
  state_code: SA
  state_name: Sulawesi Utara
  latitude: '1.05633000'
  longitude: '124.79250000'
- name: Kabupaten Minahasa Utara
  state_code: SA
  state_name: Sulawesi Utara
  latitude: '1.40250000'
  longitude: '124.96000000'
- name: Kabupaten Siau Tagulandang Biaro
  state_code: SA
  state_name: Sulawesi Utara
  latitude: '2.11728000'
  longitude: '125.37512000'
- name: Laikit Laikit II (Dimembe)
  state_code: SA
  state_name: Sulawesi Utara
  latitude: '1.48833000'
  longitude: '124.97444000'
- name: Manado
  state_code: SA
  state_name: Sulawesi Utara
  latitude: '1.48218000'
  longitude: '124.84892000'
- name: Tomohon
  state_code: SA
  state_name: Sulawesi Utara
  latitude: '1.31678000'
  longitude: '124.80379000'
- name: Tondano
  state_code: SA
  state_name: Sulawesi Utara
  latitude: '1.30540000'
  longitude: '124.91261000'
- name: Bukittinggi
  state_code: SB
  state_name: Sumatera Barat
  latitude: "-0.30907000"
  longitude: '100.37055000'
- name: Kabupaten Agam
  state_code: SB
  state_name: Sumatera Barat
  latitude: "-0.25000000"
  longitude: '100.16667000'
- name: Kabupaten Dharmasraya
  state_code: SB
  state_name: Sumatera Barat
  latitude: "-1.05000000"
  longitude: '101.36700000'
- name: Kabupaten Kepulauan Mentawai
  state_code: SB
  state_name: Sumatera Barat
  latitude: '1.98917000'
  longitude: '99.51889000'
- name: Kabupaten Lima Puluh Kota
  state_code: SB
  state_name: Sumatera Barat
  latitude: "-0.01680000"
  longitude: '100.58720000'
- name: Kabupaten Padang Pariaman
  state_code: SB
  state_name: Sumatera Barat
  latitude: "-0.60000000"
  longitude: '100.28333000'
- name: Kabupaten Pasaman
  state_code: SB
  state_name: Sumatera Barat
  latitude: '0.42503000'
  longitude: '99.94606000'
- name: Kabupaten Pasaman Barat
  state_code: SB
  state_name: Sumatera Barat
  latitude: '0.28152000'
  longitude: '99.51965000'
- name: Kabupaten Pesisir Selatan
  state_code: SB
  state_name: Sumatera Barat
  latitude: "-1.58333000"
  longitude: '100.85000000'
- name: Kabupaten Sijunjung
  state_code: SB
  state_name: Sumatera Barat
  latitude: "-1.18270000"
  longitude: '101.60560000'
- name: Kabupaten Solok
  state_code: SB
  state_name: Sumatera Barat
  latitude: "-0.96667000"
  longitude: '100.81667000'
- name: Kabupaten Solok Selatan
  state_code: SB
  state_name: Sumatera Barat
  latitude: "-1.23333000"
  longitude: '101.41700000'
- name: Kabupaten Tanah Datar
  state_code: SB
  state_name: Sumatera Barat
  latitude: "-0.45550000"
  longitude: '100.57710000'
- name: Padang
  state_code: SB
  state_name: Sumatera Barat
  latitude: "-0.94924000"
  longitude: '100.35427000'
- name: Pariaman
  state_code: SB
  state_name: Sumatera Barat
  latitude: "-0.61898000"
  longitude: '100.11997000'
- name: Payakumbuh
  state_code: SB
  state_name: Sumatera Barat
  latitude: "-0.21590000"
  longitude: '100.63340000'
- name: Sijunjung
  state_code: SB
  state_name: Sumatera Barat
  latitude: "-0.70050000"
  longitude: '100.97740000'
- name: Solok
  state_code: SB
  state_name: Sumatera Barat
  latitude: "-0.80060000"
  longitude: '100.65710000'
- name: Baturaja
  state_code: SS
  state_name: Sumatera Selatan
  latitude: "-4.12891000"
  longitude: '104.16695000'
- name: Kabupaten Empat Lawang
  state_code: SS
  state_name: Sumatera Selatan
  latitude: '3.22667000'
  longitude: '99.09256000'
- name: Kabupaten Muara Enim
  state_code: SS
  state_name: Sumatera Selatan
  latitude: "-4.23270000"
  longitude: '103.61410000'
- name: Kabupaten Musi Banyuasin
  state_code: SS
  state_name: Sumatera Selatan
  latitude: "-2.41667000"
  longitude: '103.75000000'
- name: Kabupaten Musi Rawas
  state_code: SS
  state_name: Sumatera Selatan
  latitude: "-3.08333000"
  longitude: '103.20000000'
- name: Kabupaten Musi Rawas Utara
  state_code: SS
  state_name: Sumatera Selatan
  latitude: "-2.48533000"
  longitude: '103.29346000'
- name: Kabupaten Ogan Ilir
  state_code: SS
  state_name: Sumatera Selatan
  latitude: "-3.43186000"
  longitude: '104.62727000'
- name: Kabupaten Ogan Komering Ilir
  state_code: SS
  state_name: Sumatera Selatan
  latitude: "-3.36667000"
  longitude: '105.36667000'
- name: Kabupaten Ogan Komering Ulu
  state_code: SS
  state_name: Sumatera Selatan
  latitude: "-4.13333000"
  longitude: '104.03333000'
- name: Kabupaten Ogan Komering Ulu Selatan
  state_code: SS
  state_name: Sumatera Selatan
  latitude: "-4.65728000"
  longitude: '104.00659000'
- name: Kabupaten Ogan Komering Ulu Timur
  state_code: SS
  state_name: Sumatera Selatan
  latitude: "-3.85679000"
  longitude: '104.75209000'
- name: Kabupaten Penukal Abab Lematang Ilir
  state_code: SS
  state_name: Sumatera Selatan
  latitude: "-3.21342000"
  longitude: '104.08722000'
- name: Lahat
  state_code: SS
  state_name: Sumatera Selatan
  latitude: "-3.78514000"
  longitude: '103.54279000'
- name: Lahat Regency
  state_code: SS
  state_name: Sumatera Selatan
  latitude: "-3.78640000"
  longitude: '103.54280000'
- name: Lubuklinggau
  state_code: SS
  state_name: Sumatera Selatan
  latitude: "-3.29450000"
  longitude: '102.86140000'
- name: Pagar Alam
  state_code: SS
  state_name: Sumatera Selatan
  latitude: "-4.02506000"
  longitude: '103.24694000'
- name: Palembang
  state_code: SS
  state_name: Sumatera Selatan
  latitude: "-2.91673000"
  longitude: '104.74580000'
- name: Prabumulih
  state_code: SS
  state_name: Sumatera Selatan
  latitude: "-3.43447000"
  longitude: '104.23056000'
- name: Tanjungagung
  state_code: SS
  state_name: Sumatera Selatan
  latitude: "-3.93728000"
  longitude: '103.80465000'
- name: Ambarita
  state_code: SU
  state_name: Sumatera Utara
  latitude: '2.68140000'
  longitude: '98.83110000'
- name: Bandar
  state_code: SU
  state_name: Sumatera Utara
  latitude: '2.05000000'
  longitude: '99.75000000'
- name: Belawan
  state_code: SU
  state_name: Sumatera Utara
  latitude: '3.77550000'
  longitude: '98.68320000'
- name: Berastagi
  state_code: SU
  state_name: Sumatera Utara
  latitude: '3.19468000'
  longitude: '98.50889000'
- name: Binjai
  state_code: SU
  state_name: Sumatera Utara
  latitude: '3.60010000'
  longitude: '98.48540000'
- name: Deli Tua
  state_code: SU
  state_name: Sumatera Utara
  latitude: '3.50780000'
  longitude: '98.68390000'
- name: Gunungsitoli
  state_code: SU
  state_name: Sumatera Utara
  latitude: '1.28880000'
  longitude: '97.61430000'
- name: Kabanjahe
  state_code: SU
  state_name: Sumatera Utara
  latitude: '3.10010000'
  longitude: '98.49080000'
- name: Kabupaten Asahan
  state_code: SU
  state_name: Sumatera Utara
  latitude: '2.78333000'
  longitude: '99.55000000'
- name: Kabupaten Batu Bara
  state_code: SU
  state_name: Sumatera Utara
  latitude: '3.16166000'
  longitude: '99.52652000'
- name: Kabupaten Dairi
  state_code: SU
  state_name: Sumatera Utara
  latitude: '2.86667000'
  longitude: '98.23333000'
- name: Kabupaten Deli Serdang
  state_code: SU
  state_name: Sumatera Utara
  latitude: '3.41667000'
  longitude: '98.66667000'
- name: Kabupaten Humbang Hasundutan
  state_code: SU
  state_name: Sumatera Utara
  latitude: '2.26551000'
  longitude: '98.50376000'
- name: Kabupaten Karo
  state_code: SU
  state_name: Sumatera Utara
  latitude: '3.11667000'
  longitude: '98.30000000'
- name: Kabupaten Labuhan Batu
  state_code: SU
  state_name: Sumatera Utara
  latitude: '2.26667000'
  longitude: '100.10000000'
- name: Kabupaten Labuhan Batu Selatan
  state_code: SU
  state_name: Sumatera Utara
  latitude: '1.98300000'
  longitude: '100.09760000'
- name: Kabupaten Labuhan Batu Utara
  state_code: SU
  state_name: Sumatera Utara
  latitude: '2.33349000'
  longitude: '99.63776000'
- name: Kabupaten Langkat
  state_code: SU
  state_name: Sumatera Utara
  latitude: '3.71667000'
  longitude: '98.21667000'
- name: Kabupaten Mandailing Natal
  state_code: SU
  state_name: Sumatera Utara
  latitude: '0.78378000'
  longitude: '99.25495000'
- name: Kabupaten Nias
  state_code: SU
  state_name: Sumatera Utara
  latitude: '1.03333000'
  longitude: '97.76667000'
- name: Kabupaten Nias Barat
  state_code: SU
  state_name: Sumatera Utara
  latitude: '1.05966000'
  longitude: '97.58606000'
- name: Kabupaten Nias Utara
  state_code: SU
  state_name: Sumatera Utara
  latitude: '1.33037000'
  longitude: '97.31964000'
- name: Kabupaten Padang Lawas
  state_code: SU
  state_name: Sumatera Utara
  latitude: '1.44684000'
  longitude: '99.99207000'
- name: Kabupaten Padang Lawas Utara
  state_code: SU
  state_name: Sumatera Utara
  latitude: '1.46011000'
  longitude: '99.67346000'
- name: Kabupaten Pakpak Bharat
  state_code: SU
  state_name: Sumatera Utara
  latitude: '2.56667000'
  longitude: '98.28333000'
- name: Kabupaten Samosir
  state_code: SU
  state_name: Sumatera Utara
  latitude: '2.64025000'
  longitude: '98.71525000'
- name: Kabupaten Serdang Bedagai
  state_code: SU
  state_name: Sumatera Utara
  latitude: '3.36667000'
  longitude: '99.03333000'
- name: Kabupaten Simalungun
  state_code: SU
  state_name: Sumatera Utara
  latitude: '2.90000000'
  longitude: '99.00000000'
- name: Kabupaten Tapanuli Selatan
  state_code: SU
  state_name: Sumatera Utara
  latitude: '1.51667000'
  longitude: '99.25000000'
- name: Kabupaten Tapanuli Tengah
  state_code: SU
  state_name: Sumatera Utara
  latitude: '1.90000000'
  longitude: '98.66667000'
- name: Kabupaten Tapanuli Utara
  state_code: SU
  state_name: Sumatera Utara
  latitude: '2.00280000'
  longitude: '99.07070000'
- name: Kisaran
  state_code: SU
  state_name: Sumatera Utara
  latitude: '2.98450000'
  longitude: '99.61580000'
- name: Labuhan Deli
  state_code: SU
  state_name: Sumatera Utara
  latitude: '3.72780000'
  longitude: '98.67380000'
- name: Medan
  state_code: SU
  state_name: Sumatera Utara
  latitude: '3.58333000'
  longitude: '98.66667000'
- name: Padangsidempuan
  state_code: SU
  state_name: Sumatera Utara
  latitude: '1.37952000'
  longitude: '99.27146000'
- name: Pangkalan Brandan
  state_code: SU
  state_name: Sumatera Utara
  latitude: '4.02380000'
  longitude: '98.27820000'
- name: Parapat
  state_code: SU
  state_name: Sumatera Utara
  latitude: '2.66300000'
  longitude: '98.93490000'
- name: Pekan Bahapal
  state_code: SU
  state_name: Sumatera Utara
  latitude: '3.11313000'
  longitude: '99.17352000'
- name: Pematangsiantar
  state_code: SU
  state_name: Sumatera Utara
  latitude: '2.95950000'
  longitude: '99.06870000'
- name: Perbaungan
  state_code: SU
  state_name: Sumatera Utara
  latitude: '3.56790000'
  longitude: '98.95600000'
- name: Percut
  state_code: SU
  state_name: Sumatera Utara
  latitude: '3.62530000'
  longitude: '98.86400000'
- name: Rantauprapat
  state_code: SU
  state_name: Sumatera Utara
  latitude: '2.10000000'
  longitude: '99.83333000'
- name: Sibolga
  state_code: SU
  state_name: Sumatera Utara
  latitude: '1.74016000'
  longitude: '98.78117000'
- name: Stabat
  state_code: SU
  state_name: Sumatera Utara
  latitude: '3.73335000'
  longitude: '98.45025000'
- name: Sunggal
  state_code: SU
  state_name: Sumatera Utara
  latitude: '3.57650000'
  longitude: '98.61510000'
- name: Tanjungbalai
  state_code: SU
  state_name: Sumatera Utara
  latitude: '2.96667000'
  longitude: '99.80000000'
- name: Tanjungtiram
  state_code: SU
  state_name: Sumatera Utara
  latitude: '4.06130000'
  longitude: '98.36990000'
- name: Tebingtinggi
  state_code: SU
  state_name: Sumatera Utara
  latitude: '3.32850000'
  longitude: '99.16250000'
- name: Teluk Nibung
  state_code: SU
  state_name: Sumatera Utara
  latitude: '3.00100000'
  longitude: '99.81640000'
- name: Tomok Bolon
  state_code: SU
  state_name: Sumatera Utara
  latitude: '2.65210000'
  longitude: '98.86080000'
- name: Tongging
  state_code: SU
  state_name: Sumatera Utara
  latitude: '2.89850000'
  longitude: '98.52310000'
- name: Tuktuk Sonak
  state_code: SU
  state_name: Sumatera Utara
  latitude: '2.66890000'
  longitude: '98.85760000'
