---
- name: Asara
  state_code: '30'
  state_name: Alborz
  latitude: '36.03913120'
  longitude: '51.19087090'
- name: Charbagh
  state_code: '30'
  state_name: Alborz
  latitude: '35.84060280'
  longitude: '50.83944800'
- name: Eshtehard
  state_code: '30'
  state_name: Alborz
  latitude: '35.72813000'
  longitude: '50.41422000'
- name: Fardis
  state_code: '30'
  state_name: Alborz
  latitude: '35.72318000'
  longitude: '50.97865000'
- name: Garmdareh
  state_code: '30'
  state_name: Alborz
  latitude: '35.75371760'
  longitude: '51.04707220'
- name: Golsar
  state_code: '30'
  state_name: Alborz
  latitude: '35.90777800'
  longitude: '50.78250000'
- name: Hashtgerd
  state_code: '30'
  state_name: Alborz
  latitude: '35.96194400'
  longitude: '50.68000000'
- name: Hashtgerd New City
  state_code: '30'
  state_name: Alborz
  latitude: '35.98327270'
  longitude: '50.68520960'
- name: Kamalshahr
  state_code: '30'
  state_name: Alborz
  latitude: '35.88239360'
  longitude: '50.84343850'
- name: Karaj
  state_code: '30'
  state_name: Alborz
  latitude: '35.83266000'
  longitude: '50.99155000'
- name: Koohsar
  state_code: '30'
  state_name: Alborz
  latitude: '35.96242640'
  longitude: '50.77578280'
- name: Mahdasht
  state_code: '30'
  state_name: Alborz
  latitude: '35.72040800'
  longitude: '50.76636250'
- name: Mohammad Shahr
  state_code: '30'
  state_name: Alborz
  latitude: '35.74468970'
  longitude: '50.87227770'
- name: Nazarabad
  state_code: '30'
  state_name: Alborz
  latitude: '35.95411000'
  longitude: '50.60607000'
- name: Savojbolagh
  state_code: '30'
  state_name: Alborz
  latitude: '36.00000000'
  longitude: '50.83333000'
- name: Taleqan
  state_code: '30'
  state_name: Alborz
  latitude: '36.20528000'
  longitude: '50.77610000'
- name: Tankaman
  state_code: '30'
  state_name: Alborz
  latitude: '35.89154410'
  longitude: '50.60591340'
- name: Abibeiglou
  state_code: '24'
  state_name: Ardabil
  latitude: '38.28362000'
  longitude: '48.54482890'
- name: Anbaran
  state_code: '24'
  state_name: Ardabil
  latitude: '38.48843440'
  longitude: '48.41767760'
- name: Ardabil
  state_code: '24'
  state_name: Ardabil
  latitude: '38.24980000'
  longitude: '48.29330000'
- name: Aslan Duz
  state_code: '24'
  state_name: Ardabil
  latitude: '39.44298680'
  longitude: '47.40042690'
- name: Bileh Savar
  state_code: '24'
  state_name: Ardabil
  latitude: '39.37961000'
  longitude: '48.35463000'
- name: Eslāmābād
  state_code: '24'
  state_name: Ardabil
  latitude: '38.13110480'
  longitude: '47.93918600'
- name: Fakhrabad
  state_code: '24'
  state_name: Ardabil
  latitude: '38.52260140'
  longitude: '47.85339830'
- name: Germi
  state_code: '24'
  state_name: Ardabil
  latitude: '39.00000000'
  longitude: '47.95000000'
- name: Hashjin
  state_code: '24'
  state_name: Ardabil
  latitude: '37.36980870'
  longitude: '48.31333280'
- name: Hir
  state_code: '24'
  state_name: Ardabil
  latitude: '38.07953040'
  longitude: '48.48940360'
- name: Jafarabad
  state_code: '24'
  state_name: Ardabil
  latitude: '39.42213160'
  longitude: '48.07888930'
- name: Khalkhal
  state_code: '24'
  state_name: Ardabil
  latitude: '37.40604000'
  longitude: '48.54466000'
- name: Kivi
  state_code: '24'
  state_name: Ardabil
  latitude: '37.69312310'
  longitude: '48.32075700'
- name: Kolor
  state_code: '24'
  state_name: Ardabil
  latitude: '37.38848590'
  longitude: '48.71668330'
- name: Kowsar
  state_code: '24'
  state_name: Ardabil
  latitude: '37.72142000'
  longitude: '48.26985000'
- name: Kuraim
  state_code: '24'
  state_name: Ardabil
  latitude: '37.95500000'
  longitude: '48.23555600'
- name: Lahroud
  state_code: '24'
  state_name: Ardabil
  latitude: '38.50801930'
  longitude: '47.82212370'
- name: Meshgin Shahr
  state_code: '24'
  state_name: Ardabil
  latitude: '38.43333000'
  longitude: '47.75000000'
- name: Moradlu
  state_code: '24'
  state_name: Ardabil
  latitude: '38.74800000'
  longitude: '47.74016620'
- name: Namin
  state_code: '24'
  state_name: Ardabil
  latitude: '38.38333000'
  longitude: '48.51667000'
- name: Nir
  state_code: '24'
  state_name: Ardabil
  latitude: '38.00000000'
  longitude: '48.08333000'
- name: Omidcheh
  state_code: '24'
  state_name: Ardabil
  latitude: '38.28667000'
  longitude: '48.14139000'
- name: Parsabad
  state_code: '24'
  state_name: Ardabil
  latitude: '39.64820000'
  longitude: '47.91740000'
- name: Qasabeh
  state_code: '24'
  state_name: Ardabil
  latitude: '38.38781300'
  longitude: '47.53829230'
- name: Razi
  state_code: '24'
  state_name: Ardabil
  latitude: '38.62486600'
  longitude: '48.08286670'
- name: Sarein
  state_code: '24'
  state_name: Ardabil
  latitude: '38.14643470'
  longitude: '48.05716020'
- name: Sareyn
  state_code: '24'
  state_name: Ardabil
  latitude: '38.18333000'
  longitude: '47.98333000'
- name: Tazakand
  state_code: '24'
  state_name: Ardabil
  latitude: '39.10450420'
  longitude: '44.89902010'
- name: Ab Pakhsh
  state_code: '18'
  state_name: Bushehr
  latitude: '29.36788550'
  longitude: '51.05140670'
- name: Abad
  state_code: '18'
  state_name: Bushehr
  latitude: '29.02994140'
  longitude: '51.23435480'
- name: Ahram
  state_code: '18'
  state_name: Bushehr
  latitude: '28.88260000'
  longitude: '51.27460000'
- name: Alishahr
  state_code: '18'
  state_name: Bushehr
  latitude: '28.93079290'
  longitude: '51.05608460'
- name: Anarestan
  state_code: '18'
  state_name: Bushehr
  latitude: '28.03242110'
  longitude: '52.05895180'
- name: Asaluyeh
  state_code: '18'
  state_name: Bushehr
  latitude: '27.45000000'
  longitude: '52.73333000'
- name: Baduleh
  state_code: '18'
  state_name: Bushehr
  latitude: '28.39721360'
  longitude: '51.49332760'
- name: Banak
  state_code: '18'
  state_name: Bushehr
  latitude: '27.86259810'
  longitude: '52.00103740'
- name: Bandar Bushehr
  state_code: '18'
  state_name: Bushehr
  latitude: '28.91090220'
  longitude: '50.83002130'
- name: Bandar Deylam
  state_code: '18'
  state_name: Bushehr
  latitude: '30.06097110'
  longitude: '50.14617180'
- name: Bandar Ganaveh
  state_code: '18'
  state_name: Bushehr
  latitude: '29.57910000'
  longitude: '50.51700000'
- name: Bandar Rig
  state_code: '18'
  state_name: Bushehr
  latitude: '29.48417390'
  longitude: '50.61869140'
- name: Bandar-e Kangan
  state_code: '18'
  state_name: Bushehr
  latitude: '27.83288720'
  longitude: '52.03707510'
- name: BandarSiraf
  state_code: '18'
  state_name: Bushehr
  latitude: '27.66442800'
  longitude: '52.32552030'
- name: Bardestan
  state_code: '18'
  state_name: Bushehr
  latitude: '27.87006400'
  longitude: '51.94125630'
- name: Borazjan
  state_code: '18'
  state_name: Bushehr
  latitude: '29.26990000'
  longitude: '51.21880000'
- name: Bord Khun
  state_code: '18'
  state_name: Bushehr
  latitude: '28.06421750'
  longitude: '51.47342790'
- name: Boshkan
  state_code: '18'
  state_name: Bushehr
  latitude: '28.83166590'
  longitude: '51.69114580'
- name: Bushehr
  state_code: '18'
  state_name: Bushehr
  latitude: '28.96887000'
  longitude: '50.83657000'
- name: Choghadak
  state_code: '18'
  state_name: Bushehr
  latitude: '28.98004950'
  longitude: '51.00757680'
- name: Dalaki
  state_code: '18'
  state_name: Bushehr
  latitude: '29.43023450'
  longitude: '51.28279560'
- name: Dashtestan
  state_code: '18'
  state_name: Bushehr
  latitude: '29.28333000'
  longitude: '51.25000000'
- name: Dashti
  state_code: '18'
  state_name: Bushehr
  latitude: '28.48685000'
  longitude: '51.56182000'
- name: Dayyer
  state_code: '18'
  state_name: Bushehr
  latitude: '27.84286870'
  longitude: '51.91832720'
- name: Delvar
  state_code: '18'
  state_name: Bushehr
  latitude: '28.75279600'
  longitude: '51.05192160'
- name: Deylam
  state_code: '18'
  state_name: Bushehr
  latitude: '30.02286000'
  longitude: '50.35595000'
- name: Dorahak
  state_code: '18'
  state_name: Bushehr
  latitude: '27.94859620'
  longitude: '51.95292940'
- name: Genaveh
  state_code: '18'
  state_name: Bushehr
  latitude: '29.64574000'
  longitude: '50.64699000'
- name: Imam Hassan
  state_code: '18'
  state_name: Bushehr
  latitude: '29.84250000'
  longitude: '50.26305600'
- name: Jam
  state_code: '18'
  state_name: Bushehr
  latitude: '27.81572560'
  longitude: '52.30998450'
- name: Kaki
  state_code: '18'
  state_name: Bushehr
  latitude: '28.34162750'
  longitude: '51.50626640'
- name: Kalameh
  state_code: '18'
  state_name: Bushehr
  latitude: '28.94047610'
  longitude: '51.45177470'
- name: Kangan
  state_code: '18'
  state_name: Bushehr
  latitude: '27.71330000'
  longitude: '52.26862000'
- name: Kharg
  state_code: '18'
  state_name: Bushehr
  latitude: '29.24059200'
  longitude: '50.27422810'
- name: Khark
  state_code: '18'
  state_name: Bushehr
  latitude: '29.26139000'
  longitude: '50.33056000'
- name: Khormoj
  state_code: '18'
  state_name: Bushehr
  latitude: '28.64840690'
  longitude: '51.35095520'
- name: Konar Torshan
  state_code: '18'
  state_name: Bushehr
  latitude: '28.07801520'
  longitude: '51.74254250'
- name: Nakhl Taghi
  state_code: '18'
  state_name: Bushehr
  latitude: '27.50035250'
  longitude: '52.57634380'
- name: Riz
  state_code: '18'
  state_name: Bushehr
  latitude: '28.05156760'
  longitude: '52.06435920'
- name: Sadabad
  state_code: '18'
  state_name: Bushehr
  latitude: '29.38580150'
  longitude: '51.11174580'
- name: Shaban Kareh
  state_code: '18'
  state_name: Bushehr
  latitude: '29.47081580'
  longitude: '50.97548950'
- name: Shonbeh
  state_code: '18'
  state_name: Bushehr
  latitude: '28.39593970'
  longitude: '51.75433880'
- name: Tang Eram
  state_code: '18'
  state_name: Bushehr
  latitude: '29.15332260'
  longitude: '51.51832580'
- name: Tangestan
  state_code: '18'
  state_name: Bushehr
  latitude: '28.88333000'
  longitude: '51.26667000'
- name: Vahdatiyeh
  state_code: '18'
  state_name: Bushehr
  latitude: '29.48645140'
  longitude: '51.21830440'
- name: Aluni
  state_code: '14'
  state_name: Chaharmahal and Bakhtiari
  latitude: '31.55421910'
  longitude: '51.04972240'
- name: Ardal
  state_code: '14'
  state_name: Chaharmahal and Bakhtiari
  latitude: '32.00501060'
  longitude: '50.61478550'
- name: Babaheydar
  state_code: '14'
  state_name: Chaharmahal and Bakhtiari
  latitude: '32.33058500'
  longitude: '50.45960420'
- name: Bazoft
  state_code: '14'
  state_name: Chaharmahal and Bakhtiari
  latitude: '32.20000000'
  longitude: '50.05000000'
- name: Ben
  state_code: '14'
  state_name: Chaharmahal and Bakhtiari
  latitude: '32.53556000'
  longitude: '50.75201000'
- name: Boldaji
  state_code: '14'
  state_name: Chaharmahal and Bakhtiari
  latitude: '31.93677560'
  longitude: '51.04458330'
- name: Boroujen
  state_code: '14'
  state_name: Chaharmahal and Bakhtiari
  latitude: '31.97268680'
  longitude: '51.27156200'
- name: Borujen
  state_code: '14'
  state_name: Chaharmahal and Bakhtiari
  latitude: '31.96523000'
  longitude: '51.28730000'
- name: Chelgard
  state_code: '14'
  state_name: Chaharmahal and Bakhtiari
  latitude: '32.46720000'
  longitude: '50.12229000'
- name: Chelgerd
  state_code: '14'
  state_name: Chaharmahal and Bakhtiari
  latitude: '32.46261960'
  longitude: '50.12346200'
- name: Choliche
  state_code: '14'
  state_name: Chaharmahal and Bakhtiari
  latitude: '32.23196940'
  longitude: '50.62066420'
- name: Dashtak
  state_code: '14'
  state_name: Chaharmahal and Bakhtiari
  latitude: '32.16260720'
  longitude: '50.44992680'
- name: Dastena
  state_code: '14'
  state_name: Chaharmahal and Bakhtiari
  latitude: '32.05881780'
  longitude: '50.76100940'
- name: Faradonbeh
  state_code: '14'
  state_name: Chaharmahal and Bakhtiari
  latitude: '32.00967370'
  longitude: '51.19972210'
- name: Farrokh Shahr
  state_code: '14'
  state_name: Chaharmahal and Bakhtiari
  latitude: '32.27174000'
  longitude: '50.98008000'
- name: Farrokhshahr
  state_code: '14'
  state_name: Chaharmahal and Bakhtiari
  latitude: '32.27076050'
  longitude: '50.93707970'
- name: Farsan
  state_code: '14'
  state_name: Chaharmahal and Bakhtiari
  latitude: '32.25694000'
  longitude: '50.56095000'
- name: Gahru
  state_code: '14'
  state_name: Chaharmahal and Bakhtiari
  latitude: '32.00802020'
  longitude: '50.87719190'
- name: Gandoman
  state_code: '14'
  state_name: Chaharmahal and Bakhtiari
  latitude: '31.86348680'
  longitude: '51.13710870'
- name: Gujan
  state_code: '14'
  state_name: Chaharmahal and Bakhtiari
  latitude: '32.24561880'
  longitude: '50.54045680'
- name: Haarooni
  state_code: '14'
  state_name: Chaharmahal and Bakhtiari
  latitude: '32.39291700'
  longitude: '50.56652790'
- name: Hafshejan
  state_code: '14'
  state_name: Chaharmahal and Bakhtiari
  latitude: '32.22555600'
  longitude: '50.79388900'
- name: Junqan
  state_code: '14'
  state_name: Chaharmahal and Bakhtiari
  latitude: '32.15297870'
  longitude: '50.67785030'
- name: Kaj
  state_code: '14'
  state_name: Chaharmahal and Bakhtiari
  latitude: '32.05868180'
  longitude: '50.57817940'
- name: Kal Geh-ye Sardasht
  state_code: '14'
  state_name: Chaharmahal and Bakhtiari
  latitude: '31.39583300'
  longitude: '50.83583300'
- name: Kiar
  state_code: '14'
  state_name: Chaharmahal and Bakhtiari
  latitude: '32.00000000'
  longitude: '50.76667000'
- name: Kuhrang
  state_code: '14'
  state_name: Chaharmahal and Bakhtiari
  latitude: '32.41667000'
  longitude: '50.00000000'
- name: Lordegan
  state_code: '14'
  state_name: Chaharmahal and Bakhtiari
  latitude: '31.43333000'
  longitude: '50.83333000'
- name: Mal-e Khalifeh
  state_code: '14'
  state_name: Chaharmahal and Bakhtiari
  latitude: '31.29168000'
  longitude: '51.25682120'
- name: Menj
  state_code: '14'
  state_name: Chaharmahal and Bakhtiari
  latitude: '31.48467380'
  longitude: '50.87308270'
- name: Nafch
  state_code: '14'
  state_name: Chaharmahal and Bakhtiari
  latitude: '32.42311540'
  longitude: '50.77988140'
- name: Naghan
  state_code: '14'
  state_name: Chaharmahal and Bakhtiari
  latitude: '31.93457630'
  longitude: '50.72042630'
- name: Naghneh
  state_code: '14'
  state_name: Chaharmahal and Bakhtiari
  latitude: '31.93395290'
  longitude: '51.32190230'
- name: Pordanjan
  state_code: '14'
  state_name: Chaharmahal and Bakhtiari
  latitude: '32.25403890'
  longitude: '50.59079640'
- name: Saman
  state_code: '14'
  state_name: Chaharmahal and Bakhtiari
  latitude: '32.44980000'
  longitude: '50.91379000'
- name: Samsami
  state_code: '14'
  state_name: Chaharmahal and Bakhtiari
  latitude: '32.16811120'
  longitude: '50.27090540'
- name: SarKhun
  state_code: '14'
  state_name: Chaharmahal and Bakhtiari
  latitude: '31.74577700'
  longitude: '50.54092890'
- name: Sefiddasht
  state_code: '14'
  state_name: Chaharmahal and Bakhtiari
  latitude: '32.13223020'
  longitude: '51.17423050'
- name: Shahrekord
  state_code: '14'
  state_name: Chaharmahal and Bakhtiari
  latitude: '32.31667000'
  longitude: '50.80000000'
- name: ShahrKian
  state_code: '14'
  state_name: Chaharmahal and Bakhtiari
  latitude: '32.28446520'
  longitude: '50.88317860'
- name: 'Shalamzar '
  state_code: '14'
  state_name: Chaharmahal and Bakhtiari
  latitude: '32.04720560'
  longitude: '50.80899950'
- name: Sudejan
  state_code: '14'
  state_name: Chaharmahal and Bakhtiari
  latitude: '32.52143210'
  longitude: '50.39623970'
- name: Sureshjan
  state_code: '14'
  state_name: Chaharmahal and Bakhtiari
  latitude: '32.31709400'
  longitude: '50.67117690'
- name: Taqanak
  state_code: '14'
  state_name: Chaharmahal and Bakhtiari
  latitude: '32.22333300'
  longitude: '50.83861100'
- name: 'Vardanjan '
  state_code: '14'
  state_name: Chaharmahal and Bakhtiari
  latitude: '32.47903740'
  longitude: '50.75005520'
- name: Abeshahmad
  state_code: '03'
  state_name: East Azerbaijan
  latitude: '39.04976740'
  longitude: '47.30755790'
- name: Achachi
  state_code: '03'
  state_name: East Azerbaijan
  latitude: '37.39543380'
  longitude: '47.79039870'
- name: Ahar
  state_code: '03'
  state_name: East Azerbaijan
  latitude: '38.47740000'
  longitude: '47.06990000'
- name: Ajabshir
  state_code: '03'
  state_name: East Azerbaijan
  latitude: '37.47760000'
  longitude: '45.89430000'
- name: Aqkend
  state_code: '03'
  state_name: East Azerbaijan
  latitude: '37.25776990'
  longitude: '48.06143040'
- name: Azarshahr
  state_code: '03'
  state_name: East Azerbaijan
  latitude: '37.75001000'
  longitude: '45.83334000'
- name: Bakhshāyesh
  state_code: '03'
  state_name: East Azerbaijan
  latitude: '38.13113810'
  longitude: '46.93808910'
- name: Basmenj
  state_code: '03'
  state_name: East Azerbaijan
  latitude: '38.00133160'
  longitude: '46.44624690'
- name: Benab e Marand
  state_code: '03'
  state_name: East Azerbaijan
  latitude: '38.42810110'
  longitude: '45.90225220'
- name: Bonab
  state_code: '03'
  state_name: East Azerbaijan
  latitude: '37.34040000'
  longitude: '46.05610000'
- name: Bostan Abad
  state_code: '03'
  state_name: East Azerbaijan
  latitude: '37.83949300'
  longitude: '46.80963270'
- name: Bostanabad
  state_code: '03'
  state_name: East Azerbaijan
  latitude: '37.83333000'
  longitude: '46.83333000'
- name: Charavimaq
  state_code: '03'
  state_name: East Azerbaijan
  latitude: '37.10012000'
  longitude: '47.06680000'
- name: Duzduzan
  state_code: '03'
  state_name: East Azerbaijan
  latitude: '37.94875740'
  longitude: '47.11409570'
- name: Gogan
  state_code: '03'
  state_name: East Azerbaijan
  latitude: '37.78153460'
  longitude: '45.89832550'
- name: Hadishahr
  state_code: '03'
  state_name: East Azerbaijan
  latitude: '38.82833100'
  longitude: '45.62179980'
- name: Hashtrood
  state_code: '03'
  state_name: East Azerbaijan
  latitude: '37.47750290'
  longitude: '47.03698730'
- name: Hashtrud
  state_code: '03'
  state_name: East Azerbaijan
  latitude: '37.47790000'
  longitude: '47.05080000'
- name: Heris
  state_code: '03'
  state_name: East Azerbaijan
  latitude: '38.23058000'
  longitude: '46.84011000'
- name: Hurand
  state_code: '03'
  state_name: East Azerbaijan
  latitude: '38.85916700'
  longitude: '47.36861100'
- name: Ilkhichi
  state_code: '03'
  state_name: East Azerbaijan
  latitude: '37.93748590'
  longitude: '45.94332160'
- name: Javan Qala
  state_code: '03'
  state_name: East Azerbaijan
  latitude: '37.49714170'
  longitude: '45.97186080'
- name: Jolfa
  state_code: '03'
  state_name: East Azerbaijan
  latitude: '38.83343000'
  longitude: '45.91680000'
- name: Kaleybar
  state_code: '03'
  state_name: East Azerbaijan
  latitude: '38.86672580'
  longitude: '47.02453120'
- name: Kelvanaq
  state_code: '03'
  state_name: East Azerbaijan
  latitude: '38.10249790'
  longitude: '46.98483460'
- name: Khaje
  state_code: '03'
  state_name: East Azerbaijan
  latitude: '38.15275670'
  longitude: '46.58237460'
- name: Khamaneh
  state_code: '03'
  state_name: East Azerbaijan
  latitude: '38.18523560'
  longitude: '45.61308840'
- name: Kharajoo
  state_code: '03'
  state_name: East Azerbaijan
  latitude: '37.30978140'
  longitude: '46.52171360'
- name: Kharvana
  state_code: '03'
  state_name: East Azerbaijan
  latitude: '38.68560950'
  longitude: '46.15987300'
- name: Khoda Afarin
  state_code: '03'
  state_name: East Azerbaijan
  latitude: '39.06667000'
  longitude: '46.95000000'
- name: Khomarlu
  state_code: '03'
  state_name: East Azerbaijan
  latitude: '39.15455660'
  longitude: '47.02483170'
- name: Khosrowshah
  state_code: '03'
  state_name: East Azerbaijan
  latitude: '37.96330460'
  longitude: '46.01503310'
- name: Koozehkonan
  state_code: '03'
  state_name: East Azerbaijan
  latitude: '38.19320240'
  longitude: '45.54328630'
- name: Koshksaray
  state_code: '03'
  state_name: East Azerbaijan
  latitude: '38.45962010'
  longitude: '45.55695530'
- name: Leilan
  state_code: '03'
  state_name: East Azerbaijan
  latitude: '37.01165090'
  longitude: '46.19523520'
- name: Malekan
  state_code: '03'
  state_name: East Azerbaijan
  latitude: '37.13338000'
  longitude: '46.21667000'
- name: Mamaqan
  state_code: '03'
  state_name: East Azerbaijan
  latitude: '37.85616440'
  longitude: '45.92748410'
- name: Maragheh
  state_code: '03'
  state_name: East Azerbaijan
  latitude: '37.38061000'
  longitude: '46.39372000'
- name: Marand
  state_code: '03'
  state_name: East Azerbaijan
  latitude: '38.43290000'
  longitude: '45.77490000'
- name: Mehraban
  state_code: '03'
  state_name: East Azerbaijan
  latitude: '38.08148170'
  longitude: '47.12825770'
- name: Mianeh
  state_code: '03'
  state_name: East Azerbaijan
  latitude: '37.41667000'
  longitude: '47.70000000'
- name: Mobarak Abad
  state_code: '03'
  state_name: East Azerbaijan
  latitude: '37.18030400'
  longitude: '46.05071780'
- name: Nazarkahrizi
  state_code: '03'
  state_name: East Azerbaijan
  latitude: '37.34737060'
  longitude: '46.75960420'
- name: Osku
  state_code: '03'
  state_name: East Azerbaijan
  latitude: '37.95005000'
  longitude: '45.88340000'
- name: Qareh Aghaj
  state_code: '03'
  state_name: East Azerbaijan
  latitude: '37.12856190'
  longitude: '46.96478250'
- name: Sahand
  state_code: '03'
  state_name: East Azerbaijan
  latitude: '37.94212840'
  longitude: '46.11317040'
- name: Sarab
  state_code: '03'
  state_name: East Azerbaijan
  latitude: '37.94080000'
  longitude: '47.53670000'
- name: Sardroud
  state_code: '03'
  state_name: East Azerbaijan
  latitude: '38.03123850'
  longitude: '46.12973630'
- name: Shabestar
  state_code: '03'
  state_name: East Azerbaijan
  latitude: '38.18273990'
  longitude: '45.68192460'
- name: Sharabian
  state_code: '03'
  state_name: East Azerbaijan
  latitude: '37.88192420'
  longitude: '47.09549190'
- name: Sharafkhaneh
  state_code: '03'
  state_name: East Azerbaijan
  latitude: '38.17865710'
  longitude: '45.46786290'
- name: Shendabad
  state_code: '03'
  state_name: East Azerbaijan
  latitude: '38.14561010'
  longitude: '45.61905390'
- name: Siahrood
  state_code: '03'
  state_name: East Azerbaijan
  latitude: '38.86877450'
  longitude: '45.99665520'
- name: Sis
  state_code: '03'
  state_name: East Azerbaijan
  latitude: '38.19685870'
  longitude: '45.81075660'
- name: Soufian
  state_code: '03'
  state_name: East Azerbaijan
  latitude: '38.27831360'
  longitude: '45.97709660'
- name: Tabriz
  state_code: '03'
  state_name: East Azerbaijan
  latitude: '38.08000000'
  longitude: '46.29190000'
- name: Tark
  state_code: '03'
  state_name: East Azerbaijan
  latitude: '37.61736710'
  longitude: '47.76673070'
- name: Tasuj
  state_code: '03'
  state_name: East Azerbaijan
  latitude: '38.31615040'
  longitude: '45.33654190'
- name: Tekmeh Dash
  state_code: '03'
  state_name: East Azerbaijan
  latitude: '37.73535540'
  longitude: '46.93088980'
- name: Teymourlou
  state_code: '03'
  state_name: East Azerbaijan
  latitude: '37.81040850'
  longitude: '45.88154540'
- name: Turkman Chay
  state_code: '03'
  state_name: East Azerbaijan
  latitude: '37.58178980'
  longitude: '47.37021430'
- name: Vaighan
  state_code: '03'
  state_name: East Azerbaijan
  latitude: '38.12844590'
  longitude: '45.70490600'
- name: Varzaqan
  state_code: '03'
  state_name: East Azerbaijan
  latitude: '38.59492000'
  longitude: '46.46397000'
- name: Varzeqān
  state_code: '03'
  state_name: East Azerbaijan
  latitude: '38.58136590'
  longitude: '46.17000800'
- name: Yamchi
  state_code: '03'
  state_name: East Azerbaijan
  latitude: '38.52447740'
  longitude: '45.63416480'
- name: Zarnaq
  state_code: '03'
  state_name: East Azerbaijan
  latitude: '38.09240870'
  longitude: '47.07680230'
- name: Zonouz
  state_code: '03'
  state_name: East Azerbaijan
  latitude: '38.58949510'
  longitude: '45.82614190'
- name: Abadeh
  state_code: '07'
  state_name: Fars
  latitude: '31.16080000'
  longitude: '52.65060000'
- name: Abadeh Tashk
  state_code: '07'
  state_name: Fars
  latitude: '29.80720880'
  longitude: '53.72005450'
- name: Ahel
  state_code: '07'
  state_name: Fars
  latitude: '27.21120460'
  longitude: '53.65720510'
- name: Akbarabad
  state_code: '07'
  state_name: Fars
  latitude: '29.24640000'
  longitude: '52.77930000'
- name: Alamarvdasht
  state_code: '07'
  state_name: Fars
  latitude: '27.62517770'
  longitude: '52.99113750'
- name: Arsanjan
  state_code: '07'
  state_name: Fars
  latitude: '29.80000000'
  longitude: '53.41667000'
- name: Arsenjan
  state_code: '07'
  state_name: Fars
  latitude: '29.91892820'
  longitude: '53.28291870'
- name: Ashkanan
  state_code: '07'
  state_name: Fars
  latitude: '27.23524440'
  longitude: '53.58667360'
- name: Asir
  state_code: '07'
  state_name: Fars
  latitude: '27.72481010'
  longitude: '52.66111850'
- name: Baba Monir
  state_code: '07'
  state_name: Fars
  latitude: '30.07159140'
  longitude: '51.20029090'
- name: BabAnar
  state_code: '07'
  state_name: Fars
  latitude: '28.96416700'
  longitude: '53.21638900'
- name: Bahman
  state_code: '07'
  state_name: Fars
  latitude: '31.19345630'
  longitude: '52.47589580'
- name: 'Baladeh '
  state_code: '07'
  state_name: Fars
  latitude: '29.28302900'
  longitude: '51.92782400'
- name: Banaruyeh
  state_code: '07'
  state_name: Fars
  latitude: '28.08653670'
  longitude: '54.03974940'
- name: Bavanat
  state_code: '07'
  state_name: Fars
  latitude: '30.33333000'
  longitude: '53.66667000'
- name: Beyram
  state_code: '07'
  state_name: Fars
  latitude: '27.43173640'
  longitude: '53.50586420'
- name: Beyza
  state_code: '07'
  state_name: Fars
  latitude: '29.97198120'
  longitude: '52.39688860'
- name: City Kazeroon
  state_code: '07'
  state_name: Fars
  latitude: '29.62712330'
  longitude: '51.64962760'
- name: Dabiran
  state_code: '07'
  state_name: Fars
  latitude: '28.40752830'
  longitude: '54.16883220'
- name: Darab
  state_code: '07'
  state_name: Fars
  latitude: '28.75194000'
  longitude: '54.54444000'
- name: Dariun
  state_code: '07'
  state_name: Fars
  latitude: '29.56255730'
  longitude: '52.91882510'
- name: Dehram
  state_code: '07'
  state_name: Fars
  latitude: '28.49124870'
  longitude: '52.29977130'
- name: Dezhkord
  state_code: '07'
  state_name: Fars
  latitude: '30.72281950'
  longitude: '51.95147040'
- name: DoBorji
  state_code: '07'
  state_name: Fars
  latitude: '28.30666700'
  longitude: '55.19277800'
- name: Douzeh
  state_code: '07'
  state_name: Fars
  latitude: '28.70131620'
  longitude: '52.95476670'
- name: Efzar
  state_code: '07'
  state_name: Fars
  latitude: '28.34636970'
  longitude: '52.96109670'
- name: Eij
  state_code: '07'
  state_name: Fars
  latitude: '29.02248840'
  longitude: '54.23737580'
- name: Emad Deh
  state_code: '07'
  state_name: Fars
  latitude: '27.44620970'
  longitude: '53.85212660'
- name: Emam Shahr
  state_code: '07'
  state_name: Fars
  latitude: '28.44682660'
  longitude: '53.14627650'
- name: Eqlid
  state_code: '07'
  state_name: Fars
  latitude: '30.70000000'
  longitude: '52.40000000'
- name: Estahban
  state_code: '07'
  state_name: Fars
  latitude: '29.11667000'
  longitude: '54.00000000'
- name: Evaz
  state_code: '07'
  state_name: Fars
  latitude: '27.76295710'
  longitude: '53.97943440'
- name: 'Fadami '
  state_code: '07'
  state_name: Fars
  latitude: '28.21409230'
  longitude: '55.11737800'
- name: Farashband
  state_code: '07'
  state_name: Fars
  latitude: '28.75000000'
  longitude: '52.25000000'
- name: Fasa
  state_code: '07'
  state_name: Fars
  latitude: '28.96667000'
  longitude: '53.76667000'
- name: Firuzabad
  state_code: '07'
  state_name: Fars
  latitude: '28.84380000'
  longitude: '52.57070000'
- name: Galehdar
  state_code: '07'
  state_name: Fars
  latitude: '27.65744580'
  longitude: '52.62983260'
- name: Gerash
  state_code: '07'
  state_name: Fars
  latitude: '27.66966000'
  longitude: '54.13586000'
- name: Ghare Bolagh
  state_code: '07'
  state_name: Fars
  latitude: '28.92810000'
  longitude: '54.05090000'
- name: Ghirokarzin
  state_code: '07'
  state_name: Fars
  latitude: '28.33638090'
  longitude: '52.66841600'
- name: HajiAbad
  state_code: '07'
  state_name: Fars
  latitude: '29.65540700'
  longitude: '52.31150870'
- name: Hamashahr
  state_code: '07'
  state_name: Fars
  latitude: '30.11166700'
  longitude: '52.08277800'
- name: HasanAbad
  state_code: '07'
  state_name: Fars
  latitude: '30.52016170'
  longitude: '52.45160570'
- name: Hesami
  state_code: '07'
  state_name: Fars
  latitude: '29.96975010'
  longitude: '53.86682510'
- name: IzadKhast
  state_code: '07'
  state_name: Fars
  latitude: '31.51636070'
  longitude: '52.11609370'
- name: Jahrom
  state_code: '07'
  state_name: Fars
  latitude: '28.53058250'
  longitude: '53.51852170'
- name: JannatShahr
  state_code: '07'
  state_name: Fars
  latitude: '28.65398340'
  longitude: '54.67042500'
- name: Juyom
  state_code: '07'
  state_name: Fars
  latitude: '28.25891410'
  longitude: '53.96016580'
- name: Kamfiruz
  state_code: '07'
  state_name: Fars
  latitude: '30.32309970'
  longitude: '52.18398570'
- name: Karzin
  state_code: '07'
  state_name: Fars
  latitude: '28.43324410'
  longitude: '53.12390410'
- name: Kavar
  state_code: '07'
  state_name: Fars
  latitude: '29.21667000'
  longitude: '52.73333000'
- name: Kazerun
  state_code: '07'
  state_name: Fars
  latitude: '29.61919000'
  longitude: '51.65350000'
- name: KhaneZenian
  state_code: '07'
  state_name: Fars
  latitude: '29.67004760'
  longitude: '52.14333620'
- name: Khaniman
  state_code: '07'
  state_name: Fars
  latitude: '30.34916700'
  longitude: '52.24166700'
- name: Kharameh
  state_code: '07'
  state_name: Fars
  latitude: '29.50038570'
  longitude: '53.30107210'
- name: Khavaran
  state_code: '07'
  state_name: Fars
  latitude: '28.93684290'
  longitude: '53.31201550'
- name: Kherameh
  state_code: '07'
  state_name: Fars
  latitude: '29.50000000'
  longitude: '53.25000000'
- name: Khesht
  state_code: '07'
  state_name: Fars
  latitude: '27.23347270'
  longitude: '53.43067650'
- name: Khonj
  state_code: '07'
  state_name: Fars
  latitude: '27.88763700'
  longitude: '53.41157890'
- name: Khoome Zar
  state_code: '07'
  state_name: Fars
  latitude: '30.00924290'
  longitude: '51.56660550'
- name: Khoozi
  state_code: '07'
  state_name: Fars
  latitude: '27.44610520'
  longitude: '52.96075340'
- name: Khorrambid
  state_code: '07'
  state_name: Fars
  latitude: '30.50000000'
  longitude: '53.08333000'
- name: Khour
  state_code: '07'
  state_name: Fars
  latitude: '27.64191680'
  longitude: '54.33750230'
- name: Konartakhteh
  state_code: '07'
  state_name: Fars
  latitude: '29.52510620'
  longitude: '51.37342200'
- name: Kopen
  state_code: '07'
  state_name: Fars
  latitude: '30.33500890'
  longitude: '51.27854700'
- name: Korei
  state_code: '07'
  state_name: Fars
  latitude: '30.03036720'
  longitude: '53.70883220'
- name: Kouhenjan
  state_code: '07'
  state_name: Fars
  latitude: '29.23156770'
  longitude: '52.95320030'
- name: Koushkak
  state_code: '07'
  state_name: Fars
  latitude: '30.07373620'
  longitude: '52.58820540'
- name: Lamerd
  state_code: '07'
  state_name: Fars
  latitude: '27.36667000'
  longitude: '53.38333000'
- name: Lapouyee
  state_code: '07'
  state_name: Fars
  latitude: '29.79964990'
  longitude: '52.64236450'
- name: Lar
  state_code: '07'
  state_name: Fars
  latitude: '27.68336000'
  longitude: '54.34172000'
- name: Larestan
  state_code: '07'
  state_name: Fars
  latitude: '27.75000000'
  longitude: '54.45000000'
- name: Latifi
  state_code: '07'
  state_name: Fars
  latitude: '27.69024090'
  longitude: '54.37713040'
- name: Mamasani
  state_code: '07'
  state_name: Fars
  latitude: '30.03333000'
  longitude: '51.38333000'
- name: Marvdasht
  state_code: '07'
  state_name: Fars
  latitude: '30.08333000'
  longitude: '52.66667000'
- name: Masiri
  state_code: '07'
  state_name: Fars
  latitude: '30.24094560'
  longitude: '51.52066790'
- name: Mazayejan
  state_code: '07'
  state_name: Fars
  latitude: '28.05616020'
  longitude: '54.65025550'
- name: Meshkan
  state_code: '07'
  state_name: Fars
  latitude: '29.47403030'
  longitude: '54.32865840'
- name: Meymand
  state_code: '07'
  state_name: Fars
  latitude: '28.86776870'
  longitude: '52.73594130'
- name: Miyanshahr
  state_code: '07'
  state_name: Fars
  latitude: '28.71017970'
  longitude: '53.85154720'
- name: Mobarakabad
  state_code: '07'
  state_name: Fars
  latitude: '28.35972200'
  longitude: '53.32833300'
- name: Mohr
  state_code: '07'
  state_name: Fars
  latitude: '27.55520000'
  longitude: '52.88360000'
- name: Neyriz
  state_code: '07'
  state_name: Fars
  latitude: '29.19880000'
  longitude: '54.32780000'
- name: No Bandegan
  state_code: '07'
  state_name: Fars
  latitude: '28.85591230'
  longitude: '53.81496180'
- name: Nourabad
  state_code: '07'
  state_name: Fars
  latitude: '30.11349310'
  longitude: '51.50369100'
- name: Nowdan
  state_code: '07'
  state_name: Fars
  latitude: '29.80119540'
  longitude: '51.68421500'
- name: Nowjein
  state_code: '07'
  state_name: Fars
  latitude: '29.11848470'
  longitude: '51.98232590'
- name: Nurabad
  state_code: '07'
  state_name: Fars
  latitude: '30.11405000'
  longitude: '51.52174000'
- name: Pasargad
  state_code: '07'
  state_name: Fars
  latitude: '30.20194000'
  longitude: '53.18000000'
- name: PirCity
  state_code: '07'
  state_name: Fars
  latitude: '28.31454240'
  longitude: '54.31413150'
- name: Qaderabad
  state_code: '07'
  state_name: Fars
  latitude: '30.27834010'
  longitude: '53.25756670'
- name: Qaemyeh
  state_code: '07'
  state_name: Fars
  latitude: '29.85091920'
  longitude: '51.57323570'
- name: Qatruyeh
  state_code: '07'
  state_name: Fars
  latitude: '29.14584570'
  longitude: '54.69936130'
- name: Qir va Karzin
  state_code: '07'
  state_name: Fars
  latitude: '28.31667000'
  longitude: '52.90000000'
- name: QotbAbad
  state_code: '07'
  state_name: Fars
  latitude: '28.64848720'
  longitude: '53.61144090'
- name: RonizOlya
  state_code: '07'
  state_name: Fars
  latitude: '29.19133810'
  longitude: '53.76483680'
- name: Rostam
  state_code: '07'
  state_name: Fars
  latitude: '30.40000000'
  longitude: '51.41667000'
- name: SaadatShahr
  state_code: '07'
  state_name: Fars
  latitude: '30.08246270'
  longitude: '53.12756530'
- name: Sadra
  state_code: '07'
  state_name: Fars
  latitude: '29.80475780'
  longitude: '52.45825710'
- name: Safashahr
  state_code: '07'
  state_name: Fars
  latitude: '30.61431720'
  longitude: '53.17833400'
- name: Sarvestan
  state_code: '07'
  state_name: Fars
  latitude: '29.21667000'
  longitude: '53.13333000'
- name: Sedeh
  state_code: '07'
  state_name: Fars
  latitude: '30.70291140'
  longitude: '52.15963050'
- name: Sepidan
  state_code: '07'
  state_name: Fars
  latitude: '30.15000000'
  longitude: '52.10000000'
- name: Seyedan
  state_code: '07'
  state_name: Fars
  latitude: '30.00424490'
  longitude: '53.00122260'
- name: Sheshdeh
  state_code: '07'
  state_name: Fars
  latitude: '28.91250530'
  longitude: '53.99227100'
- name: Shiraz
  state_code: '07'
  state_name: Fars
  latitude: '29.61031000'
  longitude: '52.53113000'
- name: Soghad
  state_code: '07'
  state_name: Fars
  latitude: '31.19106770'
  longitude: '52.50031460'
- name: SoltanShahr
  state_code: '07'
  state_name: Fars
  latitude: '29.62961460'
  longitude: '53.23294400'
- name: Surmaq
  state_code: '07'
  state_name: Fars
  latitude: '31.03248980'
  longitude: '52.83048390'
- name: Varavi
  state_code: '07'
  state_name: Fars
  latitude: '27.46528850'
  longitude: '53.04411650'
- name: Zahedshahr
  state_code: '07'
  state_name: Fars
  latitude: '28.75180650'
  longitude: '53.78289130'
- name: Zarghan
  state_code: '07'
  state_name: Fars
  latitude: '29.76307670'
  longitude: '52.67474350'
- name: Zarrin Dasht
  state_code: '07'
  state_name: Fars
  latitude: '28.30000000'
  longitude: '54.46667000'
- name: سروستان
  state_code: '07'
  state_name: Fars
  latitude: '29.27022530'
  longitude: '53.20730190'
- name: Ahmadsargurab
  state_code: '01'
  state_name: Gilan
  latitude: '37.12805600'
  longitude: '49.36666700'
- name: Amlash
  state_code: '01'
  state_name: Gilan
  latitude: '37.09246800'
  longitude: '50.17314410'
- name: Asalem
  state_code: '01'
  state_name: Gilan
  latitude: '37.72003980'
  longitude: '48.92658170'
- name: Astaneh-ye Ashrafiyeh
  state_code: '01'
  state_name: Gilan
  latitude: '37.26318000'
  longitude: '49.94325000'
- name: astara
  state_code: '01'
  state_name: Gilan
  latitude: '38.33333000'
  longitude: '48.76667000'
- name: Bandar Anzali
  state_code: '01'
  state_name: Gilan
  latitude: '37.47318000'
  longitude: '49.45785000'
- name: Barehsar
  state_code: '01'
  state_name: Gilan
  latitude: '36.77599100'
  longitude: '49.74575040'
- name: Bazar Jomeh
  state_code: '01'
  state_name: Gilan
  latitude: '37.27945660'
  longitude: '49.37436040'
- name: Chaboksar
  state_code: '01'
  state_name: Gilan
  latitude: '36.97505830'
  longitude: '50.54664930'
- name: Chaf and Chamkhaleh
  state_code: '01'
  state_name: Gilan
  latitude: '37.22944400'
  longitude: '50.25388900'
- name: Choobar
  state_code: '01'
  state_name: Gilan
  latitude: '38.18351690'
  longitude: '48.87027790'
- name: Deylaman
  state_code: '01'
  state_name: Gilan
  latitude: '36.88609010'
  longitude: '49.90029930'
- name: Fuman
  state_code: '01'
  state_name: Gilan
  latitude: '37.16667000'
  longitude: '49.18333000'
- name: Gurab Zarmikh
  state_code: '01'
  state_name: Gilan
  latitude: '37.29829280'
  longitude: '49.20505980'
- name: Hashtpar
  state_code: '01'
  state_name: Gilan
  latitude: '37.79658000'
  longitude: '48.90521000'
- name: Haviq
  state_code: '01'
  state_name: Gilan
  latitude: '38.14750000'
  longitude: '48.89222200'
- name: Jirindih
  state_code: '01'
  state_name: Gilan
  latitude: '36.70054440'
  longitude: '49.78016850'
- name: Kelachay
  state_code: '01'
  state_name: Gilan
  latitude: '37.07707330'
  longitude: '50.38030730'
- name: Khomam
  state_code: '01'
  state_name: Gilan
  latitude: '37.38749490'
  longitude: '49.63949190'
- name: Khoshkebijar
  state_code: '01'
  state_name: Gilan
  latitude: '37.37479300'
  longitude: '49.73922700'
- name: Kiashahr
  state_code: '01'
  state_name: Gilan
  latitude: '37.41682790'
  longitude: '49.92925590'
- name: Kuchesfahan
  state_code: '01'
  state_name: Gilan
  latitude: '37.27838040'
  longitude: '49.76859950'
- name: Kumeleh
  state_code: '01'
  state_name: Gilan
  latitude: '37.15277800'
  longitude: '50.17694400'
- name: Lahijan
  state_code: '01'
  state_name: Gilan
  latitude: '37.21667000'
  longitude: '50.01667000'
- name: Langarud
  state_code: '01'
  state_name: Gilan
  latitude: '37.19548000'
  longitude: '50.15263000'
- name: Lasht-e Nesha
  state_code: '01'
  state_name: Gilan
  latitude: '37.36018660'
  longitude: '49.84508860'
- name: Lavandvil
  state_code: '01'
  state_name: Gilan
  latitude: '38.30771640'
  longitude: '48.84607290'
- name: Lisar
  state_code: '01'
  state_name: Gilan
  latitude: '37.95806970'
  longitude: '48.88967500'
- name: Louleman
  state_code: '01'
  state_name: Gilan
  latitude: '37.25747920'
  longitude: '49.80743050'
- name: Lowshan
  state_code: '01'
  state_name: Gilan
  latitude: '36.63216940'
  longitude: '49.49772640'
- name: Maklavan
  state_code: '01'
  state_name: Gilan
  latitude: '37.19555600'
  longitude: '49.19861100'
- name: Manjil
  state_code: '01'
  state_name: Gilan
  latitude: '36.74150000'
  longitude: '49.41610000'
- name: Marjaghal
  state_code: '01'
  state_name: Gilan
  latitude: '37.27555600'
  longitude: '49.36277800'
- name: Masal
  state_code: '01'
  state_name: Gilan
  latitude: '37.35000000'
  longitude: '48.98333000'
- name: Masuleh
  state_code: '01'
  state_name: Gilan
  latitude: '37.15699680'
  longitude: '48.97589190'
- name: Otaghvar
  state_code: '01'
  state_name: Gilan
  latitude: '37.10889440'
  longitude: '50.11271960'
- name: Paresar
  state_code: '01'
  state_name: Gilan
  latitude: '37.60172960'
  longitude: '49.06391210'
- name: Rahimabad
  state_code: '01'
  state_name: Gilan
  latitude: '37.02874220'
  longitude: '50.32571940'
- name: Ranekouh
  state_code: '01'
  state_name: Gilan
  latitude: '37.05229690'
  longitude: '50.21790480'
- name: Rasht
  state_code: '01'
  state_name: Gilan
  latitude: '37.27611000'
  longitude: '49.58862000'
- name: Rezvanshahr
  state_code: '01'
  state_name: Gilan
  latitude: '37.54976000'
  longitude: '49.13703000'
- name: Rod Baneh
  state_code: '01'
  state_name: Gilan
  latitude: '37.25551520'
  longitude: '50.00032430'
- name: Rostamabad
  state_code: '01'
  state_name: Gilan
  latitude: '36.89948990'
  longitude: '49.47362410'
- name: Rudbar
  state_code: '01'
  state_name: Gilan
  latitude: '36.80000000'
  longitude: '49.60000000'
- name: Rudsar
  state_code: '01'
  state_name: Gilan
  latitude: '37.13696000'
  longitude: '50.29174000'
- name: Sangar
  state_code: '01'
  state_name: Gilan
  latitude: '37.17965610'
  longitude: '49.68532780'
- name: Shaft
  state_code: '01'
  state_name: Gilan
  latitude: '37.06483110'
  longitude: '49.17771370'
- name: Shalman
  state_code: '01'
  state_name: Gilan
  latitude: '37.15916990'
  longitude: '50.20692950'
- name: Siahkal
  state_code: '01'
  state_name: Gilan
  latitude: '36.93333000'
  longitude: '49.90000000'
- name: Someh Sara
  state_code: '01'
  state_name: Gilan
  latitude: '37.33333000'
  longitude: '49.30000000'
- name: Talesh
  state_code: '01'
  state_name: Gilan
  latitude: '37.90000000'
  longitude: '48.78333000'
- name: Tutkabon
  state_code: '01'
  state_name: Gilan
  latitude: '36.89090440'
  longitude: '49.52147480'
- name: Vajargah
  state_code: '01'
  state_name: Gilan
  latitude: '37.04083300'
  longitude: '50.40861100'
- name: Ziabar
  state_code: '01'
  state_name: Gilan
  latitude: '37.42610000'
  longitude: '49.24590000'
- name: Aliabad-e-Katul
  state_code: '27'
  state_name: Golestan
  latitude: '36.91016390'
  longitude: '54.83907210'
- name: Anbar Olum
  state_code: '27'
  state_name: Golestan
  latitude: '37.13300090'
  longitude: '54.61230750'
- name: Aq Qala
  state_code: '27'
  state_name: Golestan
  latitude: '37.16667000'
  longitude: '54.58333000'
- name: Aq Qayeh
  state_code: '27'
  state_name: Golestan
  latitude: '37.27472000'
  longitude: '55.15889000'
- name: Azadshahr
  state_code: '27'
  state_name: Golestan
  latitude: '37.08641000'
  longitude: '55.17222000'
- name: Bandar Torkaman
  state_code: '27'
  state_name: Golestan
  latitude: '36.90507650'
  longitude: '54.03526730'
- name: Bandar-e Gaz
  state_code: '27'
  state_name: Golestan
  latitude: '36.77416700'
  longitude: '53.94805600'
- name: Daland
  state_code: '27'
  state_name: Golestan
  latitude: '37.03465860'
  longitude: '55.03712660'
- name: Faraqi
  state_code: '27'
  state_name: Golestan
  latitude: '37.26035860'
  longitude: '55.16635490'
- name: Fazelabad
  state_code: '27'
  state_name: Golestan
  latitude: '36.89410210'
  longitude: '54.73096840'
- name: Galikesh
  state_code: '27'
  state_name: Golestan
  latitude: '37.30000000'
  longitude: '55.65000000'
- name: Gomish Tepe
  state_code: '27'
  state_name: Golestan
  latitude: '37.07166700'
  longitude: '54.07666700'
- name: Gomishan
  state_code: '27'
  state_name: Golestan
  latitude: '37.15000000'
  longitude: '54.15000000'
- name: Gonbad Kavus
  state_code: '27'
  state_name: Golestan
  latitude: '37.25004000'
  longitude: '55.16721000'
- name: Gorgan
  state_code: '27'
  state_name: Golestan
  latitude: '36.84270000'
  longitude: '54.44391000'
- name: Incheboron
  state_code: '27'
  state_name: Golestan
  latitude: '37.45422400'
  longitude: '54.71541160'
- name: Jelin
  state_code: '27'
  state_name: Golestan
  latitude: '36.85127690'
  longitude: '54.52793600'
- name: Kalaleh
  state_code: '27'
  state_name: Golestan
  latitude: '37.37899000'
  longitude: '55.49300000'
- name: Khānbebin
  state_code: '27'
  state_name: Golestan
  latitude: '37.00947410'
  longitude: '54.97964140'
- name: Kordkuy
  state_code: '27'
  state_name: Golestan
  latitude: '36.68333000'
  longitude: '54.20000000'
- name: Maraveh
  state_code: '27'
  state_name: Golestan
  latitude: '37.90416700'
  longitude: '55.95583300'
- name: Maraveh Tappeh
  state_code: '27'
  state_name: Golestan
  latitude: '37.85000000'
  longitude: '55.91667000'
- name: Mazraeh
  state_code: '27'
  state_name: Golestan
  latitude: '36.95386110'
  longitude: '54.85471500'
- name: Minudasht
  state_code: '27'
  state_name: Golestan
  latitude: '37.11667000'
  longitude: '55.45000000'
- name: Neginshahr
  state_code: '27'
  state_name: Golestan
  latitude: '37.13936470'
  longitude: '55.15758990'
- name: Nowdeh Khanduz
  state_code: '27'
  state_name: Golestan
  latitude: '37.07449880'
  longitude: '55.25308730'
- name: Nowkandeh
  state_code: '27'
  state_name: Golestan
  latitude: '36.74051840'
  longitude: '53.88399070'
- name: Qarnabad
  state_code: '27'
  state_name: Golestan
  latitude: '36.82203000'
  longitude: '54.59222000'
- name: Ramian
  state_code: '27'
  state_name: Golestan
  latitude: '36.93333000'
  longitude: '55.08333000'
- name: Sangdevin
  state_code: '27'
  state_name: Golestan
  latitude: '36.99793400'
  longitude: '54.85263350'
- name: Sarkhon Kalateh
  state_code: '27'
  state_name: Golestan
  latitude: '36.89138900'
  longitude: '54.56916700'
- name: Siminshahr
  state_code: '27'
  state_name: Golestan
  latitude: '37.01276160'
  longitude: '54.21581250'
- name: Tatar Olia
  state_code: '27'
  state_name: Golestan
  latitude: '37.11100750'
  longitude: '55.04270560'
- name: Torkaman
  state_code: '27'
  state_name: Golestan
  latitude: '36.90000000'
  longitude: '54.16667000'
- name: Ab Meshkin
  state_code: '13'
  state_name: Hamadan
  latitude: '35.61305556'
  longitude: '48.26916667'
- name: Abarlaq-e Sofla
  state_code: '13'
  state_name: Hamadan
  latitude: '34.67138889'
  longitude: '48.22833333'
- name: Abdalan
  state_code: '13'
  state_name: Hamadan
  latitude: '34.65277778'
  longitude: '48.24555556'
- name: Abdol Rahim
  state_code: '13'
  state_name: Hamadan
  latitude: '34.62638889'
  longitude: '49.01750000'
- name: Abrumand
  state_code: '13'
  state_name: Hamadan
  latitude: '34.90277778'
  longitude: '48.32027778'
- name: Abshineh
  state_code: '13'
  state_name: Hamadan
  latitude: '34.78194400'
  longitude: '48.61472200'
- name: Abu ol Fathabad
  state_code: '13'
  state_name: Hamadan
  latitude: '34.05666667'
  longitude: '48.50916667'
- name: Aghcheh Qayah
  state_code: '13'
  state_name: Hamadan
  latitude: '35.35000000'
  longitude: '48.34250000'
- name: Ahmadabad-e Tappeh
  state_code: '13'
  state_name: Hamadan
  latitude: '34.61277778'
  longitude: '48.99277778'
- name: Ahu Tappeh
  state_code: '13'
  state_name: Hamadan
  latitude: '34.93777778'
  longitude: '48.00111111'
- name: Ajin
  state_code: '13'
  state_name: Hamadan
  latitude: '34.73611111'
  longitude: '47.92416667'
- name: Ajorlu
  state_code: '13'
  state_name: Hamadan
  latitude: '35.13833333'
  longitude: '49.22944444'
- name: Akanlu
  state_code: '13'
  state_name: Hamadan
  latitude: '35.61416667'
  longitude: '48.18805556'
- name: Akleh
  state_code: '13'
  state_name: Hamadan
  latitude: '35.20277778'
  longitude: '49.08250000'
- name: Alan-e Sofla
  state_code: '13'
  state_name: Hamadan
  latitude: '35.28416667'
  longitude: '48.21583333'
- name: Alanjeh
  state_code: '13'
  state_name: Hamadan
  latitude: '34.75083333'
  longitude: '47.95972222'
- name: Alfavut
  state_code: '13'
  state_name: Hamadan
  latitude: '34.64000000'
  longitude: '48.74972222'
- name: Aliabad-e Posht Shahr
  state_code: '13'
  state_name: Hamadan
  latitude: '34.83777778'
  longitude: '48.51111111'
- name: Amirabad-e Kord
  state_code: '13'
  state_name: Hamadan
  latitude: '34.97611111'
  longitude: '49.09166667'
- name: Amzajerd
  state_code: '13'
  state_name: Hamadan
  latitude: '34.93666667'
  longitude: '48.53250000'
- name: Angoshteh
  state_code: '13'
  state_name: Hamadan
  latitude: '34.09138900'
  longitude: '48.54000000'
- name: Anjir Baghi
  state_code: '13'
  state_name: Hamadan
  latitude: '35.19250000'
  longitude: '48.53166667'
- name: Ansar ol Emam
  state_code: '13'
  state_name: Hamadan
  latitude: '34.85861111'
  longitude: '48.49083333'
- name: Anuch
  state_code: '13'
  state_name: Hamadan
  latitude: '34.10805600'
  longitude: '48.57333300'
- name: Aq Bolagh-e Aqdaq
  state_code: '13'
  state_name: Hamadan
  latitude: '35.61166667'
  longitude: '48.44138889'
- name: Aq Bolagh-e Latgah
  state_code: '13'
  state_name: Hamadan
  latitude: '34.98444400'
  longitude: '48.55527800'
- name: Aq Bolagh-e Morshed
  state_code: '13'
  state_name: Hamadan
  latitude: '35.61777778'
  longitude: '48.02972222'
- name: Aq Chay
  state_code: '13'
  state_name: Hamadan
  latitude: '35.47916667'
  longitude: '49.10388889'
- name: Aqa Bolaghi
  state_code: '13'
  state_name: Hamadan
  latitude: '35.36694444'
  longitude: '48.24361111'
- name: Aqa Jan Bolaghi
  state_code: '13'
  state_name: Hamadan
  latitude: '34.84583333'
  longitude: '48.05305556'
- name: Aqaj
  state_code: '13'
  state_name: Hamadan
  latitude: '34.95583333'
  longitude: '49.32416667'
- name: Aqcheh Kharabeh
  state_code: '13'
  state_name: Hamadan
  latitude: '35.71361111'
  longitude: '48.77638889'
- name: Aqchelu
  state_code: '13'
  state_name: Hamadan
  latitude: '35.13138889'
  longitude: '48.49166667'
- name: Arges-e Sofla
  state_code: '13'
  state_name: Hamadan
  latitude: '34.07388889'
  longitude: '48.86388889'
- name: Arikan
  state_code: '13'
  state_name: Hamadan
  latitude: '34.53222222'
  longitude: '48.36055556'
- name: Arpa Darreh
  state_code: '13'
  state_name: Hamadan
  latitude: '35.69138889'
  longitude: '48.80500000'
- name: Arteh Bolagh
  state_code: '13'
  state_name: Hamadan
  latitude: '34.32638889'
  longitude: '48.54916667'
- name: Artiman
  state_code: '13'
  state_name: Hamadan
  latitude: '34.57944400'
  longitude: '48.44777800'
- name: Arzan Fud
  state_code: '13'
  state_name: Hamadan
  latitude: '34.65527778'
  longitude: '48.65416667'
- name: Arzuvaj
  state_code: '13'
  state_name: Hamadan
  latitude: '34.65444444'
  longitude: '48.37305556'
- name: Asadabad
  state_code: '13'
  state_name: Hamadan
  latitude: '34.78222222'
  longitude: '48.11833333'
- name: Ashmizan
  state_code: '13'
  state_name: Hamadan
  latitude: '34.10361111'
  longitude: '48.88444444'
- name: Avarzaman
  state_code: '13'
  state_name: Hamadan
  latitude: '34.26638889'
  longitude: '48.51222222'
- name: Azandarian
  state_code: '13'
  state_name: Hamadan
  latitude: '34.50888889'
  longitude: '48.68666667'
- name: Aznahri
  state_code: '13'
  state_name: Hamadan
  latitude: '34.23750000'
  longitude: '48.14833333'
- name: Baba Khanjar
  state_code: '13'
  state_name: Hamadan
  latitude: '35.55166667'
  longitude: '48.54972222'
- name: Baba Pir
  state_code: '13'
  state_name: Hamadan
  latitude: '34.61416667'
  longitude: '48.40194444'
- name: Baba Qasem
  state_code: '13'
  state_name: Hamadan
  latitude: '34.08000000'
  longitude: '48.44805556'
- name: Babolqani
  state_code: '13'
  state_name: Hamadan
  latitude: '34.24277778'
  longitude: '49.05750000'
- name: Bad Khvoreh
  state_code: '13'
  state_name: Hamadan
  latitude: '34.74305556'
  longitude: '48.08027778'
- name: Bahar
  state_code: '13'
  state_name: Hamadan
  latitude: '34.90694444'
  longitude: '48.44138889'
- name: Band Aman
  state_code: '13'
  state_name: Hamadan
  latitude: '34.22388889'
  longitude: '48.22861111'
- name: Banesareh
  state_code: '13'
  state_name: Hamadan
  latitude: '34.23750000'
  longitude: '48.43333333'
- name: Baraband
  state_code: '13'
  state_name: Hamadan
  latitude: '34.75194444'
  longitude: '48.79861111'
- name: Bargecheh
  state_code: '13'
  state_name: Hamadan
  latitude: '34.45138900'
  longitude: '48.30111100'
- name: Barreh Farakh
  state_code: '13'
  state_name: Hamadan
  latitude: '34.38555556'
  longitude: '48.08638889'
- name: Barzul
  state_code: '13'
  state_name: Hamadan
  latitude: '34.21277778'
  longitude: '48.25888889'
- name: Bashqurtaran
  state_code: '13'
  state_name: Hamadan
  latitude: '35.63722222'
  longitude: '48.11694444'
- name: Bazeran
  state_code: '13'
  state_name: Hamadan
  latitude: '35.15611111'
  longitude: '49.42305556'
- name: Behkandan
  state_code: '13'
  state_name: Hamadan
  latitude: '35.27222222'
  longitude: '49.09888889'
- name: Belartu
  state_code: '13'
  state_name: Hamadan
  latitude: '34.33555556'
  longitude: '48.51583333'
- name: Beshik Tappeh
  state_code: '13'
  state_name: Hamadan
  latitude: '35.53611111'
  longitude: '48.41805556'
- name: Biaj
  state_code: '13'
  state_name: Hamadan
  latitude: '34.81500000'
  longitude: '48.09916667'
- name: Biatan-e Sofla
  state_code: '13'
  state_name: Hamadan
  latitude: '34.02527778'
  longitude: '48.95805556'
- name: Bid Korpeh-ye Sofla
  state_code: '13'
  state_name: Hamadan
  latitude: '34.02111111'
  longitude: '48.89166667'
- name: Bid Korpeh-ye Vosta
  state_code: '13'
  state_name: Hamadan
  latitude: '34.01944444'
  longitude: '48.88722222'
- name: Bifanaj
  state_code: '13'
  state_name: Hamadan
  latitude: '34.61472222'
  longitude: '48.01694444'
- name: Bighash
  state_code: '13'
  state_name: Hamadan
  latitude: '34.09111111'
  longitude: '49.06833333'
- name: Bish Aghaj
  state_code: '13'
  state_name: Hamadan
  latitude: '34.46111111'
  longitude: '48.78583333'
- name: Bitervan
  state_code: '13'
  state_name: Hamadan
  latitude: '34.65444444'
  longitude: '47.91055556'
- name: Borjaki
  state_code: '13'
  state_name: Hamadan
  latitude: '34.32861111'
  longitude: '48.03305556'
- name: Boyukabad
  state_code: '13'
  state_name: Hamadan
  latitude: '35.05972222'
  longitude: '48.84166667'
- name: Bozchalu
  state_code: '13'
  state_name: Hamadan
  latitude: '35.16888889'
  longitude: '49.22444444'
- name: Bozineh Jerd
  state_code: '13'
  state_name: Hamadan
  latitude: '35.02472222'
  longitude: '48.94388889'
- name: Bujin
  state_code: '13'
  state_name: Hamadan
  latitude: '34.80722222'
  longitude: '48.05916667'
- name: Bustandar
  state_code: '13'
  state_name: Hamadan
  latitude: '34.44861111'
  longitude: '48.41944444'
- name: Buyaqchi
  state_code: '13'
  state_name: Hamadan
  latitude: '34.84750000'
  longitude: '49.08916667'
- name: Chahar Bolagh
  state_code: '13'
  state_name: Hamadan
  latitude: '35.58111111'
  longitude: '48.65000000'
- name: Chal Boqa
  state_code: '13'
  state_name: Hamadan
  latitude: '35.42055556'
  longitude: '48.92750000'
- name: Chaleh Kand
  state_code: '13'
  state_name: Hamadan
  latitude: '35.27500000'
  longitude: '48.29944444'
- name: Charoq
  state_code: '13'
  state_name: Hamadan
  latitude: '34.84416667'
  longitude: '48.06611111'
- name: Chasht Khvoreh
  state_code: '13'
  state_name: Hamadan
  latitude: '34.46444444'
  longitude: '48.26694444'
- name: Chenari
  state_code: '13'
  state_name: Hamadan
  latitude: '34.23194444'
  longitude: '48.17611111'
- name: Cheshmeh Malek
  state_code: '13'
  state_name: Hamadan
  latitude: '34.75500000'
  longitude: '48.49305556'
- name: Cheshmeh Pahn-e Nanaj
  state_code: '13'
  state_name: Hamadan
  latitude: '34.45888889'
  longitude: '48.76750000'
- name: Cheshmeh Qandab
  state_code: '13'
  state_name: Hamadan
  latitude: '34.62694444'
  longitude: '48.09111111'
- name: Cheshmeh Qareh
  state_code: '13'
  state_name: Hamadan
  latitude: '34.90611111'
  longitude: '47.87111111'
- name: Cheshmeh Qassaban
  state_code: '13'
  state_name: Hamadan
  latitude: '34.85777778'
  longitude: '48.41888889'
- name: Cheshmeh Valad
  state_code: '13'
  state_name: Hamadan
  latitude: '34.87805556'
  longitude: '47.98388889'
- name: Cheshmeh Zowraq
  state_code: '13'
  state_name: Hamadan
  latitude: '34.06611111'
  longitude: '49.10083333'
- name: Choqa Sarahi
  state_code: '13'
  state_name: Hamadan
  latitude: '34.31527778'
  longitude: '48.04888889'
- name: Chowtash
  state_code: '13'
  state_name: Hamadan
  latitude: '34.83694444'
  longitude: '48.25194444'
- name: Chulak Qapanuri
  state_code: '13'
  state_name: Hamadan
  latitude: '34.23472222'
  longitude: '48.30000000'
- name: Dahnejerd
  state_code: '13'
  state_name: Hamadan
  latitude: '34.96750000'
  longitude: '48.50055600'
- name: Dali Chu
  state_code: '13'
  state_name: Hamadan
  latitude: '35.52138889'
  longitude: '48.02027778'
- name: Damaq
  state_code: '13'
  state_name: Hamadan
  latitude: '35.44277778'
  longitude: '48.82305556'
- name: Daqdaqabad
  state_code: '13'
  state_name: Hamadan
  latitude: '35.18277778'
  longitude: '48.78833333'
- name: Dar Qeshlaq
  state_code: '13'
  state_name: Hamadan
  latitude: '35.49222222'
  longitude: '48.05583333'
- name: Darani-ye Sofla
  state_code: '13'
  state_name: Hamadan
  latitude: '34.49888889'
  longitude: '48.41222222'
- name: Darcham
  state_code: '13'
  state_name: Hamadan
  latitude: '34.26027778'
  longitude: '48.82083333'
- name: Darreh Chenar
  state_code: '13'
  state_name: Hamadan
  latitude: '34.09944444'
  longitude: '48.80305556'
- name: Darreh Mianeh-ye Sofla
  state_code: '13'
  state_name: Hamadan
  latitude: '34.07277778'
  longitude: '48.83527778'
- name: Darreh Mirza
  state_code: '13'
  state_name: Hamadan
  latitude: '34.37611111'
  longitude: '48.00750000'
- name: Darreh-ye Ebrahim
  state_code: '13'
  state_name: Hamadan
  latitude: '34.10166667'
  longitude: '48.39444444'
- name: Darsibeh
  state_code: '13'
  state_name: Hamadan
  latitude: '34.26972222'
  longitude: '48.00694444'
- name: Davijan
  state_code: '13'
  state_name: Hamadan
  latitude: '34.22027778'
  longitude: '48.85833333'
- name: Deh Chaneh
  state_code: '13'
  state_name: Hamadan
  latitude: '34.10527778'
  longitude: '49.12027778'
- name: Deh Dalian
  state_code: '13'
  state_name: Hamadan
  latitude: '34.80472222'
  longitude: '48.71138889'
- name: Deh Ful
  state_code: '13'
  state_name: Hamadan
  latitude: '34.22694444'
  longitude: '48.31388889'
- name: Deh Mianeh
  state_code: '13'
  state_name: Hamadan
  latitude: '34.17305556'
  longitude: '49.04944444'
- name: Deh Nush
  state_code: '13'
  state_name: Hamadan
  latitude: '34.76111111'
  longitude: '48.00305556'
- name: Deh Piaz
  state_code: '13'
  state_name: Hamadan
  latitude: '34.88194444'
  longitude: '48.51472222'
- name: Deh-e Shaker
  state_code: '13'
  state_name: Hamadan
  latitude: '34.37888889'
  longitude: '48.54777778'
- name: Dehnow-e Avarzaman
  state_code: '13'
  state_name: Hamadan
  latitude: '34.30694444'
  longitude: '48.55694444'
- name: Dingeleh Kahriz
  state_code: '13'
  state_name: Hamadan
  latitude: '34.81111111'
  longitude: '48.68472222'
- name: Do Rudan
  state_code: '13'
  state_name: Hamadan
  latitude: '34.55972222'
  longitude: '48.41472222'
- name: Doraneh
  state_code: '13'
  state_name: Hamadan
  latitude: '34.23138889'
  longitude: '48.21944444'
- name: Dorudgaran
  state_code: '13'
  state_name: Hamadan
  latitude: '34.02027800'
  longitude: '48.92472200'
- name: Dow Baraleh
  state_code: '13'
  state_name: Hamadan
  latitude: '34.90222222'
  longitude: '48.03361111'
- name: Dowlatabad-e Hajjilu
  state_code: '13'
  state_name: Hamadan
  latitude: '35.28111111'
  longitude: '48.88694444'
- name: Dowlujerdin-e Bala
  state_code: '13'
  state_name: Hamadan
  latitude: '35.34777778'
  longitude: '49.10944444'
- name: Durijan
  state_code: '13'
  state_name: Hamadan
  latitude: '34.30555556'
  longitude: '48.48972222'
- name: Durnian
  state_code: '13'
  state_name: Hamadan
  latitude: '35.48194444'
  longitude: '49.04000000'
- name: Emamzadeh Khatun
  state_code: '13'
  state_name: Hamadan
  latitude: '34.04972222'
  longitude: '48.95222222'
- name: Emamzadeh Pir Nahan
  state_code: '13'
  state_name: Hamadan
  latitude: '35.01138889'
  longitude: '49.04111111'
- name: Eskanan
  state_code: '13'
  state_name: Hamadan
  latitude: '34.35805556'
  longitude: '48.59277778'
- name: Fahrumand
  state_code: '13'
  state_name: Hamadan
  latitude: '34.22416667'
  longitude: '48.31194444'
- name: Famast
  state_code: '13'
  state_name: Hamadan
  latitude: '34.03897000'
  longitude: '48.46260000'
- name: Famenin
  state_code: '13'
  state_name: Hamadan
  latitude: '35.11388889'
  longitude: '48.97166667'
- name: Farasfaj
  state_code: '13'
  state_name: Hamadan
  latitude: '34.48611111'
  longitude: '48.28555556'
- name: Farsban
  state_code: '13'
  state_name: Hamadan
  latitude: '34.24416667'
  longitude: '48.11916667'
- name: Farvaz
  state_code: '13'
  state_name: Hamadan
  latitude: '34.22694444'
  longitude: '48.90111111'
- name: Faryazan
  state_code: '13'
  state_name: Hamadan
  latitude: '34.52305600'
  longitude: '48.33250000'
- name: Fasijan
  state_code: '13'
  state_name: Hamadan
  latitude: '34.83666667'
  longitude: '48.30472222'
- name: Fiazaman
  state_code: '13'
  state_name: Hamadan
  latitude: '34.13111111'
  longitude: '48.39638889'
- name: Firuzabad-e Sofla
  state_code: '13'
  state_name: Hamadan
  latitude: '34.34694444'
  longitude: '48.09638889'
- name: Firuzan
  state_code: '13'
  state_name: Hamadan
  latitude: '34.27861111'
  longitude: '48.24000000'
- name: Gamasa
  state_code: '13'
  state_name: Hamadan
  latitude: '34.23027778'
  longitude: '49.08750000'
- name: Gamasb
  state_code: '13'
  state_name: Hamadan
  latitude: '34.04000000'
  longitude: '48.46500000'
- name: Ganj Tappeh
  state_code: '13'
  state_name: Hamadan
  latitude: '34.93333300'
  longitude: '48.46361100'
- name: Ganjab
  state_code: '13'
  state_name: Hamadan
  latitude: '34.45277778'
  longitude: '48.98722222'
- name: Gashani
  state_code: '13'
  state_name: Hamadan
  latitude: '34.66055556'
  longitude: '48.39138889'
- name: Gav Zaban
  state_code: '13'
  state_name: Hamadan
  latitude: '35.22916667'
  longitude: '48.30527778'
- name: Gavkaran
  state_code: '13'
  state_name: Hamadan
  latitude: '34.48694444'
  longitude: '48.12000000'
- name: Ghazyatan
  state_code: '13'
  state_name: Hamadan
  latitude: '35.33222222'
  longitude: '48.93166667'
- name: Gholam Veys
  state_code: '13'
  state_name: Hamadan
  latitude: '35.63000000'
  longitude: '48.52583333'
- name: Givaki
  state_code: '13'
  state_name: Hamadan
  latitude: '34.27250000'
  longitude: '48.08111111'
- name: Giyan
  state_code: '13'
  state_name: Hamadan
  latitude: '34.17805556'
  longitude: '48.24416667'
- name: Gol Darreh-ye Anuch
  state_code: '13'
  state_name: Hamadan
  latitude: '34.10222222'
  longitude: '48.59861111'
- name: Gol Heydar
  state_code: '13'
  state_name: Hamadan
  latitude: '34.06250000'
  longitude: '48.41666667'
- name: Gol Tappeh
  state_code: '13'
  state_name: Hamadan
  latitude: '35.22083550'
  longitude: '48.19597000'
- name: Golparabad
  state_code: '13'
  state_name: Hamadan
  latitude: '34.15500000'
  longitude: '49.05777778'
- name: Golshir
  state_code: '13'
  state_name: Hamadan
  latitude: '34.40000000'
  longitude: '48.68333333'
- name: Golushjerd
  state_code: '13'
  state_name: Hamadan
  latitude: '34.36611111'
  longitude: '48.79000000'
- name: Gomush Bolagh
  state_code: '13'
  state_name: Hamadan
  latitude: '34.93194444'
  longitude: '48.28972222'
- name: Gonbad Chay
  state_code: '13'
  state_name: Hamadan
  latitude: '34.86833300'
  longitude: '48.83138900'
- name: Gonbad-e Kabud
  state_code: '13'
  state_name: Hamadan
  latitude: '34.21722222'
  longitude: '48.14777778'
- name: Gostar
  state_code: '13'
  state_name: Hamadan
  latitude: '35.46388889'
  longitude: '48.87638889'
- name: Gozal Abdal
  state_code: '13'
  state_name: Hamadan
  latitude: '35.32166667'
  longitude: '48.23861111'
- name: Gug Qash
  state_code: '13'
  state_name: Hamadan
  latitude: '35.68750000'
  longitude: '48.02530000'
- name: Gujak
  state_code: '13'
  state_name: Hamadan
  latitude: '34.54083333'
  longitude: '48.84027778'
- name: Gulvand
  state_code: '13'
  state_name: Hamadan
  latitude: '34.38083333'
  longitude: '48.97527778'
- name: Gunestan
  state_code: '13'
  state_name: Hamadan
  latitude: '34.03027778'
  longitude: '48.91833333'
- name: Gur Gaz
  state_code: '13'
  state_name: Hamadan
  latitude: '34.93333333'
  longitude: '48.79111111'
- name: Gurjiu
  state_code: '13'
  state_name: Hamadan
  latitude: '34.18583333'
  longitude: '48.40555556'
- name: Gushalan
  state_code: '13'
  state_name: Hamadan
  latitude: '34.83500000'
  longitude: '48.32250000'
- name: Gusheh-ye Kasavand
  state_code: '13'
  state_name: Hamadan
  latitude: '34.15527778'
  longitude: '48.95944444'
- name: Hajji Kheder
  state_code: '13'
  state_name: Hamadan
  latitude: '34.12722222'
  longitude: '48.74833333'
- name: Hajji Maqsud
  state_code: '13'
  state_name: Hamadan
  latitude: '34.96972222'
  longitude: '48.87972222'
- name: Hajji Tu
  state_code: '13'
  state_name: Hamadan
  latitude: '34.45083300'
  longitude: '48.35361100'
- name: Hamadan
  state_code: '13'
  state_name: Hamadan
  latitude: '34.80000000'
  longitude: '48.51666667'
- name: Hamedan
  state_code: '13'
  state_name: Hamadan
  latitude: '34.81230870'
  longitude: '48.44002710'
- name: Hamilabad
  state_code: '13'
  state_name: Hamadan
  latitude: '34.40250000'
  longitude: '48.46083333'
- name: Hamzehlu-ye Sofla
  state_code: '13'
  state_name: Hamadan
  latitude: '34.05777778'
  longitude: '49.07777778'
- name: Haramabad
  state_code: '13'
  state_name: Hamadan
  latitude: '34.28166667'
  longitude: '48.78250000'
- name: Hasan Kusej
  state_code: '13'
  state_name: Hamadan
  latitude: '34.24833333'
  longitude: '48.57527778'
- name: Hasan Teymur
  state_code: '13'
  state_name: Hamadan
  latitude: '35.37583333'
  longitude: '48.36361111'
- name: Hasanabad-e Emam
  state_code: '13'
  state_name: Hamadan
  latitude: '34.95027778'
  longitude: '48.05083333'
- name: Hasanabad-e Qush Bolagh
  state_code: '13'
  state_name: Hamadan
  latitude: '34.42361111'
  longitude: '48.65444444'
- name: Hasanabad-e Sheverin
  state_code: '13'
  state_name: Hamadan
  latitude: '34.84250000'
  longitude: '48.54916667'
- name: Heriraz
  state_code: '13'
  state_name: Hamadan
  latitude: '34.20527778'
  longitude: '48.74305556'
- name: Hesar-e Qarah Baghi
  state_code: '13'
  state_name: Hamadan
  latitude: '34.82250000'
  longitude: '48.26861111'
- name: Hesar-e Qujeh Baghi
  state_code: '13'
  state_name: Hamadan
  latitude: '35.23861111'
  longitude: '48.55972222'
- name: Heydareh-ye Dar-e Emam
  state_code: '13'
  state_name: Hamadan
  latitude: '34.82055556'
  longitude: '48.34694444'
- name: Heydareh-ye Posht-e Shahr
  state_code: '13'
  state_name: Hamadan
  latitude: '34.80250000'
  longitude: '48.45750000'
- name: Hizaj
  state_code: '13'
  state_name: Hamadan
  latitude: '34.93000000'
  longitude: '49.14333333'
- name: Holvar-e Sofla
  state_code: '13'
  state_name: Hamadan
  latitude: '34.68000000'
  longitude: '48.13472222'
- name: Hom-e Khosrow
  state_code: '13'
  state_name: Hamadan
  latitude: '34.31472222'
  longitude: '48.01000000'
- name: Horhoreh
  state_code: '13'
  state_name: Hamadan
  latitude: '34.39111111'
  longitude: '48.36027778'
- name: Hoseynabad-e Bahar
  state_code: '13'
  state_name: Hamadan
  latitude: '34.86750000'
  longitude: '48.36833333'
- name: Hoseynabad-e Nazem
  state_code: '13'
  state_name: Hamadan
  latitude: '34.29527800'
  longitude: '48.60416700'
- name: Hoseynabad-e Shamlu
  state_code: '13'
  state_name: Hamadan
  latitude: '34.44611111'
  longitude: '48.62055556'
- name: Hudaraj
  state_code: '13'
  state_name: Hamadan
  latitude: '34.73361111'
  longitude: '48.16194444'
- name: Iraneh
  state_code: '13'
  state_name: Hamadan
  latitude: '34.24305556'
  longitude: '48.59750000'
- name: Isti Bolagh
  state_code: '13'
  state_name: Hamadan
  latitude: '35.69500000'
  longitude: '48.26611111'
- name: Jamishlu
  state_code: '13'
  state_name: Hamadan
  latitude: '35.24583333'
  longitude: '48.97666667'
- name: Jaria
  state_code: '13'
  state_name: Hamadan
  latitude: '34.35166667'
  longitude: '48.46861111'
- name: Javar Sajin
  state_code: '13'
  state_name: Hamadan
  latitude: '35.28583333'
  longitude: '49.22138889'
- name: Jerbanlu
  state_code: '13'
  state_name: Hamadan
  latitude: '35.58638889'
  longitude: '48.92916667'
- name: Jighi
  state_code: '13'
  state_name: Hamadan
  latitude: '35.20027778'
  longitude: '48.49388889'
- name: Jijan Kuh
  state_code: '13'
  state_name: Hamadan
  latitude: '34.48111111'
  longitude: '48.50694444'
- name: Jijian Rud
  state_code: '13'
  state_name: Hamadan
  latitude: '34.35638889'
  longitude: '48.60861111'
- name: Jin Taraqayah
  state_code: '13'
  state_name: Hamadan
  latitude: '35.34555556'
  longitude: '48.43250000'
- name: Jowkar
  state_code: '13'
  state_name: Hamadan
  latitude: '34.43034520'
  longitude: '48.67798440'
- name: Juraqan
  state_code: '13'
  state_name: Hamadan
  latitude: '34.88472222'
  longitude: '48.55444444'
- name: Kaboodrahang
  state_code: '13'
  state_name: Hamadan
  latitude: '35.20833333'
  longitude: '48.72388889'
- name: Kabudrahang
  state_code: '13'
  state_name: Hamadan
  latitude: '35.20939460'
  longitude: '48.70679130'
- name: Kahard
  state_code: '13'
  state_name: Hamadan
  latitude: '35.28555556'
  longitude: '49.00527778'
- name: Kahkadan
  state_code: '13'
  state_name: Hamadan
  latitude: '34.14388889'
  longitude: '48.65805556'
- name: Kahriz-e Baba Hoseyn
  state_code: '13'
  state_name: Hamadan
  latitude: '35.53388889'
  longitude: '47.94027778'
- name: Kahriz-e Boqazi
  state_code: '13'
  state_name: Hamadan
  latitude: '35.51138889'
  longitude: '48.81833333'
- name: Kahriz-e Hoseynabad-e Nazem
  state_code: '13'
  state_name: Hamadan
  latitude: '34.31888889'
  longitude: '48.62777778'
- name: Kahriz-e Jamal
  state_code: '13'
  state_name: Hamadan
  latitude: '34.33500000'
  longitude: '48.14611111'
- name: Kahriz-e Salim
  state_code: '13'
  state_name: Hamadan
  latitude: '34.32888889'
  longitude: '48.16222222'
- name: Kal Kabud
  state_code: '13'
  state_name: Hamadan
  latitude: '35.48083333'
  longitude: '48.85277778'
- name: Kalb Hesari
  state_code: '13'
  state_name: Hamadan
  latitude: '35.36694444'
  longitude: '48.39583333'
- name: Kalilabad
  state_code: '13'
  state_name: Hamadan
  latitude: '34.33916667'
  longitude: '48.54472222'
- name: Kamak-e Sofla
  state_code: '13'
  state_name: Hamadan
  latitude: '34.88750000'
  longitude: '47.96861111'
- name: Kamar Boneh
  state_code: '13'
  state_name: Hamadan
  latitude: '34.17500000'
  longitude: '48.63500000'
- name: Kamazan
  state_code: '13'
  state_name: Hamadan
  latitude: '34.15083333'
  longitude: '48.95333333'
- name: Kand Halan
  state_code: '13'
  state_name: Hamadan
  latitude: '34.50111111'
  longitude: '48.78194444'
- name: Kand Tappeh
  state_code: '13'
  state_name: Hamadan
  latitude: '35.20138889'
  longitude: '48.30555556'
- name: Kand-e Bolaghi
  state_code: '13'
  state_name: Hamadan
  latitude: '35.43000000'
  longitude: '48.32277778'
- name: Kangavar-e Kohneh
  state_code: '13'
  state_name: Hamadan
  latitude: '34.34194444'
  longitude: '47.97611111'
- name: Karafs
  state_code: '13'
  state_name: Hamadan
  latitude: '35.36333333'
  longitude: '49.29888889'
- name: Kark-e Sofla
  state_code: '13'
  state_name: Hamadan
  latitude: '34.16944444'
  longitude: '48.29138889'
- name: Kartilabad
  state_code: '13'
  state_name: Hamadan
  latitude: '34.31361111'
  longitude: '48.64916667'
- name: Kasavand
  state_code: '13'
  state_name: Hamadan
  latitude: '34.15222222'
  longitude: '48.96972222'
- name: Kaslan Qayah
  state_code: '13'
  state_name: Hamadan
  latitude: '35.19388889'
  longitude: '48.18611111'
- name: Kavanaj
  state_code: '13'
  state_name: Hamadan
  latitude: '34.66388889'
  longitude: '47.89694444'
- name: Kesb
  state_code: '13'
  state_name: Hamadan
  latitude: '34.41416667'
  longitude: '48.72250000'
- name: Keykaleh
  state_code: '13'
  state_name: Hamadan
  latitude: '34.11500000'
  longitude: '48.93916667'
- name: Keyni Sayeh
  state_code: '13'
  state_name: Hamadan
  latitude: '34.82583333'
  longitude: '47.88638889'
- name: Khabar Arkhi
  state_code: '13'
  state_name: Hamadan
  latitude: '35.36333333'
  longitude: '48.27666667'
- name: Khaku
  state_code: '13'
  state_name: Hamadan
  latitude: '34.72638889'
  longitude: '48.53638889'
- name: Khaleq Verdi
  state_code: '13'
  state_name: Hamadan
  latitude: '35.41083333'
  longitude: '48.18111111'
- name: Khalil Kord
  state_code: '13'
  state_name: Hamadan
  latitude: '34.97805556'
  longitude: '48.25305556'
- name: Kheradmand
  state_code: '13'
  state_name: Hamadan
  latitude: '34.62583333'
  longitude: '48.93138889'
- name: Kheyr Qoli
  state_code: '13'
  state_name: Hamadan
  latitude: '34.20222222'
  longitude: '48.40138889'
- name: Khomeygan
  state_code: '13'
  state_name: Hamadan
  latitude: '35.36972222'
  longitude: '49.02333333'
- name: Khvajeh Hesar
  state_code: '13'
  state_name: Hamadan
  latitude: '35.00000000'
  longitude: '49.33916667'
- name: Khvajeh Hoseyni
  state_code: '13'
  state_name: Hamadan
  latitude: '34.15500000'
  longitude: '48.37861111'
- name: Khvajeh Kandi
  state_code: '13'
  state_name: Hamadan
  latitude: '35.36194444'
  longitude: '48.38500000'
- name: Khvoshab-e Sofla
  state_code: '13'
  state_name: Hamadan
  latitude: '35.01777778'
  longitude: '48.35750000'
- name: Kitu
  state_code: '13'
  state_name: Hamadan
  latitude: '35.31972222'
  longitude: '48.15333333'
- name: Kohnush
  state_code: '13'
  state_name: Hamadan
  latitude: '34.72583333'
  longitude: '48.27777778'
- name: Kolanjan
  state_code: '13'
  state_name: Hamadan
  latitude: '34.59444444'
  longitude: '48.39250000'
- name: Konjineh
  state_code: '13'
  state_name: Hamadan
  latitude: '34.79222222'
  longitude: '48.62972222'
- name: Kord Bolagh
  state_code: '13'
  state_name: Hamadan
  latitude: '34.76722222'
  longitude: '48.65277778'
- name: Korzan
  state_code: '13'
  state_name: Hamadan
  latitude: '34.59444444'
  longitude: '48.35361111'
- name: Kowzareh
  state_code: '13'
  state_name: Hamadan
  latitude: '34.69861100'
  longitude: '49.01138900'
- name: Kuhani
  state_code: '13'
  state_name: Hamadan
  latitude: '34.15388900'
  longitude: '48.40500000'
- name: Kur Kahriz
  state_code: '13'
  state_name: Hamadan
  latitude: '34.71722222'
  longitude: '48.77333333'
- name: Kusaj Khalil
  state_code: '13'
  state_name: Hamadan
  latitude: '34.40416667'
  longitude: '48.58805556'
- name: Kutah Darreh
  state_code: '13'
  state_name: Hamadan
  latitude: '34.32055556'
  longitude: '47.95388889'
- name: Laleh Dan
  state_code: '13'
  state_name: Hamadan
  latitude: '35.58111111'
  longitude: '48.95416667'
- name: Lalejin
  state_code: '13'
  state_name: Hamadan
  latitude: '34.97444444'
  longitude: '48.47555556'
- name: Lamiyan
  state_code: '13'
  state_name: Hamadan
  latitude: '34.46277778'
  longitude: '48.19277778'
- name: Latgah
  state_code: '13'
  state_name: Hamadan
  latitude: '34.98944400'
  longitude: '48.54638900'
- name: Lavashan
  state_code: '13'
  state_name: Hamadan
  latitude: '34.25055556'
  longitude: '48.27416667'
- name: Leyli Yadegar
  state_code: '13'
  state_name: Hamadan
  latitude: '34.28583333'
  longitude: '48.21027778'
- name: Luluhar
  state_code: '13'
  state_name: Hamadan
  latitude: '34.31611111'
  longitude: '48.45416667'
- name: Mahanabad
  state_code: '13'
  state_name: Hamadan
  latitude: '34.18083333'
  longitude: '48.20972222'
- name: Mahbar
  state_code: '13'
  state_name: Hamadan
  latitude: '34.87611111'
  longitude: '48.80777778'
- name: Mahdaviyeh
  state_code: '13'
  state_name: Hamadan
  latitude: '34.08333333'
  longitude: '48.88333333'
- name: Mahnian
  state_code: '13'
  state_name: Hamadan
  latitude: '35.50250000'
  longitude: '49.06583333'
- name: Malayer
  state_code: '13'
  state_name: Hamadan
  latitude: '34.29416667'
  longitude: '48.82000000'
- name: Malek-e Ashtar
  state_code: '13'
  state_name: Hamadan
  latitude: '34.95222222'
  longitude: '48.31500000'
- name: Malusan
  state_code: '13'
  state_name: Hamadan
  latitude: '34.32333333'
  longitude: '48.33000000'
- name: Mangavi
  state_code: '13'
  state_name: Hamadan
  latitude: '34.65750000'
  longitude: '48.70861111'
- name: Marvil
  state_code: '13'
  state_name: Hamadan
  latitude: '34.16805556'
  longitude: '48.88694444'
- name: Maryanaj
  state_code: '13'
  state_name: Hamadan
  latitude: '34.83083333'
  longitude: '48.45916667'
- name: Masjedin
  state_code: '13'
  state_name: Hamadan
  latitude: '35.54277778'
  longitude: '48.26333333'
- name: Menjan
  state_code: '13'
  state_name: Hamadan
  latitude: '34.44805556'
  longitude: '48.23555556'
- name: Mesinak
  state_code: '13'
  state_name: Hamadan
  latitude: '35.27222222'
  longitude: '49.15111111'
- name: Meyvaleh
  state_code: '13'
  state_name: Hamadan
  latitude: '34.83194444'
  longitude: '47.85527778'
- name: Mianzulan
  state_code: '13'
  state_name: Hamadan
  latitude: '34.31222222'
  longitude: '48.51555556'
- name: Mihamleh-ye Sofla
  state_code: '13'
  state_name: Hamadan
  latitude: '35.10000000'
  longitude: '48.30805556'
- name: Milab
  state_code: '13'
  state_name: Hamadan
  latitude: '34.05277778'
  longitude: '48.47972222'
- name: Mirza Hesari
  state_code: '13'
  state_name: Hamadan
  latitude: '35.12750000'
  longitude: '48.45944400'
- name: Mishen
  state_code: '13'
  state_name: Hamadan
  latitude: '34.15750000'
  longitude: '48.92722222'
- name: Mobarakin
  state_code: '13'
  state_name: Hamadan
  latitude: '35.09805556'
  longitude: '49.42416667'
- name: Mohajeran
  state_code: '13'
  state_name: Hamadan
  latitude: '35.07388889'
  longitude: '48.61666667'
- name: Mohammadabad-e Chulak
  state_code: '13'
  state_name: Hamadan
  latitude: '34.24666667'
  longitude: '48.30444444'
- name: Mohammadiyeh-e Sofla
  state_code: '13'
  state_name: Hamadan
  latitude: '34.14611111'
  longitude: '48.33861111'
- name: Mohara
  state_code: '13'
  state_name: Hamadan
  latitude: '34.55527778'
  longitude: '48.86861111'
- name: Mokarrabi
  state_code: '13'
  state_name: Hamadan
  latitude: '34.62500000'
  longitude: '48.69777778'
- name: Molham Darreh
  state_code: '13'
  state_name: Hamadan
  latitude: '34.83138889'
  longitude: '48.14527778'
- name: Molla Bodagh
  state_code: '13'
  state_name: Hamadan
  latitude: '35.63138889'
  longitude: '48.73888889'
- name: Monavvar Tappeh
  state_code: '13'
  state_name: Hamadan
  latitude: '34.72027778'
  longitude: '47.91111111'
- name: Morghabad
  state_code: '13'
  state_name: Hamadan
  latitude: '35.18833333'
  longitude: '49.28277778'
- name: Mowdaran
  state_code: '13'
  state_name: Hamadan
  latitude: '34.33250000'
  longitude: '48.47138889'
- name: Musa Bolaghi
  state_code: '13'
  state_name: Hamadan
  latitude: '34.59888889'
  longitude: '48.94111111'
- name: Nahandar
  state_code: '13'
  state_name: Hamadan
  latitude: '34.14944444'
  longitude: '48.96833333'
- name: Nahavand
  state_code: '13'
  state_name: Hamadan
  latitude: '34.18833333'
  longitude: '48.37694444'
- name: Najafiyeh
  state_code: '13'
  state_name: Hamadan
  latitude: '34.55500000'
  longitude: '48.38638889'
- name: Nakilabad
  state_code: '13'
  state_name: Hamadan
  latitude: '34.36777778'
  longitude: '48.65694444'
- name: Nakin
  state_code: '13'
  state_name: Hamadan
  latitude: '35.38805556'
  longitude: '49.26527778'
- name: Namileh
  state_code: '13'
  state_name: Hamadan
  latitude: '34.27111111'
  longitude: '48.82000000'
- name: Nanaj
  state_code: '13'
  state_name: Hamadan
  latitude: '34.42000000'
  longitude: '48.75388889'
- name: Nazul
  state_code: '13'
  state_name: Hamadan
  latitude: '34.22833333'
  longitude: '48.71805556'
- name: Negar Khatun
  state_code: '13'
  state_name: Hamadan
  latitude: '35.11861111'
  longitude: '48.92555556'
- name: Negarabad
  state_code: '13'
  state_name: Hamadan
  latitude: '35.47583333'
  longitude: '48.53277778'
- name: Nehenjeh
  state_code: '13'
  state_name: Hamadan
  latitude: '34.54111111'
  longitude: '48.71722222'
- name: Nesar
  state_code: '13'
  state_name: Hamadan
  latitude: '34.07694444'
  longitude: '48.46861111'
- name: Neshar
  state_code: '13'
  state_name: Hamadan
  latitude: '34.67722222'
  longitude: '48.86694444'
- name: Niyanj
  state_code: '13'
  state_name: Hamadan
  latitude: '35.34861111'
  longitude: '48.91722222'
- name: Nosratabad-e Behraz
  state_code: '13'
  state_name: Hamadan
  latitude: '34.69222222'
  longitude: '48.08555556'
- name: Nosratabad-e Laklak
  state_code: '13'
  state_name: Hamadan
  latitude: '34.66472222'
  longitude: '47.96277778'
- name: Nurabad-e Simineh
  state_code: '13'
  state_name: Hamadan
  latitude: '34.82194444'
  longitude: '48.29277778'
- name: Ojaq
  state_code: '13'
  state_name: Hamadan
  latitude: '35.64000000'
  longitude: '48.84583333'
- name: Ommatlar
  state_code: '13'
  state_name: Hamadan
  latitude: '35.43611111'
  longitude: '48.96861111'
- name: Oshtoran
  state_code: '13'
  state_name: Hamadan
  latitude: '34.63805556'
  longitude: '48.29555556'
- name: Oshtorjin
  state_code: '13'
  state_name: Hamadan
  latitude: '34.77583333'
  longitude: '48.17222222'
- name: Ovraqin
  state_code: '13'
  state_name: Hamadan
  latitude: '35.28222222'
  longitude: '48.69111111'
- name: Owrteh Qamish
  state_code: '13'
  state_name: Hamadan
  latitude: '35.57083333'
  longitude: '48.62916667'
- name: Owryad
  state_code: '13'
  state_name: Hamadan
  latitude: '35.26277778'
  longitude: '48.37250000'
- name: Pahnabad
  state_code: '13'
  state_name: Hamadan
  latitude: '34.84166667'
  longitude: '48.61472222'
- name: Panbeh Dar
  state_code: '13'
  state_name: Hamadan
  latitude: '34.06527778'
  longitude: '48.44555556'
- name: Parluk
  state_code: '13'
  state_name: Hamadan
  latitude: '35.06555556'
  longitude: '48.24611111'
- name: Parvaraq
  state_code: '13'
  state_name: Hamadan
  latitude: '35.15583333'
  longitude: '48.76777778'
- name: Payandeh
  state_code: '13'
  state_name: Hamadan
  latitude: '35.44194444'
  longitude: '48.85305556'
- name: Peyhan
  state_code: '13'
  state_name: Hamadan
  latitude: '34.12972222'
  longitude: '48.86750000'
- name: Pileh Jin
  state_code: '13'
  state_name: Hamadan
  latitude: '35.38388889'
  longitude: '48.85583333'
- name: Pir Anbar
  state_code: '13'
  state_name: Hamadan
  latitude: '35.24250000'
  longitude: '48.51361111'
- name: Pir Badam
  state_code: '13'
  state_name: Hamadan
  latitude: '35.56722222'
  longitude: '48.13888889'
- name: Pir Khodaverdi
  state_code: '13'
  state_name: Hamadan
  latitude: '34.32500000'
  longitude: '48.92861111'
- name: Pir Malu
  state_code: '13'
  state_name: Hamadan
  latitude: '34.91222222'
  longitude: '48.06611111'
- name: Pir Mishan
  state_code: '13'
  state_name: Hamadan
  latitude: '34.39166667'
  longitude: '48.66611111'
- name: Pir Savaran
  state_code: '13'
  state_name: Hamadan
  latitude: '34.11805556'
  longitude: '48.77861111'
- name: Pir Yusof
  state_code: '13'
  state_name: Hamadan
  latitude: '34.68888889'
  longitude: '47.89277778'
- name: Piruz
  state_code: '13'
  state_name: Hamadan
  latitude: '34.13500000'
  longitude: '49.04527778'
- name: Poshtjin
  state_code: '13'
  state_name: Hamadan
  latitude: '35.31416667'
  longitude: '49.07166667'
- name: Qabanqoli
  state_code: '13'
  state_name: Hamadan
  latitude: '35.19833333'
  longitude: '49.17833333'
- name: Qader Khalaj
  state_code: '13'
  state_name: Hamadan
  latitude: '35.40111111'
  longitude: '48.73000000'
- name: Qadimi
  state_code: '13'
  state_name: Hamadan
  latitude: '34.65194444'
  longitude: '48.73666667'
- name: Qahavand
  state_code: '13'
  state_name: Hamadan
  latitude: '34.86027778'
  longitude: '49.00472222'
- name: Qajar Ab-e Sofla
  state_code: '13'
  state_name: Hamadan
  latitude: '34.43527778'
  longitude: '48.97527778'
- name: Qarah Day
  state_code: '13'
  state_name: Hamadan
  latitude: '35.12527778'
  longitude: '49.28222222'
- name: Qarah Tegini
  state_code: '13'
  state_name: Hamadan
  latitude: '34.44027778'
  longitude: '48.93555556'
- name: Qaranqu Darreh
  state_code: '13'
  state_name: Hamadan
  latitude: '35.51305556'
  longitude: '48.17750000'
- name: Qasabestan
  state_code: '13'
  state_name: Hamadan
  latitude: '34.42000000'
  longitude: '48.18777778'
- name: Qasemabad-e Laklak
  state_code: '13'
  state_name: Hamadan
  latitude: '34.67527778'
  longitude: '47.97222222'
- name: Qater Owlan
  state_code: '13'
  state_name: Hamadan
  latitude: '35.37527778'
  longitude: '48.93166667'
- name: Qayesh
  state_code: '13'
  state_name: Hamadan
  latitude: '35.49611111'
  longitude: '48.86694444'
- name: Qazan Qarah
  state_code: '13'
  state_name: Hamadan
  latitude: '35.66190000'
  longitude: '48.08220000'
- name: Qazi Mardan
  state_code: '13'
  state_name: Hamadan
  latitude: '34.77694444'
  longitude: '48.01416667'
- name: Qeshlaq Baba Rostam
  state_code: '13'
  state_name: Hamadan
  latitude: '34.14194444'
  longitude: '48.36250000'
- name: Qeshlaq-e Anuch
  state_code: '13'
  state_name: Hamadan
  latitude: '34.11611111'
  longitude: '48.57777778'
- name: Qeshlaq-e Deh Ful
  state_code: '13'
  state_name: Hamadan
  latitude: '34.24388889'
  longitude: '48.33750000'
- name: Qeshlaq-e Dehnow
  state_code: '13'
  state_name: Hamadan
  latitude: '34.50000000'
  longitude: '48.56666667'
- name: Qeshlaq-e Mohammadi
  state_code: '13'
  state_name: Hamadan
  latitude: '34.06666667'
  longitude: '48.91666667'
- name: Qeshlaq-e Najaf
  state_code: '13'
  state_name: Hamadan
  latitude: '34.37222222'
  longitude: '48.24500000'
- name: Qeshlaq-e Pust Shuran
  state_code: '13'
  state_name: Hamadan
  latitude: '34.40305556'
  longitude: '48.21638889'
- name: Qeshlaq-e Qobad
  state_code: '13'
  state_name: Hamadan
  latitude: '34.58777778'
  longitude: '48.89583333'
- name: Qeshlaq-e Shirazi
  state_code: '13'
  state_name: Hamadan
  latitude: '34.38388889'
  longitude: '48.93916667'
- name: Qeshlaq-e Sofla
  state_code: '13'
  state_name: Hamadan
  latitude: '34.70083333'
  longitude: '49.06972222'
- name: Qeshlaq-e Valiollah
  state_code: '13'
  state_name: Hamadan
  latitude: '34.35222222'
  longitude: '48.22416667'
- name: Qeydli Bolagh
  state_code: '13'
  state_name: Hamadan
  latitude: '35.01500000'
  longitude: '48.28750000'
- name: Qilab
  state_code: '13'
  state_name: Hamadan
  latitude: '34.30444444'
  longitude: '48.06083333'
- name: Qohurd-e Sofla
  state_code: '13'
  state_name: Hamadan
  latitude: '35.47111100'
  longitude: '48.05944400'
- name: Qoli Laleh-ye Sofla
  state_code: '13'
  state_name: Hamadan
  latitude: '34.52805556'
  longitude: '48.25972222'
- name: Qolqolabad
  state_code: '13'
  state_name: Hamadan
  latitude: '35.13083333'
  longitude: '49.29083333'
- name: Qorveh-e Darjazin
  state_code: '13'
  state_name: Hamadan
  latitude: '35.31264740'
  longitude: '49.08991810'
- name: Quch Tappeh
  state_code: '13'
  state_name: Hamadan
  latitude: '34.92722222'
  longitude: '48.02611111'
- name: Qushjeh
  state_code: '13'
  state_name: Hamadan
  latitude: '35.66416667'
  longitude: '48.30555556'
- name: Rahmanabad Malayer
  state_code: '13'
  state_name: Hamadan
  latitude: '34.08861111'
  longitude: '48.58555556'
- name: Ramishan
  state_code: '13'
  state_name: Hamadan
  latitude: '35.15972222'
  longitude: '48.80500000'
- name: Rastguyan
  state_code: '13'
  state_name: Hamadan
  latitude: '34.91666667'
  longitude: '48.21666667'
- name: Rasulabad-e Sofla
  state_code: '13'
  state_name: Hamadan
  latitude: '34.87888889'
  longitude: '48.21861111'
- name: Ravand-e Vosta
  state_code: '13'
  state_name: Hamadan
  latitude: '34.13333333'
  longitude: '48.34916667'
- name: Rayegan-e Sofla
  state_code: '13'
  state_name: Hamadan
  latitude: '35.07111100'
  longitude: '48.66333300'
- name: Razaj
  state_code: '13'
  state_name: Hamadan
  latitude: '34.89527778'
  longitude: '49.14666667'
- name: Razan
  state_code: '13'
  state_name: Hamadan
  latitude: '35.38638889'
  longitude: '49.03361111'
- name: Razini
  state_code: '13'
  state_name: Hamadan
  latitude: '34.26777778'
  longitude: '48.12611111'
- name: Reza Baghi
  state_code: '13'
  state_name: Hamadan
  latitude: '35.18277778'
  longitude: '49.31444444'
- name: Rezvankadeh
  state_code: '13'
  state_name: Hamadan
  latitude: '34.25000000'
  longitude: '48.83333333'
- name: Rivasijan
  state_code: '13'
  state_name: Hamadan
  latitude: '34.57722222'
  longitude: '48.43194444'
- name: Robat-e Sheverin
  state_code: '13'
  state_name: Hamadan
  latitude: '34.86111111'
  longitude: '48.60027778'
- name: Rud Avar
  state_code: '13'
  state_name: Hamadan
  latitude: '34.55055556'
  longitude: '48.41055556'
- name: Rud-e Hasan-e Sofla
  state_code: '13'
  state_name: Hamadan
  latitude: '34.12444444'
  longitude: '48.37166667'
- name: Safa Riz
  state_code: '13'
  state_name: Hamadan
  latitude: '35.40694444'
  longitude: '48.30611111'
- name: Sahamabad
  state_code: '13'
  state_name: Hamadan
  latitude: '34.55388889'
  longitude: '48.30472222'
- name: Salehabad
  state_code: '13'
  state_name: Hamadan
  latitude: '34.92361111'
  longitude: '48.34250000'
- name: Salilak
  state_code: '13'
  state_name: Hamadan
  latitude: '35.25277778'
  longitude: '49.11888889'
- name: Saluk
  state_code: '13'
  state_name: Hamadan
  latitude: '34.34138889'
  longitude: '48.99305556'
- name: Samen
  state_code: '13'
  state_name: Hamadan
  latitude: '34.20916667'
  longitude: '48.70583333'
- name: Sanaj
  state_code: '13'
  state_name: Hamadan
  latitude: '35.12222222'
  longitude: '49.02555556'
- name: Sanjuzan
  state_code: '13'
  state_name: Hamadan
  latitude: '34.65611111'
  longitude: '48.39333333'
- name: Sar Duran
  state_code: '13'
  state_name: Hamadan
  latitude: '34.20305556'
  longitude: '48.26388889'
- name: Sarab-e Tajar
  state_code: '13'
  state_name: Hamadan
  latitude: '34.23222222'
  longitude: '48.60638889'
- name: Saravak
  state_code: '13'
  state_name: Hamadan
  latitude: '35.17916667'
  longitude: '48.94638889'
- name: Sarayjuq
  state_code: '13'
  state_name: Hamadan
  latitude: '35.42888889'
  longitude: '47.96194444'
- name: Sarijlu
  state_code: '13'
  state_name: Hamadan
  latitude: '35.61250000'
  longitude: '48.89222222'
- name: Sarkan
  state_code: '13'
  state_name: Hamadan
  latitude: '34.60166667'
  longitude: '48.45055556'
- name: Saziyan
  state_code: '13'
  state_name: Hamadan
  latitude: '34.57361111'
  longitude: '48.15361111'
- name: Sefid Khaneh
  state_code: '13'
  state_name: Hamadan
  latitude: '34.06972222'
  longitude: '48.50805556'
- name: Segavi
  state_code: '13'
  state_name: Hamadan
  latitude: '34.58527778'
  longitude: '48.10083333'
- name: Serkan
  state_code: '13'
  state_name: Hamadan
  latitude: '34.60070120'
  longitude: '48.43862940'
- name: Setaq
  state_code: '13'
  state_name: Hamadan
  latitude: '35.04583300'
  longitude: '49.29638900'
- name: Shademaneh
  state_code: '13'
  state_name: Hamadan
  latitude: '34.36166667'
  longitude: '48.28055556'
- name: Shanabad
  state_code: '13'
  state_name: Hamadan
  latitude: '34.60888889'
  longitude: '48.10416667'
- name: Shanjur
  state_code: '13'
  state_name: Hamadan
  latitude: '35.29722222'
  longitude: '49.17638889'
- name: Sharifabad-e Quzan
  state_code: '13'
  state_name: Hamadan
  latitude: '34.41222222'
  longitude: '48.82583333'
- name: Sharifabad-e Tajar
  state_code: '13'
  state_name: Hamadan
  latitude: '34.26472222'
  longitude: '48.63833333'
- name: Shatzal
  state_code: '13'
  state_name: Hamadan
  latitude: '34.30305556'
  longitude: '47.97388889'
- name: Shavand
  state_code: '13'
  state_name: Hamadan
  latitude: '35.37527778'
  longitude: '49.20972222'
- name: Sheverin
  state_code: '13'
  state_name: Hamadan
  latitude: '34.80750000'
  longitude: '48.57027778'
- name: Sheykh Jarrah
  state_code: '13'
  state_name: Hamadan
  latitude: '35.50222222'
  longitude: '48.22250000'
- name: Shilandar-e Sofla
  state_code: '13'
  state_name: Hamadan
  latitude: '34.66750000'
  longitude: '48.16861111'
- name: Shir Barat
  state_code: '13'
  state_name: Hamadan
  latitude: '35.63333333'
  longitude: '48.38250000'
- name: Shirin Su
  state_code: '13'
  state_name: Hamadan
  latitude: '35.49277778'
  longitude: '48.45055556'
- name: Shush Ab
  state_code: '13'
  state_name: Hamadan
  latitude: '34.35361111'
  longitude: '48.63222222'
- name: Siah Goleh
  state_code: '13'
  state_name: Hamadan
  latitude: '34.94583333'
  longitude: '47.96833333'
- name: Sib Dar
  state_code: '13'
  state_name: Hamadan
  latitude: '34.21694444'
  longitude: '48.78472222'
- name: Silvar
  state_code: '13'
  state_name: Hamadan
  latitude: '34.74583333'
  longitude: '48.50666667'
- name: Simin-e Abaru
  state_code: '13'
  state_name: Hamadan
  latitude: '34.68250000'
  longitude: '48.58583300'
- name: Simin-e Zagheh
  state_code: '13'
  state_name: Hamadan
  latitude: '34.87666667'
  longitude: '48.32166667'
- name: Siravand
  state_code: '13'
  state_name: Hamadan
  latitude: '34.79527778'
  longitude: '47.99638889'
- name: Sistaneh
  state_code: '13'
  state_name: Hamadan
  latitude: '34.66333333'
  longitude: '48.32055556'
- name: Solulan
  state_code: '13'
  state_name: Hamadan
  latitude: '34.82611111'
  longitude: '48.42944444'
- name: Sorkh Kand
  state_code: '13'
  state_name: Hamadan
  latitude: '34.08750000'
  longitude: '48.42916667'
- name: Sulijeh
  state_code: '13'
  state_name: Hamadan
  latitude: '35.26860000'
  longitude: '48.33440000'
- name: Surtajin
  state_code: '13'
  state_name: Hamadan
  latitude: '35.53560000'
  longitude: '49.01390000'
- name: Sutlaq
  state_code: '13'
  state_name: Hamadan
  latitude: '34.57640000'
  longitude: '48.27750000'
- name: Tafrijan
  state_code: '13'
  state_name: Hamadan
  latitude: '34.76330000'
  longitude: '48.58190000'
- name: Tahunabad
  state_code: '13'
  state_name: Hamadan
  latitude: '34.83860000'
  longitude: '48.86640000'
- name: Tajar-e Samen
  state_code: '13'
  state_name: Hamadan
  latitude: '34.22560000'
  longitude: '48.66500000'
- name: Takhtiabad
  state_code: '13'
  state_name: Hamadan
  latitude: '34.81220000'
  longitude: '47.83780000'
- name: Taleh Jerd-e Sofla
  state_code: '13'
  state_name: Hamadan
  latitude: '34.04580000'
  longitude: '48.87780000'
- name: Tamuzan
  state_code: '13'
  state_name: Hamadan
  latitude: '35.27970000'
  longitude: '49.13280000'
- name: Tappeh Yazdan
  state_code: '13'
  state_name: Hamadan
  latitude: '34.33670000'
  longitude: '48.02250000'
- name: Tappeh-ye Dibi
  state_code: '13'
  state_name: Hamadan
  latitude: '35.42920000'
  longitude: '48.69420000'
- name: Taraqayah
  state_code: '13'
  state_name: Hamadan
  latitude: '35.31890000'
  longitude: '48.37110000'
- name: Tarik Darreh-ye Bala
  state_code: '13'
  state_name: Hamadan
  latitude: '34.27330000'
  longitude: '47.93920000'
- name: Tarkhinabad
  state_code: '13'
  state_name: Hamadan
  latitude: '34.81530000'
  longitude: '48.12250000'
- name: Tas Tappeh
  state_code: '13'
  state_name: Hamadan
  latitude: '35.16390000'
  longitude: '48.48330000'
- name: Tasbandi
  state_code: '13'
  state_name: Hamadan
  latitude: '34.56140000'
  longitude: '48.79060000'
- name: Tasran
  state_code: '13'
  state_name: Hamadan
  latitude: '35.33830000'
  longitude: '48.63390000'
- name: Tavaleh
  state_code: '13'
  state_name: Hamadan
  latitude: '35.15440000'
  longitude: '49.04390000'
- name: Tavaneh
  state_code: '13'
  state_name: Hamadan
  latitude: '34.21138900'
  longitude: '48.18583300'
- name: Taveh
  state_code: '13'
  state_name: Hamadan
  latitude: '35.11670000'
  longitude: '49.02720000'
- name: Tavilan-e Sofla
  state_code: '13'
  state_name: Hamadan
  latitude: '34.79940000'
  longitude: '47.86940000'
- name: Tazehnab-e Sofla
  state_code: '13'
  state_name: Hamadan
  latitude: '34.09780000'
  longitude: '48.31530000'
- name: Termianak
  state_code: '13'
  state_name: Hamadan
  latitude: '34.63190000'
  longitude: '48.17360000'
- name: Timi Jan
  state_code: '13'
  state_name: Hamadan
  latitude: '34.69030000'
  longitude: '48.34140000'
- name: Tuchaqaz
  state_code: '13'
  state_name: Hamadan
  latitude: '34.29970000'
  longitude: '48.71500000'
- name: Tulki Tappeh
  state_code: '13'
  state_name: Hamadan
  latitude: '35.49530000'
  longitude: '48.95780000'
- name: Tusk-e Sofla
  state_code: '13'
  state_name: Hamadan
  latitude: '34.25000000'
  longitude: '48.99000000'
- name: Tutal
  state_code: '13'
  state_name: Hamadan
  latitude: '34.51500000'
  longitude: '49.02140000'
- name: Tuyserkan
  state_code: '13'
  state_name: Hamadan
  latitude: '34.54805556'
  longitude: '48.44666667'
- name: Vafr-e Jin
  state_code: '13'
  state_name: Hamadan
  latitude: '34.81030000'
  longitude: '48.38420000'
- name: Vahandeh
  state_code: '13'
  state_name: Hamadan
  latitude: '35.50940000'
  longitude: '49.04750000'
- name: Vahman
  state_code: '13'
  state_name: Hamadan
  latitude: '34.26080000'
  longitude: '48.27080000'
- name: Vahnan
  state_code: '13'
  state_name: Hamadan
  latitude: '34.79000000'
  longitude: '48.28860000'
- name: Vali Mohammad
  state_code: '13'
  state_name: Hamadan
  latitude: '35.15190000'
  longitude: '48.38060000'
- name: Vali Sir Ab
  state_code: '13'
  state_name: Hamadan
  latitude: '34.23280000'
  longitude: '48.18940000'
- name: Vandarabad
  state_code: '13'
  state_name: Hamadan
  latitude: '34.66970000'
  longitude: '48.07890000'
- name: Varayeneh
  state_code: '13'
  state_name: Hamadan
  latitude: '34.07920000'
  longitude: '48.40560000'
- name: Varazaneh
  state_code: '13'
  state_name: Hamadan
  latitude: '34.18640000'
  longitude: '48.18610000'
- name: Varchaq
  state_code: '13'
  state_name: Hamadan
  latitude: '34.37170000'
  longitude: '48.89780000'
- name: Vardavard-e Sofla
  state_code: '13'
  state_name: Hamadan
  latitude: '34.70030000'
  longitude: '48.29390000'
- name: Vardavard-e Vosta
  state_code: '13'
  state_name: Hamadan
  latitude: '34.70440000'
  longitude: '48.30170000'
- name: Varkaneh
  state_code: '13'
  state_name: Hamadan
  latitude: '34.67690000'
  longitude: '48.61920000'
- name: Varqestan
  state_code: '13'
  state_name: Hamadan
  latitude: '35.39640000'
  longitude: '49.00920000'
- name: Varvazin
  state_code: '13'
  state_name: Hamadan
  latitude: '35.36580000'
  longitude: '48.96060000'
- name: Vasaj
  state_code: '13'
  state_name: Hamadan
  latitude: '34.32060000'
  longitude: '48.22580000'
- name: Vashur
  state_code: '13'
  state_name: Hamadan
  latitude: '35.23170000'
  longitude: '48.35170000'
- name: Vasleh
  state_code: '13'
  state_name: Hamadan
  latitude: '35.21280000'
  longitude: '48.34640000'
- name: Vesht
  state_code: '13'
  state_name: Hamadan
  latitude: '34.13860000'
  longitude: '48.46830000'
- name: Vezendan
  state_code: '13'
  state_name: Hamadan
  latitude: '34.95810000'
  longitude: '49.31250000'
- name: Yalfan
  state_code: '13'
  state_name: Hamadan
  latitude: '34.73640000'
  longitude: '48.61110000'
- name: Yarom Qayah
  state_code: '13'
  state_name: Hamadan
  latitude: '35.06890000'
  longitude: '49.38170000'
- name: Yaromjeh Bagh
  state_code: '13'
  state_name: Hamadan
  latitude: '35.51750000'
  longitude: '48.67640000'
- name: Yeganeh
  state_code: '13'
  state_name: Hamadan
  latitude: '34.80720000'
  longitude: '48.63780000'
- name: Yekanabad
  state_code: '13'
  state_name: Hamadan
  latitude: '34.87360000'
  longitude: '48.45420000'
- name: Yekleh
  state_code: '13'
  state_name: Hamadan
  latitude: '34.87777800'
  longitude: '49.00666700'
- name: Yeserlu
  state_code: '13'
  state_name: Hamadan
  latitude: '35.06110000'
  longitude: '48.78360000'
- name: Yunes
  state_code: '13'
  state_name: Hamadan
  latitude: '34.15860000'
