---
- name: Abbateggio
  state_code: '65'
  state_name: Abruzzo
  latitude: '42.22421000'
  longitude: '14.01001000'
- name: Acciano
  state_code: '65'
  state_name: Abruzzo
  latitude: '42.17677000'
  longitude: '13.71783000'
- name: Aielli
  state_code: '65'
  state_name: Abruzzo
  latitude: '42.08146000'
  longitude: '13.59113000'
- name: Alanno
  state_code: '65'
  state_name: Abruzzo
  latitude: '42.29552000'
  longitude: '13.97084000'
- name: Alba Adriatica
  state_code: '65'
  state_name: Abruzzo
  latitude: '42.83176000'
  longitude: '13.92590000'
- name: Alfedena
  state_code: '65'
  state_name: Abruzzo
  latitude: '41.73545000'
  longitude: '14.03500000'
- name: Altino
  state_code: '65'
  state_name: Abruzzo
  latitude: '42.09954000'
  longitude: '14.33267000'
- name: Ancarano
  state_code: '65'
  state_name: Abruzzo
  latitude: '42.83767000'
  longitude: '13.74662000'
- name: Anversa degli Abruzzi
  state_code: '65'
  state_name: Abruzzo
  latitude: '41.99478000'
  longitude: '13.80379000'
- name: Archi
  state_code: '65'
  state_name: Abruzzo
  latitude: '42.09135000'
  longitude: '14.38270000'
- name: Ari
  state_code: '65'
  state_name: Abruzzo
  latitude: '42.28967000'
  longitude: '14.25856000'
- name: Arielli
  state_code: '65'
  state_name: Abruzzo
  latitude: '42.26003000'
  longitude: '14.31004000'
- name: Arsita
  state_code: '65'
  state_name: Abruzzo
  latitude: '42.50266000'
  longitude: '13.78516000'
- name: Ateleta
  state_code: '65'
  state_name: Abruzzo
  latitude: '41.85435000'
  longitude: '14.19806000'
- name: Atessa
  state_code: '65'
  state_name: Abruzzo
  latitude: '42.07018000'
  longitude: '14.45049000'
- name: Atri
  state_code: '65'
  state_name: Abruzzo
  latitude: '42.57642000'
  longitude: '13.98899000'
- name: Avezzano
  state_code: '65'
  state_name: Abruzzo
  latitude: '42.02896000'
  longitude: '13.42641000'
- name: Balsorano
  state_code: '65'
  state_name: Abruzzo
  latitude: '41.80982000'
  longitude: '13.55980000'
- name: Balsorano Nuovo
  state_code: '65'
  state_name: Abruzzo
  latitude: '41.80881000'
  longitude: '13.56069000'
- name: Barberi
  state_code: '65'
  state_name: Abruzzo
  latitude: '42.44072000'
  longitude: '14.04268000'
- name: Barete
  state_code: '65'
  state_name: Abruzzo
  latitude: '42.45009000'
  longitude: '13.28061000'
- name: Barisciano
  state_code: '65'
  state_name: Abruzzo
  latitude: '42.32465000'
  longitude: '13.59036000'
- name: Barrea
  state_code: '65'
  state_name: Abruzzo
  latitude: '41.75543000'
  longitude: '13.99095000'
- name: Basciano
  state_code: '65'
  state_name: Abruzzo
  latitude: '42.59639000'
  longitude: '13.73561000'
- name: Bellante
  state_code: '65'
  state_name: Abruzzo
  latitude: '42.74421000'
  longitude: '13.80234000'
- name: Bellante Stazione
  state_code: '65'
  state_name: Abruzzo
  latitude: '42.70650000'
  longitude: '13.83953000'
- name: Bisegna
  state_code: '65'
  state_name: Abruzzo
  latitude: '41.92113000'
  longitude: '13.75760000'
- name: Bisenti
  state_code: '65'
  state_name: Abruzzo
  latitude: '42.52883000'
  longitude: '13.79950000'
- name: Bolognano
  state_code: '65'
  state_name: Abruzzo
  latitude: '42.21814000'
  longitude: '13.96011000'
- name: Bomba
  state_code: '65'
  state_name: Abruzzo
  latitude: '42.03343000'
  longitude: '14.36656000'
- name: Borgo Santa Maria Immacolata
  state_code: '65'
  state_name: Abruzzo
  latitude: '42.61172000'
  longitude: '14.04553000'
- name: Borrello
  state_code: '65'
  state_name: Abruzzo
  latitude: '41.91730000'
  longitude: '14.30535000'
- name: Brittoli
  state_code: '65'
  state_name: Abruzzo
  latitude: '42.31518000'
  longitude: '13.86026000'
- name: Bucchianico
  state_code: '65'
  state_name: Abruzzo
  latitude: '42.30368000'
  longitude: '14.18377000'
- name: Bugnara
  state_code: '65'
  state_name: Abruzzo
  latitude: '42.02383000'
  longitude: '13.86141000'
- name: Bussi sul Tirino
  state_code: '65'
  state_name: Abruzzo
  latitude: '42.21321000'
  longitude: '13.82511000'
- name: Cagnano Amiterno
  state_code: '65'
  state_name: Abruzzo
  latitude: '42.45744000'
  longitude: '13.22789000'
- name: Calascio
  state_code: '65'
  state_name: Abruzzo
  latitude: '42.32595000'
  longitude: '13.69699000'
- name: Campli
  state_code: '65'
  state_name: Abruzzo
  latitude: '42.72679000'
  longitude: '13.68692000'
- name: Campo di Giove
  state_code: '65'
  state_name: Abruzzo
  latitude: '42.01013000'
  longitude: '14.03941000'
- name: Campotosto
  state_code: '65'
  state_name: Abruzzo
  latitude: '42.55884000'
  longitude: '13.36799000'
- name: Canistro Inferiore
  state_code: '65'
  state_name: Abruzzo
  latitude: '41.94101000'
  longitude: '13.41194000'
- name: Canosa Sannita
  state_code: '65'
  state_name: Abruzzo
  latitude: '42.29629000'
  longitude: '14.30514000'
- name: Cansano
  state_code: '65'
  state_name: Abruzzo
  latitude: '42.00350000'
  longitude: '14.01341000'
- name: Canzano
  state_code: '65'
  state_name: Abruzzo
  latitude: '42.64564000'
  longitude: '13.80410000'
- name: Capestrano
  state_code: '65'
  state_name: Abruzzo
  latitude: '42.26807000'
  longitude: '13.76779000'
- name: Capistrello
  state_code: '65'
  state_name: Abruzzo
  latitude: '41.97223000'
  longitude: '13.39616000'
- name: Capitignano
  state_code: '65'
  state_name: Abruzzo
  latitude: '42.52041000'
  longitude: '13.30122000'
- name: Caporciano
  state_code: '65'
  state_name: Abruzzo
  latitude: '42.25001000'
  longitude: '13.67455000'
- name: Cappadocia
  state_code: '65'
  state_name: Abruzzo
  latitude: '42.00755000'
  longitude: '13.27806000'
- name: Cappelle sul Tavo
  state_code: '65'
  state_name: Abruzzo
  latitude: '42.47709000'
  longitude: '14.10735000'
- name: Caramanico Terme
  state_code: '65'
  state_name: Abruzzo
  latitude: '42.15593000'
  longitude: '14.00480000'
- name: Carapelle Calvisio
  state_code: '65'
  state_name: Abruzzo
  latitude: '42.29908000'
  longitude: '13.68643000'
- name: Carpineto della Nora
  state_code: '65'
  state_name: Abruzzo
  latitude: '42.33365000'
  longitude: '13.86062000'
- name: Carpineto Sinello
  state_code: '65'
  state_name: Abruzzo
  latitude: '42.01044000'
  longitude: '14.50418000'
- name: Carsoli
  state_code: '65'
  state_name: Abruzzo
  latitude: '42.09882000'
  longitude: '13.08856000'
- name: Carunchio
  state_code: '65'
  state_name: Abruzzo
  latitude: '41.91761000'
  longitude: '14.52683000'
- name: Casacanditella
  state_code: '65'
  state_name: Abruzzo
  latitude: '42.24643000'
  longitude: '14.20040000'
- name: Casalanguida
  state_code: '65'
  state_name: Abruzzo
  latitude: '42.03752000'
  longitude: '14.49613000'
- name: Casalbordino-Miracoli
  state_code: '65'
  state_name: Abruzzo
  latitude: '42.15354000'
  longitude: '14.59912000'
- name: Casalincontrada
  state_code: '65'
  state_name: Abruzzo
  latitude: '42.29744000'
  longitude: '14.13511000'
- name: Casoli
  state_code: '65'
  state_name: Abruzzo
  latitude: '42.61723000'
  longitude: '13.97910000'
- name: Castel Castagna
  state_code: '65'
  state_name: Abruzzo
  latitude: '42.54294000'
  longitude: '13.71640000'
- name: Castel del Monte
  state_code: '65'
  state_name: Abruzzo
  latitude: '42.36544000'
  longitude: '13.72592000'
- name: Castel di Ieri
  state_code: '65'
  state_name: Abruzzo
  latitude: '42.11353000'
  longitude: '13.74200000'
- name: Castel di Sangro
  state_code: '65'
  state_name: Abruzzo
  latitude: '41.78392000'
  longitude: '14.10653000'
- name: Castel Frentano
  state_code: '65'
  state_name: Abruzzo
  latitude: '42.19875000'
  longitude: '14.35643000'
- name: Castelguidone
  state_code: '65'
  state_name: Abruzzo
  latitude: '41.82258000'
  longitude: '14.52286000'
- name: Castellafiume
  state_code: '65'
  state_name: Abruzzo
  latitude: '41.98913000'
  longitude: '13.33440000'
- name: Castellalto
  state_code: '65'
  state_name: Abruzzo
  latitude: '42.67705000'
  longitude: '13.82101000'
- name: Castelli
  state_code: '65'
  state_name: Abruzzo
  latitude: '42.48476000'
  longitude: '13.71201000'
- name: Castelnuovo Vomano
  state_code: '65'
  state_name: Abruzzo
  latitude: '42.62933000'
  longitude: '13.85003000'
- name: Castelvecchio Calvisio
  state_code: '65'
  state_name: Abruzzo
  latitude: '42.31134000'
  longitude: '13.68720000'
- name: Castelvecchio Subequo
  state_code: '65'
  state_name: Abruzzo
  latitude: '42.12881000'
  longitude: '13.72868000'
- name: Castiglione a Casauria
  state_code: '65'
  state_name: Abruzzo
  latitude: '42.23601000'
  longitude: '13.89832000'
- name: Castiglione Messer Marino
  state_code: '65'
  state_name: Abruzzo
  latitude: '41.86833000'
  longitude: '14.44996000'
- name: Castiglione Messer Raimondo
  state_code: '65'
  state_name: Abruzzo
  latitude: '42.53194000'
  longitude: '13.87953000'
- name: Castilenti
  state_code: '65'
  state_name: Abruzzo
  latitude: '42.53334000'
  longitude: '13.91710000'
- name: Catignano
  state_code: '65'
  state_name: Abruzzo
  latitude: '42.34697000'
  longitude: '13.95190000'
- name: Celano
  state_code: '65'
  state_name: Abruzzo
  latitude: '42.08077000'
  longitude: '13.51700000'
- name: Celenza sul Trigno
  state_code: '65'
  state_name: Abruzzo
  latitude: '41.87198000'
  longitude: '14.57893000'
- name: Cellino Attanasio
  state_code: '65'
  state_name: Abruzzo
  latitude: '42.58574000'
  longitude: '13.86050000'
- name: Cepagatti
  state_code: '65'
  state_name: Abruzzo
  latitude: '42.36506000'
  longitude: '14.07424000'
- name: Cerchio
  state_code: '65'
  state_name: Abruzzo
  latitude: '42.06357000'
  longitude: '13.60006000'
- name: Cermignano
  state_code: '65'
  state_name: Abruzzo
  latitude: '42.59131000'
  longitude: '13.79540000'
- name: Cerratina
  state_code: '65'
  state_name: Abruzzo
  latitude: '42.39007000'
  longitude: '14.10338000'
- name: Chieti
  state_code: '65'
  state_name: Abruzzo
  latitude: '42.34827000'
  longitude: '14.16494000'
- name: Città Sant'Angelo
  state_code: '65'
  state_name: Abruzzo
  latitude: '42.51254000'
  longitude: '14.06203000'
- name: Civita d'Antino
  state_code: '65'
  state_name: Abruzzo
  latitude: '41.88629000'
  longitude: '13.47215000'
- name: Civitaluparella
  state_code: '65'
  state_name: Abruzzo
  latitude: '41.94490000'
  longitude: '14.30135000'
- name: Civitaquana
  state_code: '65'
  state_name: Abruzzo
  latitude: '42.32578000'
  longitude: '13.90012000'
- name: Civitella Alfedena
  state_code: '65'
  state_name: Abruzzo
  latitude: '41.76533000'
  longitude: '13.94271000'
- name: Civitella Casanova
  state_code: '65'
  state_name: Abruzzo
  latitude: '42.36391000'
  longitude: '13.88514000'
- name: Civitella del Tronto
  state_code: '65'
  state_name: Abruzzo
  latitude: '42.77298000'
  longitude: '13.67626000'
- name: Civitella Messer Raimondo
  state_code: '65'
  state_name: Abruzzo
  latitude: '42.08893000'
  longitude: '14.21701000'
- name: Civitella Roveto
  state_code: '65'
  state_name: Abruzzo
  latitude: '41.91329000'
  longitude: '13.42396000'
- name: Cocullo
  state_code: '65'
  state_name: Abruzzo
  latitude: '42.03283000'
  longitude: '13.77500000'
- name: Collarmele
  state_code: '65'
  state_name: Abruzzo
  latitude: '42.06031000'
  longitude: '13.62670000'
- name: Collecorvino
  state_code: '65'
  state_name: Abruzzo
  latitude: '42.46024000'
  longitude: '14.01564000'
- name: Colledara
  state_code: '65'
  state_name: Abruzzo
  latitude: '42.53918000'
  longitude: '13.67556000'
- name: Colledimacine
  state_code: '65'
  state_name: Abruzzo
  latitude: '42.00370000'
  longitude: '14.20079000'
- name: Colledimezzo
  state_code: '65'
  state_name: Abruzzo
  latitude: '41.98606000'
  longitude: '14.38690000'
- name: Collelongo
  state_code: '65'
  state_name: Abruzzo
  latitude: '41.88659000'
  longitude: '13.58380000'
- name: Collepietro
  state_code: '65'
  state_name: Abruzzo
  latitude: '42.22089000'
  longitude: '13.78101000'
- name: Colleranesco
  state_code: '65'
  state_name: Abruzzo
  latitude: '42.72112000'
  longitude: '13.93732000'
- name: Cologna Spiaggia
  state_code: '65'
  state_name: Abruzzo
  latitude: '42.72152000'
  longitude: '13.98311000'
- name: Colonnella
  state_code: '65'
  state_name: Abruzzo
  latitude: '42.87230000'
  longitude: '13.86987000'
- name: Cominio
  state_code: '65'
  state_name: Abruzzo
  latitude: '42.31248000'
  longitude: '13.43250000'
- name: Controguerra
  state_code: '65'
  state_name: Abruzzo
  latitude: '42.85398000'
  longitude: '13.81775000'
- name: Coppito
  state_code: '65'
  state_name: Abruzzo
  latitude: '42.36730000'
  longitude: '13.34358000'
- name: Corfinio
  state_code: '65'
  state_name: Abruzzo
  latitude: '42.12149000'
  longitude: '13.83940000'
- name: Corropoli
  state_code: '65'
  state_name: Abruzzo
  latitude: '42.82720000'
  longitude: '13.83471000'
- name: Cortino
  state_code: '65'
  state_name: Abruzzo
  latitude: '42.62186000'
  longitude: '13.50774000'
- name: Corvara
  state_code: '65'
  state_name: Abruzzo
  latitude: '42.27511000'
  longitude: '13.87363000'
- name: Crecchio
  state_code: '65'
  state_name: Abruzzo
  latitude: '42.29778000'
  longitude: '14.32656000'
- name: Crognaleto
  state_code: '65'
  state_name: Abruzzo
  latitude: '42.58771000'
  longitude: '13.48890000'
- name: Cugnoli
  state_code: '65'
  state_name: Abruzzo
  latitude: '42.30692000'
  longitude: '13.93490000'
- name: Cupello
  state_code: '65'
  state_name: Abruzzo
  latitude: '42.06936000'
  longitude: '14.67054000'
- name: Dogliola
  state_code: '65'
  state_name: Abruzzo
  latitude: '41.94238000'
  longitude: '14.63507000'
- name: Elice
  state_code: '65'
  state_name: Abruzzo
  latitude: '42.52279000'
  longitude: '13.97071000'
- name: Fallo
  state_code: '65'
  state_name: Abruzzo
  latitude: '41.93833000'
  longitude: '14.32362000'
- name: Fano Adriano
  state_code: '65'
  state_name: Abruzzo
  latitude: '42.55230000'
  longitude: '13.53764000'
- name: Fara Filiorum Petri
  state_code: '65'
  state_name: Abruzzo
  latitude: '42.24152000'
  longitude: '14.18026000'
- name: Fara San Martino
  state_code: '65'
  state_name: Abruzzo
  latitude: '42.09248000'
  longitude: '14.20896000'
- name: Farindola
  state_code: '65'
  state_name: Abruzzo
  latitude: '42.44292000'
  longitude: '13.82137000'
- name: Filetto
  state_code: '65'
  state_name: Abruzzo
  latitude: '42.22931000'
  longitude: '14.24501000'
- name: Fonte Umano-San Martino Alta
  state_code: '65'
  state_name: Abruzzo
  latitude: '42.52084000'
  longitude: '14.10760000'
- name: Fontecchio
  state_code: '65'
  state_name: Abruzzo
  latitude: '42.23027000'
  longitude: '13.60613000'
- name: Fossa
  state_code: '65'
  state_name: Abruzzo
  latitude: '42.29273000'
  longitude: '13.48779000'
- name: Fossacesia
  state_code: '65'
  state_name: Abruzzo
  latitude: '42.24198000'
  longitude: '14.48339000'
- name: Fraine
  state_code: '65'
  state_name: Abruzzo
  latitude: '41.90624000'
  longitude: '14.48788000'
- name: Francavilla al Mare
  state_code: '65'
  state_name: Abruzzo
  latitude: '42.42158000'
  longitude: '14.28217000'
- name: Fresagrandinaria
  state_code: '65'
  state_name: Abruzzo
  latitude: '41.97900000'
  longitude: '14.66211000'
- name: Frisa
  state_code: '65'
  state_name: Abruzzo
  latitude: '42.26572000'
  longitude: '14.37625000'
- name: Furci
  state_code: '65'
  state_name: Abruzzo
  latitude: '42.00746000'
  longitude: '14.58802000'
- name: Gagliano Aterno
  state_code: '65'
  state_name: Abruzzo
  latitude: '42.12598000'
  longitude: '13.70023000'
- name: Gamberale
  state_code: '65'
  state_name: Abruzzo
  latitude: '41.90529000'
  longitude: '14.20845000'
- name: Gessopalena
  state_code: '65'
  state_name: Abruzzo
  latitude: '42.05521000'
  longitude: '14.27367000'
- name: Gioia dei Marsi
  state_code: '65'
  state_name: Abruzzo
  latitude: '41.95697000'
  longitude: '13.69057000'
- name: Gissi
  state_code: '65'
  state_name: Abruzzo
  latitude: '42.01803000'
  longitude: '14.54484000'
- name: Giuliano Teatino
  state_code: '65'
  state_name: Abruzzo
  latitude: '42.31220000'
  longitude: '14.28082000'
- name: Giulianova
  state_code: '65'
  state_name: Abruzzo
  latitude: '42.75381000'
  longitude: '13.96650000'
- name: Goriano Sicoli
  state_code: '65'
  state_name: Abruzzo
  latitude: '42.08011000'
  longitude: '13.77459000'
- name: Guardiagrele
  state_code: '65'
  state_name: Abruzzo
  latitude: '42.19406000'
  longitude: '14.21939000'
- name: Guilmi
  state_code: '65'
  state_name: Abruzzo
  latitude: '41.99653000'
  longitude: '14.47882000'
- name: Imposte
  state_code: '65'
  state_name: Abruzzo
  latitude: '42.68634000'
  longitude: '13.52829000'
- name: Introdacqua
  state_code: '65'
  state_name: Abruzzo
  latitude: '42.00968000'
  longitude: '13.89779000'
- name: Isola del Gran Sasso d'Italia
  state_code: '65'
  state_name: Abruzzo
  latitude: '42.50324000'
  longitude: '13.65721000'
- name: L'Aquila
  state_code: '65'
  state_name: Abruzzo
  latitude: '42.35055000'
  longitude: '13.39954000'
- name: Lama dei Peligni
  state_code: '65'
  state_name: Abruzzo
  latitude: '42.04214000'
  longitude: '14.18678000'
- name: Lanciano
  state_code: '65'
  state_name: Abruzzo
  latitude: '42.22718000'
  longitude: '14.39024000'
- name: Lecce Nei Marsi
  state_code: '65'
  state_name: Abruzzo
  latitude: '41.93436000'
  longitude: '13.68430000'
- name: Lentella
  state_code: '65'
  state_name: Abruzzo
  latitude: '41.99576000'
  longitude: '14.67692000'
- name: Lettomanoppello
  state_code: '65'
  state_name: Abruzzo
  latitude: '42.24336000'
  longitude: '14.03843000'
- name: Lettopalena
  state_code: '65'
  state_name: Abruzzo
  latitude: '42.00251000'
  longitude: '14.15652000'
- name: Liscia
  state_code: '65'
  state_name: Abruzzo
  latitude: '41.95524000'
  longitude: '14.55532000'
- name: Loreto Aprutino
  state_code: '65'
  state_name: Abruzzo
  latitude: '42.43104000'
  longitude: '13.98057000'
- name: Luco dei Marsi
  state_code: '65'
  state_name: Abruzzo
  latitude: '41.95925000'
  longitude: '13.47349000'
- name: Lucoli
  state_code: '65'
  state_name: Abruzzo
  latitude: '42.29093000'
  longitude: '13.33799000'
- name: Magliano De'Marsi
  state_code: '65'
  state_name: Abruzzo
  latitude: '42.09153000'
  longitude: '13.36379000'
- name: Manoppello
  state_code: '65'
  state_name: Abruzzo
  latitude: '42.25918000'
  longitude: '14.06024000'
- name: Manoppello Scalo
  state_code: '65'
  state_name: Abruzzo
  latitude: '42.30762000'
  longitude: '14.05363000'
- name: Marina di San Vito
  state_code: '65'
  state_name: Abruzzo
  latitude: '42.30514000'
  longitude: '14.44844000'
- name: Marina di Vasto
  state_code: '65'
  state_name: Abruzzo
  latitude: '42.09373000'
  longitude: '14.72683000'
- name: Martinsicuro
  state_code: '65'
  state_name: Abruzzo
  latitude: '42.88031000'
  longitude: '13.91326000'
- name: Massa d'Albe-Corona
  state_code: '65'
  state_name: Abruzzo
  latitude: '42.10723000'
  longitude: '13.39429000'
- name: Miglianico
  state_code: '65'
  state_name: Abruzzo
  latitude: '42.35773000'
  longitude: '14.29179000'
- name: Molina Aterno
  state_code: '65'
  state_name: Abruzzo
  latitude: '42.14903000'
  longitude: '13.73540000'
- name: Montazzoli
  state_code: '65'
  state_name: Abruzzo
  latitude: '41.94887000'
  longitude: '14.43069000'
- name: Montebello di Bertona
  state_code: '65'
  state_name: Abruzzo
  latitude: '42.41686000'
  longitude: '13.87119000'
- name: Montebello sul Sangro
  state_code: '65'
  state_name: Abruzzo
  latitude: '41.98663000'
  longitude: '14.32402000'
- name: Monteferrante
  state_code: '65'
  state_name: Abruzzo
  latitude: '41.95396000'
  longitude: '14.38856000'
- name: Montefino
  state_code: '65'
  state_name: Abruzzo
  latitude: '42.54551000'
  longitude: '13.88479000'
- name: Montelapiano
  state_code: '65'
  state_name: Abruzzo
  latitude: '41.96267000'
  longitude: '14.34212000'
- name: Montenerodomo
  state_code: '65'
  state_name: Abruzzo
  latitude: '41.97682000'
  longitude: '14.25177000'
- name: Monteodorisio
  state_code: '65'
  state_name: Abruzzo
  latitude: '42.08485000'
  longitude: '14.65386000'
- name: Montereale
  state_code: '65'
  state_name: Abruzzo
  latitude: '42.52332000'
  longitude: '13.24585000'
- name: Montesilvano Marina
  state_code: '65'
  state_name: Abruzzo
  latitude: '42.51140000'
  longitude: '14.14507000'
- name: Monticchio
  state_code: '65'
  state_name: Abruzzo
  latitude: '42.32035000'
  longitude: '13.46382000'
- name: Montorio al Vomano
  state_code: '65'
  state_name: Abruzzo
  latitude: '42.58123000'
  longitude: '13.63715000'
- name: Morino
  state_code: '65'
  state_name: Abruzzo
  latitude: '41.86442000'
  longitude: '13.45700000'
- name: Morro d'Oro
  state_code: '65'
  state_name: Abruzzo
  latitude: '42.66291000'
  longitude: '13.92129000'
- name: Mosciano Sant'Angelo
  state_code: '65'
  state_name: Abruzzo
  latitude: '42.74700000'
  longitude: '13.88891000'
- name: Moscufo
  state_code: '65'
  state_name: Abruzzo
  latitude: '42.42713000'
  longitude: '14.05434000'
- name: Mozzagrogna
  state_code: '65'
  state_name: Abruzzo
  latitude: '42.21267000'
  longitude: '14.44258000'
- name: Navelli
  state_code: '65'
  state_name: Abruzzo
  latitude: '42.23721000'
  longitude: '13.72961000'
- name: Nepezzano
  state_code: '65'
  state_name: Abruzzo
  latitude: '42.68994000'
  longitude: '13.75650000'
- name: Nereto
  state_code: '65'
  state_name: Abruzzo
  latitude: '42.81548000'
  longitude: '13.81989000'
- name: Nerito
  state_code: '65'
  state_name: Abruzzo
  latitude: '42.54763000'
  longitude: '13.47759000'
- name: Nocciano
  state_code: '65'
  state_name: Abruzzo
  latitude: '42.33366000'
  longitude: '13.98571000'
- name: Notaresco
  state_code: '65'
  state_name: Abruzzo
  latitude: '42.65742000'
  longitude: '13.89491000'
- name: Nucleo Industriale di Bazzano
  state_code: '65'
  state_name: Abruzzo
  latitude: '42.33623000'
  longitude: '13.46755000'
- name: Ofena
  state_code: '65'
  state_name: Abruzzo
  latitude: '42.32536000'
  longitude: '13.75864000'
- name: Opi
  state_code: '65'
  state_name: Abruzzo
  latitude: '41.77838000'
  longitude: '13.82932000'
- name: Oricola
  state_code: '65'
  state_name: Abruzzo
  latitude: '42.04922000'
  longitude: '13.03939000'
- name: Orsogna
  state_code: '65'
  state_name: Abruzzo
  latitude: '42.22344000'
  longitude: '14.28085000'
- name: Ortona
  state_code: '65'
  state_name: Abruzzo
  latitude: '42.35087000'
  longitude: '14.40342000'
- name: Ortona dei Marsi
  state_code: '65'
  state_name: Abruzzo
  latitude: '41.99820000'
  longitude: '13.72909000'
- name: Ortucchio
  state_code: '65'
  state_name: Abruzzo
  latitude: '41.95525000'
  longitude: '13.64651000'
- name: Ovindoli
  state_code: '65'
  state_name: Abruzzo
  latitude: '42.13765000'
  longitude: '13.51603000'
- name: Pacentro
  state_code: '65'
  state_name: Abruzzo
  latitude: '42.05043000'
  longitude: '13.99151000'
- name: Paganica-Tempera
  state_code: '65'
  state_name: Abruzzo
  latitude: '42.35715000'
  longitude: '13.47138000'
- name: Pagliare
  state_code: '65'
  state_name: Abruzzo
  latitude: '42.64372000'
  longitude: '13.95171000'
- name: Paglieta
  state_code: '65'
  state_name: Abruzzo
  latitude: '42.16139000'
  longitude: '14.50306000'
- name: Palena
  state_code: '65'
  state_name: Abruzzo
  latitude: '41.98353000'
  longitude: '14.13696000'
- name: Palmoli
  state_code: '65'
  state_name: Abruzzo
  latitude: '41.93944000'
  longitude: '14.58142000'
- name: Palombaro
  state_code: '65'
  state_name: Abruzzo
  latitude: '42.12323000'
  longitude: '14.22989000'
- name: Penna Sant'Andrea
  state_code: '65'
  state_name: Abruzzo
  latitude: '42.59403000'
  longitude: '13.77215000'
- name: Pennadomo
  state_code: '65'
  state_name: Abruzzo
  latitude: '42.00394000'
  longitude: '14.32338000'
- name: Pennapiedimonte
  state_code: '65'
  state_name: Abruzzo
  latitude: '42.15563000'
  longitude: '14.19432000'
- name: Penne
  state_code: '65'
  state_name: Abruzzo
  latitude: '42.45474000'
  longitude: '13.92754000'
- name: Perano
  state_code: '65'
  state_name: Abruzzo
  latitude: '42.10460000'
  longitude: '14.39581000'
- name: Pereto
  state_code: '65'
  state_name: Abruzzo
  latitude: '42.05821000'
  longitude: '13.10231000'
- name: Pescara
  state_code: '65'
  state_name: Abruzzo
  latitude: '42.45840000'
  longitude: '14.20283000'
- name: Pescasseroli
  state_code: '65'
  state_name: Abruzzo
  latitude: '41.80343000'
  longitude: '13.78707000'
- name: Pescina
  state_code: '65'
  state_name: Abruzzo
  latitude: '42.02351000'
  longitude: '13.65116000'
- name: Pescocostanzo
  state_code: '65'
  state_name: Abruzzo
  latitude: '41.88722000'
  longitude: '14.06614000'
- name: Pescosansonesco Nuovo
  state_code: '65'
  state_name: Abruzzo
  latitude: '42.25524000'
  longitude: '13.88480000'
- name: Pettorano sul Gizio
  state_code: '65'
  state_name: Abruzzo
  latitude: '41.97326000'
  longitude: '13.96001000'
- name: Pianella
  state_code: '65'
  state_name: Abruzzo
  latitude: '42.39918000'
  longitude: '14.04781000'
- name: Pianola
  state_code: '65'
  state_name: Abruzzo
  latitude: '42.32341000'
  longitude: '13.40394000'
- name: Pianura Vomano
  state_code: '65'
  state_name: Abruzzo
  latitude: '42.63028000'
  longitude: '13.91548000'
- name: Picciano
  state_code: '65'
  state_name: Abruzzo
  latitude: '42.47525000'
  longitude: '13.98990000'
- name: Pietracamela
  state_code: '65'
  state_name: Abruzzo
  latitude: '42.52344000'
  longitude: '13.55431000'
- name: Pietraferrazzana
  state_code: '65'
  state_name: Abruzzo
  latitude: '41.96943000'
  longitude: '14.37451000'
- name: Pietranico
  state_code: '65'
  state_name: Abruzzo
  latitude: '42.27565000'
  longitude: '13.91077000'
- name: Pineto
  state_code: '65'
  state_name: Abruzzo
  latitude: '42.60879000'
  longitude: '14.06639000'
- name: Pizzoferrato
  state_code: '65'
  state_name: Abruzzo
  latitude: '41.92244000'
  longitude: '14.23632000'
- name: Pizzoli
  state_code: '65'
  state_name: Abruzzo
  latitude: '42.43603000'
  longitude: '13.29886000'
- name: Poggio Picenze
  state_code: '65'
  state_name: Abruzzo
  latitude: '42.32061000'
  longitude: '13.54036000'
- name: Poggiofiorito
  state_code: '65'
  state_name: Abruzzo
  latitude: '42.25414000'
  longitude: '14.32082000'
- name: Pollutri
  state_code: '65'
  state_name: Abruzzo
  latitude: '42.13784000'
  longitude: '14.59172000'
- name: Popoli
  state_code: '65'
  state_name: Abruzzo
  latitude: '42.16866000'
  longitude: '13.82997000'
- name: Prata d'Ansidonia
  state_code: '65'
  state_name: Abruzzo
  latitude: '42.27793000'
  longitude: '13.60830000'
- name: Pratola Peligna
  state_code: '65'
  state_name: Abruzzo
  latitude: '42.09701000'
  longitude: '13.87467000'
- name: Pretoro
  state_code: '65'
  state_name: Abruzzo
  latitude: '42.21923000'
  longitude: '14.14248000'
- name: Preturo
  state_code: '65'
  state_name: Abruzzo
  latitude: '42.37808000'
  longitude: '13.29633000'
- name: Prezza
  state_code: '65'
  state_name: Abruzzo
  latitude: '42.05789000'
  longitude: '13.83592000'
- name: Progetto Case Bazzano
  state_code: '65'
  state_name: Abruzzo
  latitude: '42.33643000'
  longitude: '13.44410000'
- name: Progetto Case Coppito 3
  state_code: '65'
  state_name: Abruzzo
  latitude: '42.36981000'
  longitude: '13.31973000'
- name: Progetto Case Sassa Nsi
  state_code: '65'
  state_name: Abruzzo
  latitude: '42.36560000'
  longitude: '13.31509000'
- name: Provincia dell' Aquila
  state_code: '65'
  state_name: Abruzzo
  latitude: '42.08333000'
  longitude: '13.66667000'
- name: Provincia di Chieti
  state_code: '65'
  state_name: Abruzzo
  latitude: '42.11667000'
  longitude: '14.35000000'
- name: Provincia di Pescara
  state_code: '65'
  state_name: Abruzzo
  latitude: '42.33333000'
  longitude: '13.95000000'
- name: Provincia di Teramo
  state_code: '65'
  state_name: Abruzzo
  latitude: '42.65000000'
  longitude: '13.68333000'
- name: Quadri
  state_code: '65'
  state_name: Abruzzo
  latitude: '41.92402000'
  longitude: '14.28768000'
- name: Raiano
  state_code: '65'
  state_name: Abruzzo
  latitude: '42.10158000'
  longitude: '13.81386000'
- name: Rapino
  state_code: '65'
  state_name: Abruzzo
  latitude: '42.20931000'
  longitude: '14.18493000'
- name: Ripa Teatina
  state_code: '65'
  state_name: Abruzzo
  latitude: '42.36603000'
  longitude: '14.24441000'
- name: Rivisondoli
  state_code: '65'
  state_name: Abruzzo
  latitude: '41.87023000'
  longitude: '14.06671000'
- name: Rocca di Botte
  state_code: '65'
  state_name: Abruzzo
  latitude: '42.03102000'
  longitude: '13.07185000'
- name: Rocca di Cambio
  state_code: '65'
  state_name: Abruzzo
  latitude: '42.23755000'
  longitude: '13.48906000'
- name: Rocca di Mezzo
  state_code: '65'
  state_name: Abruzzo
  latitude: '42.20441000'
  longitude: '13.51840000'
- name: Rocca Pia
  state_code: '65'
  state_name: Abruzzo
  latitude: '41.93429000'
  longitude: '13.97726000'
- name: Rocca San Giovanni
  state_code: '65'
  state_name: Abruzzo
  latitude: '42.24604000'
  longitude: '14.46162000'
- name: Roccacasale
  state_code: '65'
  state_name: Abruzzo
  latitude: '42.12249000'
  longitude: '13.88758000'
- name: Roccamorice
  state_code: '65'
  state_name: Abruzzo
  latitude: '42.21274000'
  longitude: '14.02531000'
- name: Roccaraso
  state_code: '65'
  state_name: Abruzzo
  latitude: '41.84872000'
  longitude: '14.07846000'
- name: Roccascalegna
  state_code: '65'
  state_name: Abruzzo
  latitude: '42.06212000'
  longitude: '14.30802000'
- name: Roccaspinalveti-Santa Giusta
  state_code: '65'
  state_name: Abruzzo
  latitude: '41.94233000'
  longitude: '14.47092000'
- name: Roccavivi
  state_code: '65'
  state_name: Abruzzo
  latitude: '41.81214000'
  longitude: '13.53662000'
- name: Roio del Sangro
  state_code: '65'
  state_name: Abruzzo
  latitude: '41.91153000'
  longitude: '14.37382000'
- name: Rosciano
  state_code: '65'
  state_name: Abruzzo
  latitude: '42.32227000'
  longitude: '14.04555000'
- name: Rosello
  state_code: '65'
  state_name: Abruzzo
  latitude: '41.90116000'
  longitude: '14.34919000'
- name: Roseto degli Abruzzi
  state_code: '65'
  state_name: Abruzzo
  latitude: '42.67164000'
  longitude: '14.01481000'
- name: Salino
  state_code: '65'
  state_name: Abruzzo
  latitude: '42.78571000'
  longitude: '13.91400000'
- name: Salle
  state_code: '65'
  state_name: Abruzzo
  latitude: '42.17756000'
  longitude: '13.96091000'
- name: Salvo Marina
  state_code: '65'
  state_name: Abruzzo
  latitude: '42.07037000'
  longitude: '14.76597000'
- name: Sambuceto
  state_code: '65'
  state_name: Abruzzo
  latitude: '42.42168000'
  longitude: '14.18747000'
- name: San Benedetto dei Marsi
  state_code: '65'
  state_name: Abruzzo
  latitude: '42.00760000'
  longitude: '13.62381000'
- name: San Benedetto in Perillis
  state_code: '65'
  state_name: Abruzzo
  latitude: '42.18377000'
  longitude: '13.76996000'
- name: San Buono
  state_code: '65'
  state_name: Abruzzo
  latitude: '41.98140000'
  longitude: '14.56818000'
- name: San Demetrio Ne' Vestini
  state_code: '65'
  state_name: Abruzzo
  latitude: '42.28963000'
  longitude: '13.55519000'
- name: San Giovanni Lipioni
  state_code: '65'
  state_name: Abruzzo
  latitude: '41.84383000'
  longitude: '14.56271000'
- name: San Martino Bassa
  state_code: '65'
  state_name: Abruzzo
  latitude: '42.51827000'
  longitude: '14.13045000'
- name: San Martino sulla Marrucina
  state_code: '65'
  state_name: Abruzzo
  latitude: '42.22419000'
  longitude: '14.21577000'
- name: San Nicolò a Tordino
  state_code: '65'
  state_name: Abruzzo
  latitude: '42.69648000'
  longitude: '13.79708000'
- name: San Panfilo d'Ocre
  state_code: '65'
  state_name: Abruzzo
  latitude: '42.28616000'
  longitude: '13.47518000'
- name: San Pio delle Camere
  state_code: '65'
  state_name: Abruzzo
  latitude: '42.28423000'
  longitude: '13.65570000'
- name: San Rocco
  state_code: '65'
  state_name: Abruzzo
  latitude: '42.24294000'
  longitude: '14.12891000'
- name: San Salvo
  state_code: '65'
  state_name: Abruzzo
  latitude: '42.04413000'
  longitude: '14.73335000'
- name: San Valentino in Abruzzo Citeriore
  state_code: '65'
  state_name: Abruzzo
  latitude: '42.23304000'
  longitude: '13.98561000'
- name: San Vincenzo Valle Roveto
  state_code: '65'
  state_name: Abruzzo
  latitude: '41.84452000'
  longitude: '13.53566000'
- name: San Vito Chietino
  state_code: '65'
  state_name: Abruzzo
  latitude: '42.29014000'
  longitude: '14.44270000'
- name: Sant'Egidio alla Vibrata
  state_code: '65'
  state_name: Abruzzo
  latitude: '42.81705000'
  longitude: '13.72164000'
- name: Sant'Eufemia a Maiella
  state_code: '65'
  state_name: Abruzzo
  latitude: '42.12613000'
  longitude: '14.02651000'
- name: Sant'Eusanio del Sangro
  state_code: '65'
  state_name: Abruzzo
  latitude: '42.16908000'
  longitude: '14.32776000'
- name: Sant'Eusanio Forconese
  state_code: '65'
  state_name: Abruzzo
  latitude: '42.28951000'
  longitude: '13.52425000'
- name: Sant'Omero
  state_code: '65'
  state_name: Abruzzo
  latitude: '42.79011000'
  longitude: '13.78906000'
- name: Santa Maria Imbaro
  state_code: '65'
  state_name: Abruzzo
  latitude: '42.21999000'
  longitude: '14.45027000'
- name: Santa Teresa
  state_code: '65'
  state_name: Abruzzo
  latitude: '42.42753000'
  longitude: '14.15816000'
- name: Sante Marie
  state_code: '65'
  state_name: Abruzzo
  latitude: '42.10369000'
  longitude: '13.20163000'
- name: Santo Stefano di Sessanio
  state_code: '65'
  state_name: Abruzzo
  latitude: '42.34339000'
  longitude: '13.64477000'
- name: Sassa
  state_code: '65'
  state_name: Abruzzo
  latitude: '42.35204000'
  longitude: '13.29924000'
- name: Scafa
  state_code: '65'
  state_name: Abruzzo
  latitude: '42.26575000'
  longitude: '13.99665000'
- name: Scanno
  state_code: '65'
  state_name: Abruzzo
  latitude: '41.90442000'
  longitude: '13.87961000'
- name: Scerne
  state_code: '65'
  state_name: Abruzzo
  latitude: '42.64754000'
  longitude: '14.03791000'
- name: Scerni
  state_code: '65'
  state_name: Abruzzo
  latitude: '42.10418000'
  longitude: '14.57428000'
- name: Schiavi di Abruzzo
  state_code: '65'
  state_name: Abruzzo
  latitude: '41.81311000'
  longitude: '14.48655000'
- name: Scontrone
  state_code: '65'
  state_name: Abruzzo
  latitude: '41.74681000'
  longitude: '14.03880000'
- name: Scoppito
  state_code: '65'
  state_name: Abruzzo
  latitude: '42.36948000'
  longitude: '13.25936000'
- name: Scurcola Marsicana
  state_code: '65'
  state_name: Abruzzo
  latitude: '42.06313000'
  longitude: '13.33919000'
- name: Secinaro
  state_code: '65'
  state_name: Abruzzo
  latitude: '42.15062000'
  longitude: '13.68145000'
- name: Selva
  state_code: '65'
  state_name: Abruzzo
  latitude: '42.11442000'
  longitude: '14.34425000'
- name: Serramonacesca
  state_code: '65'
  state_name: Abruzzo
  latitude: '42.24795000'
  longitude: '14.09297000'
- name: Silvi
  state_code: '65'
  state_name: Abruzzo
  latitude: '42.54984000'
  longitude: '14.11759000'
- name: Spoltore
  state_code: '65'
  state_name: Abruzzo
  latitude: '42.45501000'
  longitude: '14.13988000'
- name: Sulmona
  state_code: '65'
  state_name: Abruzzo
  latitude: '42.04945000'
  longitude: '13.92578000'
- name: Tagliacozzo
  state_code: '65'
  state_name: Abruzzo
  latitude: '42.06933000'
  longitude: '13.25469000'
- name: Taranta Peligna
  state_code: '65'
  state_name: Abruzzo
  latitude: '42.02052000'
  longitude: '14.17103000'
- name: Teramo
  state_code: '65'
  state_name: Abruzzo
  latitude: '42.66123000'
  longitude: '13.69901000'
- name: Tione degli Abruzzi
  state_code: '65'
  state_name: Abruzzo
  latitude: '42.20393000'
  longitude: '13.63570000'
- name: Tocco da Casauria
  state_code: '65'
  state_name: Abruzzo
  latitude: '42.21203000'
  longitude: '13.91547000'
- name: Tollo
  state_code: '65'
  state_name: Abruzzo
  latitude: '42.34542000'
  longitude: '14.32360000'
- name: Torano Nuovo
  state_code: '65'
  state_name: Abruzzo
  latitude: '42.82305000'
  longitude: '13.77729000'
- name: Torino di Sangro
  state_code: '65'
  state_name: Abruzzo
  latitude: '42.19100000'
  longitude: '14.54272000'
- name: Tornareccio
  state_code: '65'
  state_name: Abruzzo
  latitude: '42.03763000'
  longitude: '14.41525000'
- name: Tornimparte
  state_code: '65'
  state_name: Abruzzo
  latitude: '42.29007000'
  longitude: '13.30092000'
- name: Torre de' Passeri
  state_code: '65'
  state_name: Abruzzo
  latitude: '42.24324000'
  longitude: '13.93330000'
- name: Torrebruna
  state_code: '65'
  state_name: Abruzzo
  latitude: '41.86742000'
  longitude: '14.54148000'
- name: Torrevecchia
  state_code: '65'
  state_name: Abruzzo
  latitude: '42.38274000'
  longitude: '14.21331000'
- name: Torricella
  state_code: '65'
  state_name: Abruzzo
  latitude: '42.65904000'
  longitude: '13.65719000'
- name: Torricella Peligna
  state_code: '65'
  state_name: Abruzzo
  latitude: '42.02397000'
  longitude: '14.25854000'
- name: Tortoreto
  state_code: '65'
  state_name: Abruzzo
  latitude: '42.80371000'
  longitude: '13.91346000'
- name: Tortoreto Lido
  state_code: '65'
  state_name: Abruzzo
  latitude: '42.79956000'
  longitude: '13.94205000'
- name: Tossicia
  state_code: '65'
  state_name: Abruzzo
  latitude: '42.54472000'
  longitude: '13.64595000'
- name: Trasacco
  state_code: '65'
  state_name: Abruzzo
  latitude: '41.95742000'
  longitude: '13.53270000'
- name: Treglio
  state_code: '65'
  state_name: Abruzzo
  latitude: '42.26184000'
  longitude: '14.42315000'
- name: Tufillo
  state_code: '65'
  state_name: Abruzzo
  latitude: '41.91685000'
  longitude: '14.62558000'
- name: Turrivalignani
  state_code: '65'
  state_name: Abruzzo
  latitude: '42.26296000'
  longitude: '14.02852000'
- name: Vacri
  state_code: '65'
  state_name: Abruzzo
  latitude: '42.29764000'
  longitude: '14.22901000'
- name: Valle Castellana
  state_code: '65'
  state_name: Abruzzo
  latitude: '42.73614000'
  longitude: '13.49709000'
- name: Vallecupa
  state_code: '65'
  state_name: Abruzzo
  latitude: '42.25366000'
  longitude: '13.57467000'
- name: Vasto
  state_code: '65'
  state_name: Abruzzo
  latitude: '42.11150000'
  longitude: '14.70649000'
- name: Vicoli
  state_code: '65'
  state_name: Abruzzo
  latitude: '42.34095000'
  longitude: '13.89688000'
- name: Villa Caldari
  state_code: '65'
  state_name: Abruzzo
  latitude: '42.29566000'
  longitude: '14.36157000'
- name: Villa Celiera
  state_code: '65'
  state_name: Abruzzo
  latitude: '42.38184000'
  longitude: '13.85860000'
- name: Villa Lempa
  state_code: '65'
  state_name: Abruzzo
  latitude: '42.79345000'
  longitude: '13.64433000'
- name: Villa Raspa
  state_code: '65'
  state_name: Abruzzo
  latitude: '42.45542000'
  longitude: '14.18457000'
- name: Villa Rosa
  state_code: '65'
  state_name: Abruzzo
  latitude: '42.85059000'
  longitude: '13.92015000'
- name: Villa Sant'Angelo
  state_code: '65'
  state_name: Abruzzo
  latitude: '42.27043000'
  longitude: '13.53710000'
- name: Villa Santa Lucia degli Abruzzi
  state_code: '65'
  state_name: Abruzzo
  latitude: '42.33286000'
  longitude: '13.77792000'
- name: Villa Santa Maria
  state_code: '65'
  state_name: Abruzzo
  latitude: '41.95130000'
  longitude: '14.35148000'
- name: Villagrande
  state_code: '65'
  state_name: Abruzzo
  latitude: '42.29533000'
  longitude: '13.29999000'
- name: Villalago
  state_code: '65'
  state_name: Abruzzo
  latitude: '41.93514000'
  longitude: '13.83868000'
- name: Villalfonsina
  state_code: '65'
  state_name: Abruzzo
  latitude: '42.16038000'
  longitude: '14.56932000'
- name: Villamagna
  state_code: '65'
  state_name: Abruzzo
  latitude: '42.32984000'
  longitude: '14.23689000'
- name: Villanova
  state_code: '65'
  state_name: Abruzzo
  latitude: '42.38251000'
  longitude: '14.12338000'
- name: Villavallelonga
  state_code: '65'
  state_name: Abruzzo
  latitude: '41.87104000'
  longitude: '13.62088000'
- name: Villetta Barrea
  state_code: '65'
  state_name: Abruzzo
  latitude: '41.77646000'
  longitude: '13.93892000'
- name: Vittorito
  state_code: '65'
  state_name: Abruzzo
  latitude: '42.12703000'
  longitude: '13.81670000'
- name: Allein
  state_code: '23'
  state_name: Aosta Valley
  latitude: '45.80723000'
  longitude: '7.27262000'
- name: Antagnod
  state_code: '23'
  state_name: Aosta Valley
  latitude: '45.81484000'
  longitude: '7.68931000'
- name: Antey-Saint-Andrè
  state_code: '23'
  state_name: Aosta Valley
  latitude: '45.80603000'
  longitude: '7.58666000'
- name: Aosta
  state_code: '23'
  state_name: Aosta Valley
  latitude: '45.73764000'
  longitude: '7.31722000'
- name: Arnad
  state_code: '23'
  state_name: Aosta Valley
  latitude: '45.64726000'
  longitude: '7.71701000'
- name: Arvier
  state_code: '23'
  state_name: Aosta Valley
  latitude: '45.70205000'
  longitude: '7.16267000'
- name: Avise
  state_code: '23'
  state_name: Aosta Valley
  latitude: '45.70886000'
  longitude: '7.13990000'
- name: Ayas
  state_code: '23'
  state_name: Aosta Valley
  latitude: '45.81506000'
  longitude: '7.68911000'
- name: Aymavilles
  state_code: '23'
  state_name: Aosta Valley
  latitude: '45.70130000'
  longitude: '7.24683000'
- name: Bard
  state_code: '23'
  state_name: Aosta Valley
  latitude: '45.60936000'
  longitude: '7.74491000'
- name: Berriat
  state_code: '23'
  state_name: Aosta Valley
  latitude: '45.70729000'
  longitude: '7.67617000'
- name: Bionaz
  state_code: '23'
  state_name: Aosta Valley
  latitude: '45.87356000'
  longitude: '7.42310000'
- name: Brusson
  state_code: '23'
  state_name: Aosta Valley
  latitude: '45.75926000'
  longitude: '7.72899000'
- name: Challand-Saint-Anselme
  state_code: '23'
  state_name: Aosta Valley
  latitude: '45.71456000'
  longitude: '7.73451000'
- name: Challand-Saint-Victor
  state_code: '23'
  state_name: Aosta Valley
  latitude: '45.69046000'
  longitude: '7.70471000'
- name: Chambave
  state_code: '23'
  state_name: Aosta Valley
  latitude: '45.74426000'
  longitude: '7.54931000'
- name: Chamois
  state_code: '23'
  state_name: Aosta Valley
  latitude: '45.83886000'
  longitude: '7.61871000'
- name: Champdepraz
  state_code: '23'
  state_name: Aosta Valley
  latitude: '45.68526000'
  longitude: '7.65681000'
- name: Champorcher
  state_code: '23'
  state_name: Aosta Valley
  latitude: '45.62376000'
  longitude: '7.62151000'
- name: Charvensod
  state_code: '23'
  state_name: Aosta Valley
  latitude: '45.72025000'
  longitude: '7.32433000'
- name: Chatillon
  state_code: '23'
  state_name: Aosta Valley
  latitude: '45.74991000'
  longitude: '7.61668000'
- name: Chef-Lieu
  state_code: '23'
  state_name: Aosta Valley
  latitude: '45.75091000'
  longitude: '7.35372000'
- name: Cogne
  state_code: '23'
  state_name: Aosta Valley
  latitude: '45.60742000'
  longitude: '7.35803000'
- name: Courmayeur
  state_code: '23'
  state_name: Aosta Valley
  latitude: '45.79659000'
  longitude: '6.96893000'
- name: Donnas
  state_code: '23'
  state_name: Aosta Valley
  latitude: '45.60286000'
  longitude: '7.77491000'
- name: Doues
  state_code: '23'
  state_name: Aosta Valley
  latitude: '45.81916000'
  longitude: '7.30600000'
- name: Emarese
  state_code: '23'
  state_name: Aosta Valley
  latitude: '45.72489000'
  longitude: '7.68976000'
- name: Etroubles
  state_code: '23'
  state_name: Aosta Valley
  latitude: '45.82082000'
  longitude: '7.23137000'
- name: Fénis
  state_code: '23'
  state_name: Aosta Valley
  latitude: '45.73469000'
  longitude: '7.49544000'
- name: Fontainemore
  state_code: '23'
  state_name: Aosta Valley
  latitude: '45.64746000'
  longitude: '7.85952000'
- name: Gaby
  state_code: '23'
  state_name: Aosta Valley
  latitude: '45.71300000'
  longitude: '7.88224000'
- name: Gignod
  state_code: '23'
  state_name: Aosta Valley
  latitude: '45.77996000'
  longitude: '7.29640000'
- name: Grand Brissogne
  state_code: '23'
  state_name: Aosta Valley
  latitude: '45.72566000'
  longitude: '7.39260000'
- name: Gressan
  state_code: '23'
  state_name: Aosta Valley
  latitude: '45.72050000'
  longitude: '7.29311000'
- name: Gressoney-La-Trinitè
  state_code: '23'
  state_name: Aosta Valley
  latitude: '45.82967000'
  longitude: '7.82321000'
- name: Gressoney-Saint-Jean
  state_code: '23'
  state_name: Aosta Valley
  latitude: '45.77272000'
  longitude: '7.82802000'
- name: Hone
  state_code: '23'
  state_name: Aosta Valley
  latitude: '45.61356000'
  longitude: '7.73851000'
- name: Introd
  state_code: '23'
  state_name: Aosta Valley
  latitude: '45.69306000'
  longitude: '7.18240000'
- name: Issime
  state_code: '23'
  state_name: Aosta Valley
  latitude: '45.68546000'
  longitude: '7.85411000'
- name: Issogne
  state_code: '23'
  state_name: Aosta Valley
  latitude: '45.65496000'
  longitude: '7.68571000'
- name: Jovencan
  state_code: '23'
  state_name: Aosta Valley
  latitude: '45.71486000'
  longitude: '7.27260000'
- name: La Cretaz-Roisan
  state_code: '23'
  state_name: Aosta Valley
  latitude: '45.78396000'
  longitude: '7.31310000'
- name: La Magdeleine
  state_code: '23'
  state_name: Aosta Valley
  latitude: '45.80996000'
  longitude: '7.61871000'
- name: La Place
  state_code: '23'
  state_name: Aosta Valley
  latitude: '45.65414000'
  longitude: '7.68414000'
- name: La Salle
  state_code: '23'
  state_name: Aosta Valley
  latitude: '45.74497000'
  longitude: '7.07295000'
- name: La Thuile
  state_code: '23'
  state_name: Aosta Valley
  latitude: '45.71366000'
  longitude: '6.95099000'
- name: Lassolaz
  state_code: '23'
  state_name: Aosta Valley
  latitude: '45.73851000'
  longitude: '7.58883000'
- name: Lillianes
  state_code: '23'
  state_name: Aosta Valley
  latitude: '45.62948000'
  longitude: '7.84126000'
- name: Mongnod
  state_code: '23'
  state_name: Aosta Valley
  latitude: '45.80549000'
  longitude: '7.56806000'
- name: Montan-Angelin-Arensod
  state_code: '23'
  state_name: Aosta Valley
  latitude: '45.72820000'
  longitude: '7.27647000'
- name: Montjovet
  state_code: '23'
  state_name: Aosta Valley
  latitude: '45.70796000'
  longitude: '7.67411000'
- name: Morgex
  state_code: '23'
  state_name: Aosta Valley
  latitude: '45.75664000'
  longitude: '7.04123000'
- name: Nus
  state_code: '23'
  state_name: Aosta Valley
  latitude: '45.74026000'
  longitude: '7.46660000'
- name: Ollomont
  state_code: '23'
  state_name: Aosta Valley
  latitude: '45.84976000'
  longitude: '7.31060000'
- name: Oyace
  state_code: '23'
  state_name: Aosta Valley
  latitude: '45.85116000'
  longitude: '7.38300000'
- name: Paquier
  state_code: '23'
  state_name: Aosta Valley
  latitude: '45.87879000'
  longitude: '7.62575000'
- name: Perloz
  state_code: '23'
  state_name: Aosta Valley
  latitude: '45.61386000'
  longitude: '7.80811000'
- name: Petit Fenis
  state_code: '23'
  state_name: Aosta Valley
  latitude: '45.75115000'
  longitude: '7.46391000'
- name: Plan d'Introd
  state_code: '23'
  state_name: Aosta Valley
  latitude: '45.69203000'
  longitude: '7.18328000'
- name: Pollein
  state_code: '23'
  state_name: Aosta Valley
  latitude: '45.72780000'
  longitude: '7.35146000'
- name: Pont-Bozet
  state_code: '23'
  state_name: Aosta Valley
  latitude: '45.60726000'
  longitude: '7.68641000'
- name: Pont-Saint-Martin
  state_code: '23'
  state_name: Aosta Valley
  latitude: '45.59536000'
  longitude: '7.79451000'
- name: Pontey
  state_code: '23'
  state_name: Aosta Valley
  latitude: '45.73886000'
  longitude: '7.58831000'
- name: Prè Saint Didier
  state_code: '23'
  state_name: Aosta Valley
  latitude: '45.76416000'
  longitude: '6.98579000'
- name: Quart
  state_code: '23'
  state_name: Aosta Valley
  latitude: '45.74096000'
  longitude: '7.41520000'
- name: Quincod
  state_code: '23'
  state_name: Aosta Valley
  latitude: '45.71513000'
  longitude: '7.73495000'
- name: Rhemes-Notre-Dame
  state_code: '23'
  state_name: Aosta Valley
  latitude: '45.56965000'
  longitude: '7.11870000'
- name: Rhemes-Saint-Georges
  state_code: '23'
  state_name: Aosta Valley
  latitude: '45.65226000'
  longitude: '7.15440000'
- name: Saint Marcel
  state_code: '23'
  state_name: Aosta Valley
  latitude: '45.73146000'
  longitude: '7.44820000'
- name: Saint Maurice
  state_code: '23'
  state_name: Aosta Valley
  latitude: '45.71771000'
  longitude: '7.25547000'
- name: Saint-Christophe
  state_code: '23'
  state_name: Aosta Valley
  latitude: '45.75406000'
  longitude: '7.34720000'
- name: Saint-Denis
  state_code: '23'
  state_name: Aosta Valley
  latitude: '45.75256000'
  longitude: '7.55531000'
- name: Saint-Nicolas
  state_code: '23'
  state_name: Aosta Valley
  latitude: '45.71656000'
  longitude: '7.16670000'
- name: Saint-Oyen
  state_code: '23'
  state_name: Aosta Valley
  latitude: '45.82439000'
  longitude: '7.21372000'
- name: Saint-Pierre
  state_code: '23'
  state_name: Aosta Valley
  latitude: '45.71153000'
  longitude: '7.22683000'
- name: Saint-Rhémy
  state_code: '23'
  state_name: Aosta Valley
  latitude: '45.83553000'
  longitude: '7.18393000'
- name: Saint-Vincent
  state_code: '23'
  state_name: Aosta Valley
  latitude: '45.75082000'
  longitude: '7.64815000'
- name: San Leonardo
  state_code: '23'
  state_name: Aosta Valley
  latitude: '45.82366000'
  longitude: '7.18140000'
- name: Torgnon
  state_code: '23'
  state_name: Aosta Valley
  latitude: '45.80616000'
  longitude: '7.56980000'
- name: Valgrisenche
  state_code: '23'
  state_name: Aosta Valley
  latitude: '45.63036000'
  longitude: '7.06400000'
- name: Valle d'Aosta
  state_code: '23'
  state_name: Aosta Valley
  latitude: '45.76667000'
  longitude: '7.41667000'
- name: Valpelline
  state_code: '23'
  state_name: Aosta Valley
  latitude: '45.82486000'
  longitude: '7.32550000'
- name: Valsavarenche
  state_code: '23'
  state_name: Aosta Valley
  latitude: '45.59186000'
  longitude: '7.21000000'
- name: Valtournenche
  state_code: '23'
  state_name: Aosta Valley
  latitude: '45.87607000'
  longitude: '7.62430000'
- name: Verrayes
  state_code: '23'
  state_name: Aosta Valley
  latitude: '45.76326000'
  longitude: '7.53460000'
- name: Verres
  state_code: '23'
  state_name: Aosta Valley
  latitude: '45.66656000'
  longitude: '7.68911000'
- name: Villa-Nabian
  state_code: '23'
  state_name: Aosta Valley
  latitude: '45.68970000'
  longitude: '7.70470000'
- name: Villair-Amerique
  state_code: '23'
  state_name: Aosta Valley
  latitude: '45.74793000'
  longitude: '7.38982000'
- name: Ville Sur Sarre
  state_code: '23'
  state_name: Aosta Valley
  latitude: '45.73339000'
  longitude: '7.25857000'
- name: Villefranche
  state_code: '23'
  state_name: Aosta Valley
  latitude: '45.74064000'
  longitude: '7.41598000'
- name: Villeneuve
  state_code: '23'
  state_name: Aosta Valley
  latitude: '45.70201000'
  longitude: '7.20682000'
- name: Accadia
  state_code: '75'
  state_name: Apulia
  latitude: '41.15768000'
  longitude: '15.33100000'
- name: Acquarica del Capo
  state_code: '75'
  state_name: Apulia
  latitude: '39.90979000'
  longitude: '18.24680000'
- name: Acquaviva delle Fonti
  state_code: '75'
  state_name: Apulia
  latitude: '40.89704000'
  longitude: '16.84330000'
- name: Adelfia
  state_code: '75'
  state_name: Apulia
  latitude: '41.00330000'
  longitude: '16.87208000'
- name: Alberobello
  state_code: '75'
  state_name: Apulia
  latitude: '40.78448000'
  longitude: '17.23618000'
- name: Alberona
  state_code: '75'
  state_name: Apulia
  latitude: '41.43225000'
  longitude: '15.12304000'
- name: Alessano
  state_code: '75'
  state_name: Apulia
  latitude: '39.89381000'
  longitude: '18.33221000'
- name: Alezio
  state_code: '75'
  state_name: Apulia
  latitude: '40.06226000'
  longitude: '18.05712000'
- name: Alliste
  state_code: '75'
  state_name: Apulia
  latitude: '39.94803000'
  longitude: '18.08971000'
- name: Altamura
  state_code: '75'
  state_name: Apulia
  latitude: '40.82664000'
  longitude: '16.54952000'
- name: Andrano
  state_code: '75'
  state_name: Apulia
  latitude: '39.98546000'
  longitude: '18.38232000'
- name: Anzano di Puglia
  state_code: '75'
  state_name: Apulia
  latitude: '41.12162000'
  longitude: '15.28688000'
- name: Apricena
  state_code: '75'
  state_name: Apulia
  latitude: '41.78629000'
  longitude: '15.44394000'
- name: Aradeo
  state_code: '75'
  state_name: Apulia
  latitude: '40.12921000'
  longitude: '18.12951000'
- name: Arnesano
  state_code: '75'
  state_name: Apulia
  latitude: '40.33679000'
  longitude: '18.09145000'
- name: Ascoli Satriano
  state_code: '75'
  state_name: Apulia
  latitude: '41.20365000'
  longitude: '15.56646000'
- name: Avetrana
  state_code: '75'
  state_name: Apulia
  latitude: '40.35070000'
  longitude: '17.73260000'
- name: Bagnolo del Salento
  state_code: '75'
  state_name: Apulia
  latitude: '40.14908000'
  longitude: '18.35208000'
- name: Bari
  state_code: '75'
  state_name: Apulia
  latitude: '40.93333000'
  longitude: '16.66667000'
- name: Biccari
  state_code: '75'
  state_name: Apulia
  latitude: '41.39736000'
  longitude: '15.19644000'
- name: Binetto
  state_code: '75'
  state_name: Apulia
  latitude: '41.02343000'
  longitude: '16.70988000'
- name: Bitetto
  state_code: '75'
  state_name: Apulia
  latitude: '41.04146000'
  longitude: '16.74806000'
- name: Bitonto
  state_code: '75'
  state_name: Apulia
  latitude: '41.11006000'
  longitude: '16.69086000'
- name: Bitritto
  state_code: '75'
  state_name: Apulia
  latitude: '41.04336000'
  longitude: '16.82682000'
- name: Borgagne
  state_code: '75'
  state_name: Apulia
  latitude: '40.24108000'
  longitude: '18.37661000'
- name: Botrugno
  state_code: '75'
  state_name: Apulia
  latitude: '40.06359000'
  longitude: '18.32254000'
- name: Bovino
  state_code: '75'
  state_name: Apulia
  latitude: '41.24916000'
  longitude: '15.33948000'
- name: Brindisi
  state_code: '75'
  state_name: Apulia
  latitude: '40.63215000'
  longitude: '17.93607000'
- name: Cagnano Varano
  state_code: '75'
  state_name: Apulia
  latitude: '41.82832000'
  longitude: '15.77203000'
- name: Calimera
  state_code: '75'
  state_name: Apulia
  latitude: '40.24948000'
  longitude: '18.27982000'
- name: Campi Salentina
  state_code: '75'
  state_name: Apulia
  latitude: '40.39747000'
  longitude: '18.02141000'
- name: Candela
  state_code: '75'
  state_name: Apulia
  latitude: '41.13601000'
  longitude: '15.51537000'
- name: Cannole
  state_code: '75'
  state_name: Apulia
  latitude: '40.16592000'
  longitude: '18.36456000'
- name: Capirro
  state_code: '75'
  state_name: Apulia
  latitude: '41.25403000'
  longitude: '16.42242000'
- name: Caprarica di Lecce
  state_code: '75'
  state_name: Apulia
  latitude: '40.26060000'
  longitude: '18.24426000'
- name: Capurso
  state_code: '75'
  state_name: Apulia
  latitude: '41.04598000'
  longitude: '16.92168000'
- name: Carapelle
  state_code: '75'
  state_name: Apulia
  latitude: '41.36365000'
  longitude: '15.69384000'
- name: Carlantino
  state_code: '75'
  state_name: Apulia
  latitude: '41.59388000'
  longitude: '14.97681000'
- name: Carmiano
  state_code: '75'
  state_name: Apulia
  latitude: '40.34404000'
  longitude: '18.04195000'
- name: Carosino
  state_code: '75'
  state_name: Apulia
  latitude: '40.46538000'
  longitude: '17.39857000'
- name: Carovigno
  state_code: '75'
  state_name: Apulia
  latitude: '40.70626000'
  longitude: '17.65847000'
- name: Carpignano Salentino
  state_code: '75'
  state_name: Apulia
  latitude: '40.19537000'
  longitude: '18.33826000'
- name: Carpino
  state_code: '75'
  state_name: Apulia
  latitude: '41.84450000'
  longitude: '15.85712000'
- name: Casalini
  state_code: '75'
  state_name: Apulia
  latitude: '40.73777000'
  longitude: '17.47062000'
- name: Casalnuovo Monterotaro
  state_code: '75'
  state_name: Apulia
  latitude: '41.61942000'
  longitude: '15.10411000'
- name: Casalvecchio di Puglia
  state_code: '75'
  state_name: Apulia
  latitude: '41.59470000'
  longitude: '15.10999000'
- name: Casamassella
  state_code: '75'
  state_name: Apulia
  latitude: '40.11424000'
  longitude: '18.45100000'
- name: Casamassima
  state_code: '75'
  state_name: Apulia
  latitude: '40.95653000'
  longitude: '16.92075000'
- name: Casarano
  state_code: '75'
  state_name: Apulia
  latitude: '40.01131000'
  longitude: '18.16237000'
- name: Cassano delle Murge
  state_code: '75'
  state_name: Apulia
  latitude: '40.89112000'
  longitude: '16.76531000'
- name: Castellana
  state_code: '75'
  state_name: Apulia
  latitude: '40.88643000'
  longitude: '17.16549000'
- name: Castellaneta
  state_code: '75'
  state_name: Apulia
  latitude: '40.62794000'
  longitude: '16.93290000'
- name: Castelluccio dei Sauri
  state_code: '75'
  state_name: Apulia
  latitude: '41.30460000'
  longitude: '15.47561000'
- name: Castelluccio Valmaggiore
  state_code: '75'
  state_name: Apulia
  latitude: '41.34290000'
  longitude: '15.19944000'
- name: Castelnuovo della Daunia
  state_code: '75'
  state_name: Apulia
  latitude: '41.58139000'
  longitude: '15.11796000'
- name: Castiglione
  state_code: '75'
  state_name: Apulia
  latitude: '39.98333000'
  longitude: '18.35000000'
- name: Castri di Lecce
  state_code: '75'
  state_name: Apulia
  latitude: '40.27360000'
  longitude: '18.26240000'
- name: Castrignano De' Greci
  state_code: '75'
  state_name: Apulia
  latitude: '40.17342000'
  longitude: '18.29643000'
- name: Castrignano del Capo
  state_code: '75'
  state_name: Apulia
  latitude: '39.83280000'
  longitude: '18.35087000'
- name: Castro
  state_code: '75'
  state_name: Apulia
  latitude: '40.00702000'
  longitude: '18.42573000'
- name: Castromediano
  state_code: '75'
  state_name: Apulia
  latitude: '40.32803000'
  longitude: '18.17877000'
- name: Cavallino
  state_code: '75'
  state_name: Apulia
  latitude: '40.31020000'
  longitude: '18.20221000'
- name: Ceglie Messapica
  state_code: '75'
  state_name: Apulia
  latitude: '40.64620000'
  longitude: '17.51661000'
- name: Celenza Valfortore
  state_code: '75'
  state_name: Apulia
  latitude: '41.56048000'
  longitude: '14.97898000'
- name: Cellamare
  state_code: '75'
  state_name: Apulia
  latitude: '41.01969000'
  longitude: '16.92741000'
- name: Celle di San Vito
  state_code: '75'
  state_name: Apulia
  latitude: '41.32593000'
  longitude: '15.18104000'
- name: Cellino San Marco
  state_code: '75'
  state_name: Apulia
  latitude: '40.47133000'
  longitude: '17.96427000'
- name: Cerfignano
  state_code: '75'
  state_name: Apulia
  latitude: '40.06107000'
  longitude: '18.44291000'
- name: Cerignola
  state_code: '75'
  state_name: Apulia
  latitude: '41.26523000'
  longitude: '15.89559000'
- name: Chieuti
  state_code: '75'
  state_name: Apulia
  latitude: '41.84486000'
  longitude: '15.16681000'
- name: Cisternino
  state_code: '75'
  state_name: Apulia
  latitude: '40.74326000'
  longitude: '17.42587000'
- name: Collemeto
  state_code: '75'
  state_name: Apulia
  latitude: '40.20885000'
  longitude: '18.10285000'
- name: Collepasso
  state_code: '75'
  state_name: Apulia
  latitude: '40.07115000'
  longitude: '18.16222000'
- name: Conversano
  state_code: '75'
  state_name: Apulia
  latitude: '40.96836000'
  longitude: '17.11329000'
- name: Copertino
  state_code: '75'
  state_name: Apulia
  latitude: '40.26821000'
  longitude: '18.05430000'
- name: Corato
  state_code: '75'
  state_name: Apulia
  latitude: '41.15171000'
  longitude: '16.41143000'
- name: Corigliano d'Otranto
  state_code: '75'
  state_name: Apulia
  latitude: '40.15925000'
  longitude: '18.25598000'
- name: Corsano
  state_code: '75'
  state_name: Apulia
  latitude: '39.88911000'
  longitude: '18.36747000'
- name: Cozzana
  state_code: '75'
  state_name: Apulia
  latitude: '40.92025000'
  longitude: '17.22259000'
- name: Crispiano
  state_code: '75'
  state_name: Apulia
  latitude: '40.60379000'
  longitude: '17.23290000'
- name: Cursi
  state_code: '75'
  state_name: Apulia
  latitude: '40.14847000'
  longitude: '18.31605000'
- name: Cutrofiano
  state_code: '75'
  state_name: Apulia
  latitude: '40.12616000'
  longitude: '18.20260000'
- name: Deliceto
  state_code: '75'
  state_name: Apulia
  latitude: '41.22289000'
  longitude: '15.38447000'
- name: Depressa
  state_code: '75'
  state_name: Apulia
  latitude: '39.95908000'
  longitude: '18.36174000'
- name: Diso
  state_code: '75'
  state_name: Apulia
  latitude: '40.00915000'
  longitude: '18.39144000'
- name: Erchie
  state_code: '75'
  state_name: Apulia
  latitude: '40.43609000'
  longitude: '17.73610000'
- name: Faeto
  state_code: '75'
  state_name: Apulia
  latitude: '41.32489000'
  longitude: '15.16045000'
- name: Faggiano
  state_code: '75'
  state_name: Apulia
  latitude: '40.41616000'
  longitude: '17.38861000'
- name: Fasano
  state_code: '75'
  state_name: Apulia
  latitude: '40.83625000'
  longitude: '17.36007000'
- name: Felline
  state_code: '75'
  state_name: Apulia
  latitude: '39.93651000'
  longitude: '18.11822000'
- name: Foggia
  state_code: '75'
  state_name: Apulia
  latitude: '41.45845000'
  longitude: '15.55188000'
- name: Fragagnano
  state_code: '75'
  state_name: Apulia
  latitude: '40.43020000'
  longitude: '17.47553000'
- name: Francavilla Fontana
  state_code: '75'
  state_name: Apulia
  latitude: '40.53123000'
  longitude: '17.58522000'
- name: Gagliano del Capo
  state_code: '75'
  state_name: Apulia
  latitude: '39.84323000'
  longitude: '18.36962000'
- name: Galatina
  state_code: '75'
  state_name: Apulia
  latitude: '40.17416000'
  longitude: '18.17032000'
- name: Galatone
  state_code: '75'
  state_name: Apulia
  latitude: '40.14673000'
  longitude: '18.06937000'
- name: Gallipoli
  state_code: '75'
  state_name: Apulia
  latitude: '40.05594000'
  longitude: '17.99088000'
- name: Galugnano
  state_code: '75'
  state_name: Apulia
  latitude: '40.25601000'
  longitude: '18.21473000'
- name: Gemini
  state_code: '75'
  state_name: Apulia
  latitude: '39.91134000'
  longitude: '18.18742000'
- name: Ginosa
  state_code: '75'
  state_name: Apulia
  latitude: '40.57690000'
  longitude: '16.75655000'
- name: Gioia del Colle
  state_code: '75'
  state_name: Apulia
  latitude: '40.79968000'
  longitude: '16.92298000'
- name: Giorgilorio
  state_code: '75'
  state_name: Apulia
  latitude: '40.38683000'
  longitude: '18.14873000'
- name: Giovinazzo
  state_code: '75'
  state_name: Apulia
  latitude: '41.18500000'
  longitude: '16.67054000'
- name: Giuggianello
  state_code: '75'
  state_name: Apulia
  latitude: '40.09383000'
  longitude: '18.36894000'
- name: Giurdignano
  state_code: '75'
  state_name: Apulia
  latitude: '40.12367000'
  longitude: '18.43155000'
- name: Gravina in Puglia
  state_code: '75'
  state_name: Apulia
  latitude: '40.81748000'
  longitude: '16.41915000'
- name: Grottaglie
  state_code: '75'
  state_name: Apulia
  latitude: '40.53694000'
  longitude: '17.43723000'
- name: Grumo Appula
  state_code: '75'
  state_name: Apulia
  latitude: '41.01089000'
  longitude: '16.70844000'
- name: Guagnano
  state_code: '75'
  state_name: Apulia
  latitude: '40.40123000'
  longitude: '17.94902000'
- name: Ischitella
  state_code: '75'
  state_name: Apulia
  latitude: '41.90434000'
  longitude: '15.89945000'
- name: Isole Tremiti
  state_code: '75'
  state_name: Apulia
  latitude: '42.12085000'
  longitude: '15.50424000'
- name: La Rosa
  state_code: '75'
  state_name: Apulia
  latitude: '40.60674000'
  longitude: '17.95207000'
- name: Lamie
  state_code: '75'
  state_name: Apulia
  latitude: '41.03364000'
  longitude: '16.87559000'
- name: Lamie di Olimpie-Selva
  state_code: '75'
  state_name: Apulia
  latitude: '40.81714000'
  longitude: '17.33478000'
- name: Laterza
  state_code: '75'
  state_name: Apulia
  latitude: '40.62881000'
  longitude: '16.79947000'
- name: Latiano
  state_code: '75'
  state_name: Apulia
  latitude: '40.55052000'
  longitude: '17.71856000'
- name: Lecce
  state_code: '75'
  state_name: Apulia
  latitude: '40.35481000'
  longitude: '18.17244000'
- name: Leporano
  state_code: '75'
  state_name: Apulia
  latitude: '40.38218000'
  longitude: '17.33426000'
- name: Leporano Marina
  state_code: '75'
  state_name: Apulia
  latitude: '40.37860000'
  longitude: '17.30960000'
- name: Lequile
  state_code: '75'
  state_name: Apulia
  latitude: '40.30583000'
  longitude: '18.14022000'
- name: Lesina
  state_code: '75'
  state_name: Apulia
  latitude: '41.86125000'
  longitude: '15.35322000'
- name: Leuca
  state_code: '75'
  state_name: Apulia
  latitude: '39.79949000'
  longitude: '18.35815000'
- name: Leverano
  state_code: '75'
  state_name: Apulia
  latitude: '40.28852000'
  longitude: '17.99650000'
- name: Lizzanello
  state_code: '75'
  state_name: Apulia
  latitude: '40.30475000'
  longitude: '18.22283000'
- name: Lizzano
  state_code: '75'
  state_name: Apulia
  latitude: '40.39301000'
  longitude: '17.44571000'
- name: Locorotondo
  state_code: '75'
  state_name: Apulia
  latitude: '40.75661000'
  longitude: '17.32392000'
- name: Loseto
  state_code: '75'
  state_name: Apulia
  latitude: '41.04214000'
  longitude: '16.84917000'
- name: Lucera
  state_code: '75'
  state_name: Apulia
  latitude: '41.50550000'
  longitude: '15.33910000'
- name: Lucugnano
  state_code: '75'
  state_name: Apulia
  latitude: '39.93490000'
  longitude: '18.32174000'
- name: Magliano
  state_code: '75'
  state_name: Apulia
  latitude: '40.33740000'
  longitude: '18.06287000'
- name: Maglie
  state_code: '75'
  state_name: Apulia
  latitude: '40.12069000'
  longitude: '18.29797000'
- name: Manduria
  state_code: '75'
  state_name: Apulia
  latitude: '40.39899000'
  longitude: '17.63726000'
- name: Manfredonia
  state_code: '75'
  state_name: Apulia
  latitude: '41.63065000'
  longitude: '15.91876000'
- name: Marina di Ginosa
  state_code: '75'
  state_name: Apulia
  latitude: '40.42833000'
  longitude: '16.88003000'
- name: Mariotto
  state_code: '75'
  state_name: Apulia
  latitude: '41.05028000'
  longitude: '16.56142000'
- name: Marittima
  state_code: '75'
  state_name: Apulia
  latitude: '39.99609000'
  longitude: '18.39895000'
- name: Martano
  state_code: '75'
  state_name: Apulia
  latitude: '40.20205000'
  longitude: '18.30193000'
- name: Martignano
  state_code: '75'
  state_name: Apulia
  latitude: '40.23821000'
  longitude: '18.25602000'
- name: Martina Franca
  state_code: '75'
  state_name: Apulia
  latitude: '40.70355000'
  longitude: '17.33814000'
- name: Maruggio
  state_code: '75'
  state_name: Apulia
  latitude: '40.32054000'
  longitude: '17.57052000'
- name: Massafra
  state_code: '75'
  state_name: Apulia
  latitude: '40.58618000'
  longitude: '17.11635000'
- name: Materdomini
  state_code: '75'
  state_name: Apulia
  latitude: '40.65571000'
  longitude: '17.95949000'
- name: Matino
  state_code: '75'
  state_name: Apulia
  latitude: '40.03083000'
  longitude: '18.13630000'
- name: Mattinata
  state_code: '75'
  state_name: Apulia
  latitude: '41.71112000'
  longitude: '16.05087000'
- name: Melendugno
  state_code: '75'
  state_name: Apulia
  latitude: '40.27252000'
  longitude: '18.33798000'
- name: Melissano
  state_code: '75'
  state_name: Apulia
  latitude: '39.97315000'
  longitude: '18.12113000'
- name: Melpignano
  state_code: '75'
  state_name: Apulia
  latitude: '40.15624000'
  longitude: '18.29194000'
- name: Merine
  state_code: '75'
  state_name: Apulia
  latitude: '40.33418000'
  longitude: '18.22383000'
- name: Mesagne
  state_code: '75'
  state_name: Apulia
  latitude: '40.55851000'
  longitude: '17.80774000'
- name: Miggiano
  state_code: '75'
  state_name: Apulia
  latitude: '39.96180000'
  longitude: '18.31119000'
- name: Minervino di Lecce
  state_code: '75'
  state_name: Apulia
  latitude: '40.09025000'
  longitude: '18.42139000'
- name: Modugno
  state_code: '75'
  state_name: Apulia
  latitude: '41.08433000'
  longitude: '16.78342000'
- name: Mola di Bari
  state_code: '75'
  state_name: Apulia
  latitude: '41.05997000'
  longitude: '17.09001000'
- name: Molfetta
  state_code: '75'
  state_name: Apulia
  latitude: '41.20036000'
  longitude: '16.59905000'
- name: Monopoli
  state_code: '75'
  state_name: Apulia
  latitude: '40.94918000'
  longitude: '17.29717000'
- name: Montalbano
  state_code: '75'
  state_name: Apulia
  latitude: '40.77827000'
  longitude: '17.48157000'
- name: Monte Sant'Angelo
  state_code: '75'
  state_name: Apulia
  latitude: '41.70530000'
  longitude: '15.96068000'
- name: Monteiasi
  state_code: '75'
  state_name: Apulia
  latitude: '40.49992000'
  longitude: '17.38260000'
- name: Monteleone di Puglia
  state_code: '75'
  state_name: Apulia
  latitude: '41.16711000'
  longitude: '15.25822000'
- name: Montemesola
  state_code: '75'
  state_name: Apulia
  latitude: '40.56760000'
  longitude: '17.33665000'
- name: Monteparano
  state_code: '75'
  state_name: Apulia
  latitude: '40.44335000'
  longitude: '17.41308000'
- name: Monteroni di Lecce
  state_code: '75'
  state_name: Apulia
  latitude: '40.31929000'
  longitude: '18.09163000'
- name: Montesano Salentino
  state_code: '75'
  state_name: Apulia
  latitude: '39.97544000'
  longitude: '18.32277000'
- name: Montesardo
  state_code: '75'
  state_name: Apulia
  latitude: '39.87572000'
  longitude: '18.33967000'
- name: Monti d'Arena-Bosco Caggione
  state_code: '75'
  state_name: Apulia
  latitude: '40.35510000'
  longitude: '17.36432000'
- name: Morciano di Leuca
  state_code: '75'
  state_name: Apulia
  latitude: '39.84719000'
  longitude: '18.31089000'
- name: Motta Montecorvino
  state_code: '75'
  state_name: Apulia
  latitude: '41.50743000'
  longitude: '15.11414000'
- name: Mottola
  state_code: '75'
  state_name: Apulia
  latitude: '40.63890000'
  longitude: '17.03432000'
- name: Muro Leccese
  state_code: '75'
  state_name: Apulia
  latitude: '40.10286000'
  longitude: '18.33674000'
- name: Nardò
  state_code: '75'
  state_name: Apulia
  latitude: '40.17953000'
  longitude: '18.03174000'
- name: Neviano
  state_code: '75'
  state_name: Apulia
  latitude: '40.10650000'
  longitude: '18.11517000'
- name: Noci
  state_code: '75'
  state_name: Apulia
  latitude: '40.79356000'
  longitude: '17.12681000'
- name: Nociglia
  state_code: '75'
  state_name: Apulia
  latitude: '40.03804000'
  longitude: '18.32757000'
- name: Noha
  state_code: '75'
  state_name: Apulia
  latitude: '40.15323000'
  longitude: '18.16569000'
- name: Noicattaro
  state_code: '75'
  state_name: Apulia
  latitude: '41.03449000'
  longitude: '16.98963000'
- name: Novoli
  state_code: '75'
  state_name: Apulia
  latitude: '40.37673000'
  longitude: '18.04757000'
- name: Ordona
  state_code: '75'
  state_name: Apulia
  latitude: '41.31501000'
  longitude: '15.62832000'
- name: Oria
  state_code: '75'
  state_name: Apulia
  latitude: '40.49999000'
  longitude: '17.64280000'
- name: Orsara di Puglia
  state_code: '75'
  state_name: Apulia
  latitude: '41.28163000'
  longitude: '15.26765000'
- name: Orta Nova
  state_code: '75'
  state_name: Apulia
  latitude: '41.32879000'
  longitude: '15.70994000'
- name: Ortelle
  state_code: '75'
  state_name: Apulia
  latitude: '40.03371000'
  longitude: '18.39125000'
- name: Ostuni
  state_code: '75'
  state_name: Apulia
  latitude: '40.72913000'
  longitude: '17.57675000'
- name: Otranto
  state_code: '75'
  state_name: Apulia
  latitude: '40.14789000'
  longitude: '18.48682000'
- name: Palagianello
  state_code: '75'
  state_name: Apulia
  latitude: '40.60851000'
  longitude: '16.97802000'
- name: Palagiano
  state_code: '75'
  state_name: Apulia
  latitude: '40.57762000'
  longitude: '17.03812000'
- name: Palmariggi
  state_code: '75'
  state_name: Apulia
  latitude: '40.13099000'
  longitude: '18.37863000'
- name: Palo del Colle
  state_code: '75'
  state_name: Apulia
  latitude: '41.05562000'
  longitude: '16.70321000'
- name: Palombaio
  state_code: '75'
  state_name: Apulia
  latitude: '41.07036000'
  longitude: '16.60962000'
- name: Panni
  state_code: '75'
  state_name: Apulia
  latitude: '41.22082000'
  longitude: '15.27560000'
- name: Paolo VI
  state_code: '75'
  state_name: Apulia
  latitude: '40.52218000'
  longitude: '17.27401000'
- name: Parabita
  state_code: '75'
  state_name: Apulia
  latitude: '40.05139000'
  longitude: '18.12651000'
- name: Parco Scizzo-Parchitello
  state_code: '75'
  state_name: Apulia
  latitude: '41.07457000'
  longitude: '16.99329000'
- name: Patù
  state_code: '75'
  state_name: Apulia
  latitude: '39.84078000'
  longitude: '18.33784000'
- name: Peschici
  state_code: '75'
  state_name: Apulia
  latitude: '41.94521000'
  longitude: '16.01612000'
- name: Pezze di Greco
  state_code: '75'
  state_name: Apulia
  latitude: '40.81004000'
  longitude: '17.41333000'
- name: Pietramontecorvino
  state_code: '75'
  state_name: Apulia
  latitude: '41.54228000'
  longitude: '15.12894000'
- name: Pisignano
  state_code: '75'
  state_name: Apulia
  latitude: '40.30470000'
  longitude: '18.27155000'
- name: Poggiardo
  state_code: '75'
  state_name: Apulia
  latitude: '40.05315000'
  longitude: '18.37819000'
- name: Poggio Imperiale
  state_code: '75'
  state_name: Apulia
  latitude: '41.82503000'
  longitude: '15.36680000'
- name: Poggiorsini
  state_code: '75'
  state_name: Apulia
  latitude: '40.91403000'
  longitude: '16.25605000'
- name: Polignano a Mare
  state_code: '75'
  state_name: Apulia
  latitude: '40.99221000'
  longitude: '17.22149000'
- name: Porto Cesareo
  state_code: '75'
  state_name: Apulia
  latitude: '40.26228000'
  longitude: '17.89896000'
- name: Presicce
  state_code: '75'
  state_name: Apulia
  latitude: '39.90055000'
  longitude: '18.26282000'
- name: Provincia di Barletta - Andria - Trani
  state_code: '75'
  state_name: Apulia
  latitude: '41.25097000'
  longitude: '16.17599000'
- name: Provincia di Brindisi
  state_code: '75'
  state_name: Apulia
  latitude: '40.58333000'
  longitude: '17.66667000'
- name: Provincia di Foggia
  state_code: '75'
  state_name: Apulia
  latitude: '41.45000000'
  longitude: '15.53333000'
- name: Provincia di Lecce
  state_code: '75'
  state_name: Apulia
  latitude: '40.21667000'
  longitude: '18.16667000'
- name: Provincia di Taranto
  state_code: '75'
  state_name: Apulia
  latitude: '40.61667000'
  longitude: '17.25000000'
- name: Pulsano
  state_code: '75'
  state_name: Apulia
  latitude: '40.38109000'
  longitude: '17.35612000'
- name: Putignano
  state_code: '75'
  state_name: Apulia
  latitude: '40.85106000'
  longitude: '17.12190000'
- name: Quasano
  state_code: '75'
  state_name: Apulia
  latitude: '40.96724000'
  longitude: '16.57354000'
- name: Racale
  state_code: '75'
  state_name: Apulia
  latitude: '39.96086000'
  longitude: '18.09154000'
- name: Rignano Garganico
  state_code: '75'
  state_name: Apulia
  latitude: '41.67934000'
  longitude: '15.58835000'
- name: Roccaforzata
  state_code: '75'
  state_name: Apulia
  latitude: '40.43700000'
  longitude: '17.38986000'
- name: Rocchetta Sant'Antonio
  state_code: '75'
  state_name: Apulia
  latitude: '41.10326000'
  longitude: '15.45993000'
- name: Rodi Garganico
  state_code: '75'
  state_name: Apulia
  latitude: '41.92745000'
  longitude: '15.88217000'
- name: Roseto Valfortore
  state_code: '75'
  state_name: Apulia
  latitude: '41.37544000'
  longitude: '15.09824000'
- name: Ruffano
  state_code: '75'
  state_name: Apulia
  latitude: '39.98195000'
  longitude: '18.24974000'
- name: Rutigliano
  state_code: '75'
  state_name: Apulia
  latitude: '41.00997000'
  longitude: '17.00558000'
- name: Ruvo di Puglia
  state_code: '75'
  state_name: Apulia
  latitude: '41.11758000'
  longitude: '16.48421000'
- name: Salice Salentino
  state_code: '75'
  state_name: Apulia
  latitude: '40.38485000'
  longitude: '17.96134000'
- name: Salve
  state_code: '75'
  state_name: Apulia
  latitude: '39.86111000'
  longitude: '18.29493000'
- name: Sammichele di Bari
  state_code: '75'
  state_name: Apulia
  latitude: '40.88711000'
  longitude: '16.94919000'
- name: San Cassiano
  state_code: '75'
  state_name: Apulia
  latitude: '40.05631000'
  longitude: '18.33392000'
- name: San Cesario di Lecce
  state_code: '75'
  state_name: Apulia
  latitude: '40.30221000'
  longitude: '18.16098000'
- name: San Donaci
  state_code: '75'
  state_name: Apulia
  latitude: '40.44853000'
  longitude: '17.92252000'
- name: San Donato di Lecce
  state_code: '75'
  state_name: Apulia
  latitude: '40.26728000'
  longitude: '18.18256000'
- name: San Giorgio Ionico
  state_code: '75'
  state_name: Apulia
  latitude: '40.45796000'
  longitude: '17.38034000'
- name: San Giovanni Rotondo
  state_code: '75'
  state_name: Apulia
  latitude: '41.70643000'
  longitude: '15.72770000'
- name: San Marco in Lamis
  state_code: '75'
  state_name: Apulia
  latitude: '41.71210000'
  longitude: '15.63825000'
- name: San Marco la Catola
  state_code: '75'
  state_name: Apulia
  latitude: '41.52483000'
  longitude: '15.00594000'
- name: San Marzano di San Giuseppe
  state_code: '75'
  state_name: Apulia
  latitude: '40.45455000'
  longitude: '17.50351000'
- name: San Michele Salentino
  state_code: '75'
  state_name: Apulia
  latitude: '40.63163000'
  longitude: '17.63254000'
- name: San Pancrazio Salentino
  state_code: '75'
  state_name: Apulia
  latitude: '40.41800000'
  longitude: '17.83419000'
- name: San Paolo
  state_code: '75'
  state_name: Apulia
  latitude: '41.12476000'
  longitude: '16.79258000'
- name: San Paolo di Civitate
  state_code: '75'
  state_name: Apulia
  latitude: '41.73893000'
  longitude: '15.26080000'
- name: San Pietro in Lama
  state_code: '75'
  state_name: Apulia
  latitude: '40.30711000'
  longitude: '18.12787000'
- name: San Pietro Vernotico
  state_code: '75'
  state_name: Apulia
  latitude: '40.48890000'
  longitude: '17.99752000'
- name: San Severo
  state_code: '75'
  state_name: Apulia
  latitude: '41.68564000'
  longitude: '15.38148000'
- name: San Vito dei Normanni
  state_code: '75'
  state_name: Apulia
  latitude: '40.65642000'
  longitude: '17.70814000'
- name: Sanarica
  state_code: '75'
  state_name: Apulia
  latitude: '40.08908000'
  longitude: '18.34803000'
- name: Sannicandro di Bari
  state_code: '75'
  state_name: Apulia
  latitude: '41.00047000'
  longitude: '16.79714000'
- name: Sannicandro Garganico
  state_code: '75'
  state_name: Apulia
  latitude: '41.83844000'
  longitude: '15.56535000'
- name: Sannicola
  state_code: '75'
  state_name: Apulia
  latitude: '40.09244000'
  longitude: '18.06765000'
- name: Sant'Agata di Puglia
  state_code: '75'
  state_name: Apulia
  latitude: '41.15127000'
  longitude: '15.37968000'
- name: Santa Cesarea Terme
  state_code: '75'
  state_name: Apulia
  latitude: '40.03607000'
  longitude: '18.45542000'
- name: Santeramo in Colle
  state_code: '75'
  state_name: Apulia
  latitude: '40.79236000'
  longitude: '16.75873000'
- name: Sava
  state_code: '75'
  state_name: Apulia
  latitude: '40.40203000'
  longitude: '17.55267000'
- name: Scorrano
  state_code: '75'
  state_name: Apulia
  latitude: '40.09018000'
  longitude: '18.29993000'
- name: Seclì
  state_code: '75'
  state_name: Apulia
  latitude: '40.11897000'
  longitude: '18.10931000'
- name: Serracapriola
  state_code: '75'
  state_name: Apulia
  latitude: '41.80912000'
  longitude: '15.16098000'
- name: Serrano
  state_code: '75'
  state_name: Apulia
  latitude: '40.18438000'
  longitude: '18.35156000'
- name: Sogliano Cavour
  state_code: '75'
  state_name: Apulia
  latitude: '40.14827000'
  longitude: '18.19741000'
- name: Soleto
  state_code: '75'
  state_name: Apulia
  latitude: '40.18781000'
  longitude: '18.20630000'
- name: Specchia
  state_code: '75'
  state_name: Apulia
  latitude: '39.93913000'
  longitude: '18.29784000'
- name: Spongano
  state_code: '75'
  state_name: Apulia
  latitude: '40.01782000'
  longitude: '18.36563000'
- name: Squinzano
  state_code: '75'
  state_name: Apulia
  latitude: '40.43513000'
  longitude: '18.04086000'
- name: Statte
  state_code: '75'
  state_name: Apulia
  latitude: '40.52856000'
  longitude: '17.20122000'
- name: Sternatia
  state_code: '75'
  state_name: Apulia
  latitude: '40.22022000'
  longitude: '18.22748000'
- name: Stornara
  state_code: '75'
  state_name: Apulia
  latitude: '41.28672000'
  longitude: '15.77003000'
- name: Stornarella
  state_code: '75'
  state_name: Apulia
  latitude: '41.25591000'
  longitude: '15.73023000'
- name: Strudà
  state_code: '75'
  state_name: Apulia
  latitude: '40.31991000'
  longitude: '18.28176000'
- name: Supersano
  state_code: '75'
  state_name: Apulia
  latitude: '40.01655000'
  longitude: '18.24205000'
- name: Surano
  state_code: '75'
  state_name: Apulia
  latitude: '40.02818000'
  longitude: '18.34591000'
- name: Surbo
  state_code: '75'
  state_name: Apulia
  latitude: '40.39383000'
  longitude: '18.13456000'
- name: Taranto
  state_code: '75'
  state_name: Apulia
  latitude: '40.46438000'
  longitude: '17.24707000'
- name: Taurisano
  state_code: '75'
  state_name: Apulia
  latitude: '39.95746000'
  longitude: '18.21498000'
- name: Taviano
  state_code: '75'
  state_name: Apulia
  latitude: '39.98224000'
  longitude: '18.08151000'
- name: Terlizzi
  state_code: '75'
  state_name: Apulia
  latitude: '41.12905000'
  longitude: '16.54536000'
- name: Tiggiano
  state_code: '75'
  state_name: Apulia
  latitude: '39.90284000'
  longitude: '18.36501000'
- name: Torchiarolo
  state_code: '75'
  state_name: Apulia
  latitude: '40.48349000'
  longitude: '18.05122000'
- name: Toritto
  state_code: '75'
  state_name: Apulia
  latitude: '40.99774000'
  longitude: '16.67945000'
- name: Torre San Giovanni
  state_code: '75'
  state_name: Apulia
  latitude: '39.89001000'
  longitude: '18.11159000'
- name: Torre Santa Susanna
  state_code: '75'
  state_name: Apulia
  latitude: '40.46762000'
  longitude: '17.73864000'
- name: Torremaggiore
  state_code: '75'
  state_name: Apulia
  latitude: '41.68894000'
  longitude: '15.29408000'
- name: Torricella
  state_code: '75'
  state_name: Apulia
  latitude: '40.35509000'
  longitude: '17.49846000'
- name: Trepuzzi
  state_code: '75'
  state_name: Apulia
  latitude: '40.40535000'
  longitude: '18.07625000'
- name: Tricase
  state_code: '75'
  state_name: Apulia
  latitude: '39.93018000'
  longitude: '18.35421000'
- name: Triggiano
  state_code: '75'
  state_name: Apulia
  latitude: '41.06549000'
  longitude: '16.92501000'
- name: Troia
  state_code: '75'
  state_name: Apulia
  latitude: '41.36428000'
  longitude: '15.31730000'
- name: Tuglie
  state_code: '75'
  state_name: Apulia
  latitude: '40.07346000'
  longitude: '18.09872000'
- name: Turi
  state_code: '75'
  state_name: Apulia
  latitude: '40.91657000'
  longitude: '17.02038000'
- name: Tuturano
  state_code: '75'
  state_name: Apulia
  latitude: '40.54474000'
  longitude: '17.94754000'
- name: Ugento
  state_code: '75'
  state_name: Apulia
  latitude: '39.92724000'
  longitude: '18.15832000'
- name: Uggiano la Chiesa
  state_code: '75'
  state_name: Apulia
  latitude: '40.10091000'
  longitude: '18.44872000'
- name: Uggiano Montefusco
  state_code: '75'
  state_name: Apulia
  latitude: '40.38612000'
  longitude: '17.60460000'
- name: Valenzano
  state_code: '75'
  state_name: Apulia
  latitude: '41.04376000'
  longitude: '16.88491000'
- name: Veglie
  state_code: '75'
  state_name: Apulia
  latitude: '40.33474000'
  longitude: '17.96238000'
- name: Vernole
  state_code: '75'
  state_name: Apulia
  latitude: '40.28834000'
  longitude: '18.30165000'
- name: Vico del Gargano
  state_code: '75'
  state_name: Apulia
  latitude: '41.89661000'
  longitude: '15.95682000'
- name: Vieste
  state_code: '75'
  state_name: Apulia
  latitude: '41.88209000'
  longitude: '16.17139000'
- name: Vignacastrisi
  state_code: '75'
  state_name: Apulia
  latitude: '40.01604000'
  longitude: '18.40704000'
- name: Villa Castelli
  state_code: '75'
  state_name: Apulia
  latitude: '40.58293000'
  longitude: '17.47468000'
- name: Vitigliano
  state_code: '75'
  state_name: Apulia
  latitude: '40.03951000'
  longitude: '18.41170000'
- name: Volturara Appula
  state_code: '75'
  state_name: Apulia
  latitude: '41.49603000'
  longitude: '15.05224000'
- name: Volturino
  state_code: '75'
  state_name: Apulia
  latitude: '41.47723000'
  longitude: '15.12424000'
- name: Zapponeta
  state_code: '75'
  state_name: Apulia
  latitude: '41.45710000'
  longitude: '15.95615000'
- name: Zollino
  state_code: '75'
  state_name: Apulia
  latitude: '40.20581000'
  longitude: '18.24774000'
- name: Andria
  state_code: BT
  state_name: Barletta-Andria-Trani
  latitude: '41.23117000'
  longitude: '16.29797000'
- name: Barletta
  state_code: BT
  state_name: Barletta-Andria-Trani
  latitude: '41.31429000'
  longitude: '16.28165000'
- name: Bisceglie
  state_code: BT
  state_name: Barletta-Andria-Trani
  latitude: '41.24264000'
  longitude: '16.50104000'
- name: Canosa di Puglia
  state_code: BT
  state_name: Barletta-Andria-Trani
  latitude: '41.21954000'
  longitude: '16.06768000'
- name: Margherita di Savoia
  state_code: BT
  state_name: Barletta-Andria-Trani
  latitude: '41.37174000'
  longitude: '16.15275000'
- name: Minervino Murge
  state_code: BT
  state_name: Barletta-Andria-Trani
  latitude: '41.08264000'
  longitude: '16.07861000'
- name: San Ferdinando di Puglia
  state_code: BT
  state_name: Barletta-Andria-Trani
  latitude: '41.30263000'
  longitude: '16.07046000'
- name: Spinazzola
  state_code: BT
  state_name: Barletta-Andria-Trani
  latitude: '40.96399000'
  longitude: '16.09111000'
- name: Trani
  state_code: BT
  state_name: Barletta-Andria-Trani
  latitude: '41.27733000'
  longitude: '16.41011000'
- name: Trinitapoli
  state_code: BT
  state_name: Barletta-Andria-Trani
  latitude: '41.35654000'
  longitude: '16.08924000'
- name: Abriola
  state_code: '77'
  state_name: Basilicata
  latitude: '40.50748000'
  longitude: '15.81310000'
- name: Accettura
  state_code: '77'
  state_name: Basilicata
  latitude: '40.49102000'
  longitude: '16.15798000'
- name: Acerenza
  state_code: '77'
  state_name: Basilicata
  latitude: '40.79386000'
  longitude: '15.93808000'
- name: Albano di Lucania
  state_code: '77'
  state_name: Basilicata
  latitude: '40.58614000'
  longitude: '16.03712000'
- name: Aliano
  state_code: '77'
  state_name: Basilicata
  latitude: '40.31359000'
  longitude: '16.22984000'
- name: Anzi
  state_code: '77'
  state_name: Basilicata
  latitude: '40.51662000'
  longitude: '15.92457000'
- name: Armento
  state_code: '77'
  state_name: Basilicata
  latitude: '40.30660000'
  longitude: '16.06550000'
- name: Atella
  state_code: '77'
  state_name: Basilicata
  latitude: '40.87855000'
  longitude: '15.65226000'
- name: Avigliano
  state_code: '77'
  state_name: Basilicata
  latitude: '40.73291000'
  longitude: '15.72004000'
- name: Balvano
  state_code: '77'
  state_name: Basilicata
  latitude: '40.64953000'
  longitude: '15.51345000'
- name: Banzi
  state_code: '77'
  state_name: Basilicata
  latitude: '40.86063000'
  longitude: '16.00976000'
- name: Baragiano
  state_code: '77'
  state_name: Basilicata
  latitude: '40.68001000'
  longitude: '15.59398000'
- name: Barile
  state_code: '77'
  state_name: Basilicata
  latitude: '40.94327000'
  longitude: '15.67167000'
- name: Bella
  state_code: '77'
  state_name: Basilicata
  latitude: '40.76059000'
  longitude: '15.54101000'
- name: Bernalda
  state_code: '77'
  state_name: Basilicata
  latitude: '40.41261000'
  longitude: '16.68919000'
- name: Brienza
  state_code: '77'
  state_name: Basilicata
  latitude: '40.47751000'
  longitude: '15.62927000'
- name: Brindisi Montagna
  state_code: '77'
  state_name: Basilicata
  latitude: '40.60952000'
  longitude: '15.93977000'
- name: Calciano
  state_code: '77'
  state_name: Basilicata
  latitude: '40.58802000'
  longitude: '16.19238000'
- name: Calvello
  state_code: '77'
  state_name: Basilicata
  latitude: '40.47482000'
  longitude: '15.85092000'
- name: Calvera
  state_code: '77'
  state_name: Basilicata
  latitude: '40.14871000'
  longitude: '16.14362000'
- name: Campomaggiore
  state_code: '77'
  state_name: Basilicata
  latitude: '40.56590000'
  longitude: '16.07250000'
- name: Cancellara
  state_code: '77'
  state_name: Basilicata
  latitude: '40.73068000'
  longitude: '15.92470000'
- name: Carbone
  state_code: '77'
  state_name: Basilicata
  latitude: '40.14227000'
  longitude: '16.08846000'
- name: Castelgrande
  state_code: '77'
  state_name: Basilicata
  latitude: '40.78639000'
  longitude: '15.43109000'
- name: Castelluccio Inferiore
  state_code: '77'
  state_name: Basilicata
  latitude: '40.00151000'
  longitude: '15.98149000'
- name: Castelluccio Superiore
  state_code: '77'
  state_name: Basilicata
  latitude: '40.01003000'
  longitude: '15.97184000'
- name: Castelmezzano
  state_code: '77'
  state_name: Basilicata
  latitude: '40.52832000'
  longitude: '16.04585000'
- name: Castelsaraceno
  state_code: '77'
  state_name: Basilicata
  latitude: '40.16213000'
  longitude: '15.99281000'
- name: Castronuovo di Sant'Andrea
  state_code: '77'
  state_name: Basilicata
  latitude: '40.18903000'
  longitude: '16.18559000'
- name: Cersosimo
  state_code: '77'
  state_name: Basilicata
  latitude: '40.04703000'
  longitude: '16.35059000'
- name: Chiaromonte
  state_code: '77'
  state_name: Basilicata
  latitude: '40.12323000'
  longitude: '16.21440000'
- name: Cirigliano
  state_code: '77'
  state_name: Basilicata
  latitude: '40.39376000'
  longitude: '16.17194000'
- name: Colobraro
  state_code: '77'
  state_name: Basilicata
  latitude: '40.18841000'
  longitude: '16.42480000'
- name: Corleto Perticara
  state_code: '77'
  state_name: Basilicata
  latitude: '40.38214000'
  longitude: '16.03917000'
- name: Craco-Sant'Angelo
  state_code: '77'
  state_name: Basilicata
  latitude: '40.37992000'
  longitude: '16.43708000'
- name: Episcopia
  state_code: '77'
  state_name: Basilicata
  latitude: '40.07481000'
  longitude: '16.09818000'
- name: Fardella
  state_code: '77'
  state_name: Basilicata
  latitude: '40.11381000'
  longitude: '16.16978000'
- name: Ferrandina
  state_code: '77'
  state_name: Basilicata
  latitude: '40.50084000'
  longitude: '16.45258000'
- name: Filiano
  state_code: '77'
  state_name: Basilicata
  latitude: '40.81042000'
  longitude: '15.70984000'
- name: Forenza
  state_code: '77'
  state_name: Basilicata
  latitude: '40.86041000'
  longitude: '15.85457000'
- name: Francavilla in Sinni
  state_code: '77'
  state_name: Basilicata
  latitude: '40.08142000'
  longitude: '16.20417000'
- name: Gallicchio
  state_code: '77'
  state_name: Basilicata
  latitude: '40.29232000'
  longitude: '16.13561000'
- name: Garaguso
  state_code: '77'
  state_name: Basilicata
  latitude: '40.54866000'
  longitude: '16.22827000'
- name: Genzano di Lucania
  state_code: '77'
  state_name: Basilicata
  latitude: '40.84589000'
  longitude: '16.03124000'
- name: Ginestra
  state_code: '77'
  state_name: Basilicata
  latitude: '40.93092000'
  longitude: '15.73497000'
- name: Gorgoglione
  state_code: '77'
  state_name: Basilicata
  latitude: '40.39532000'
  longitude: '16.14456000'
- name: Grassano
  state_code: '77'
  state_name: Basilicata
  latitude: '40.63457000'
  longitude: '16.27792000'
- name: Grottole
  state_code: '77'
  state_name: Basilicata
  latitude: '40.60333000'
  longitude: '16.37831000'
- name: Grumento Nova
  state_code: '77'
  state_name: Basilicata
  latitude: '40.28281000'
  longitude: '15.88877000'
- name: Guardia Perticara
  state_code: '77'
  state_name: Basilicata
  latitude: '40.36167000'
  longitude: '16.09845000'
- name: Irsina
  state_code: '77'
  state_name: Basilicata
  latitude: '40.75015000'
  longitude: '16.23816000'
- name: La Martella
  state_code: '77'
  state_name: Basilicata
  latitude: '40.66251000'
  longitude: '16.53551000'
- name: Lagonegro
  state_code: '77'
  state_name: Basilicata
  latitude: '40.12785000'
  longitude: '15.76212000'
- name: Latronico
  state_code: '77'
  state_name: Basilicata
  latitude: '40.08909000'
  longitude: '16.00947000'
- name: Laurenzana
  state_code: '77'
  state_name: Basilicata
  latitude: '40.45908000'
  longitude: '15.97075000'
- name: Lauria
  state_code: '77'
  state_name: Basilicata
  latitude: '40.04702000'
  longitude: '15.83812000'
- name: Lavello
  state_code: '77'
  state_name: Basilicata
  latitude: '41.04769000'
  longitude: '15.78915000'
- name: Lido
  state_code: '77'
  state_name: Basilicata
  latitude: '40.19128000'
  longitude: '16.70692000'
- name: Maratea
  state_code: '77'
  state_name: Basilicata
  latitude: '39.99932000'
  longitude: '15.71539000'
- name: Marconia
  state_code: '77'
  state_name: Basilicata
  latitude: '40.36355000'
  longitude: '16.68823000'
- name: Marsico Nuovo
  state_code: '77'
  state_name: Basilicata
  latitude: '40.42359000'
  longitude: '15.73462000'
- name: Marsicovetere
  state_code: '77'
  state_name: Basilicata
  latitude: '40.37591000'
  longitude: '15.82569000'
- name: Maschito
  state_code: '77'
  state_name: Basilicata
  latitude: '40.90892000'
  longitude: '15.82946000'
- name: Matera
  state_code: '77'
  state_name: Basilicata
  latitude: '40.66599000'
  longitude: '16.60463000'
- name: Melfi
  state_code: '77'
  state_name: Basilicata
  latitude: '40.99571000'
  longitude: '15.65578000'
- name: Miglionico
  state_code: '77'
  state_name: Basilicata
  latitude: '40.56763000'
  longitude: '16.49964000'
- name: Missanello
  state_code: '77'
  state_name: Basilicata
  latitude: '40.28311000'
  longitude: '16.16650000'
- name: Moliterno
  state_code: '77'
  state_name: Basilicata
  latitude: '40.24394000'
  longitude: '15.86544000'
- name: Montalbano Jonico
  state_code: '77'
  state_name: Basilicata
  latitude: '40.28591000'
  longitude: '16.56960000'
- name: Montemilone
  state_code: '77'
  state_name: Basilicata
  latitude: '41.02742000'
  longitude: '15.96661000'
- name: Montemurro
  state_code: '77'
  state_name: Basilicata
  latitude: '40.29765000'
  longitude: '15.99182000'
- name: Montescaglioso
  state_code: '77'
  state_name: Basilicata
  latitude: '40.55024000'
  longitude: '16.66541000'
- name: Muro Lucano
  state_code: '77'
  state_name: Basilicata
  latitude: '40.75379000'
  longitude: '15.48808000'
- name: Nemoli
  state_code: '77'
  state_name: Basilicata
  latitude: '40.06765000'
  longitude: '15.79962000'
- name: Noepoli
  state_code: '77'
  state_name: Basilicata
  latitude: '40.08705000'
  longitude: '16.32834000'
- name: Nova Siri
  state_code: '77'
  state_name: Basilicata
  latitude: '40.14823000'
  longitude: '16.53976000'
- name: Nova Siri Scalo
  state_code: '77'
  state_name: Basilicata
  latitude: '40.13177000'
  longitude: '16.63593000'
- name: Oliveto Lucano
  state_code: '77'
  state_name: Basilicata
  latitude: '40.53554000'
  longitude: '16.18547000'
- name: Oppido Lucano
  state_code: '77'
  state_name: Basilicata
  latitude: '40.76174000'
  longitude: '15.98818000'
- name: Palazzo San Gervasio
  state_code: '77'
  state_name: Basilicata
  latitude: '40.93156000'
  longitude: '15.98149000'
- name: Paterno
  state_code: '77'
  state_name: Basilicata
  latitude: '40.37507000'
  longitude: '15.73510000'
- name: Pescopagano
  state_code: '77'
  state_name: Basilicata
  latitude: '40.83494000'
  longitude: '15.39946000'
- name: Picerno
  state_code: '77'
  state_name: Basilicata
  latitude: '40.63975000'
  longitude: '15.64232000'
- name: Pietragalla
  state_code: '77'
  state_name: Basilicata
  latitude: '40.74572000'
  longitude: '15.87398000'
- name: Pietrapertosa
  state_code: '77'
  state_name: Basilicata
  latitude: '40.51731000'
  longitude: '16.06244000'
- name: Pignola
  state_code: '77'
  state_name: Basilicata
  latitude: '40.57412000'
  longitude: '15.78295000'
- name: Pisticci
  state_code: '77'
  state_name: Basilicata
  latitude: '40.39017000'
  longitude: '16.55919000'
- name: Policoro
  state_code: '77'
  state_name: Basilicata
  latitude: '40.21280000'
  longitude: '16.67795000'
- name: Pomarico
  state_code: '77'
  state_name: Basilicata
  latitude: '40.52804000'
  longitude: '16.52708000'
- name: Potenza
  state_code: '77'
  state_name: Basilicata
  latitude: '40.64175000'
  longitude: '15.80794000'
- name: Provincia di Matera
  state_code: '77'
  state_name: Basilicata
  latitude: '40.50000000'
  longitude: '16.41667000'
- name: Provincia di Potenza
  state_code: '77'
  state_name: Basilicata
  latitude: '40.46442000'
  longitude: '15.89938000'
- name: Rapolla
  state_code: '77'
  state_name: Basilicata
  latitude: '40.97499000'
  longitude: '15.67201000'
- name: Rapone
  state_code: '77'
  state_name: Basilicata
  latitude: '40.84710000'
  longitude: '15.49818000'
- name: Rionero in Vulture
  state_code: '77'
  state_name: Basilicata
  latitude: '40.92328000'
  longitude: '15.67110000'
- name: Ripacandida
  state_code: '77'
  state_name: Basilicata
  latitude: '40.91256000'
  longitude: '15.72597000'
- name: Rivello
  state_code: '77'
  state_name: Basilicata
  latitude: '40.07821000'
  longitude: '15.75798000'
- name: Roccanova
  state_code: '77'
  state_name: Basilicata
  latitude: '40.21250000'
  longitude: '16.20429000'
- name: Rotonda
  state_code: '77'
  state_name: Basilicata
  latitude: '39.95215000'
  longitude: '16.03904000'
- name: Rotondella
  state_code: '77'
  state_name: Basilicata
  latitude: '40.17136000'
  longitude: '16.52491000'
- name: Ruoti
  state_code: '77'
  state_name: Basilicata
  latitude: '40.71660000'
  longitude: '15.68369000'
- name: Ruvo del Monte
  state_code: '77'
  state_name: Basilicata
  latitude: '40.84951000'
  longitude: '15.54217000'
- name: Salandra
  state_code: '77'
  state_name: Basilicata
  latitude: '40.52668000'
  longitude: '16.32037000'
- name: San Brancato
  state_code: '77'
  state_name: Basilicata
  latitude: '40.25822000'
  longitude: '16.25661000'
- name: San Chirico Nuovo
  state_code: '77'
  state_name: Basilicata
  latitude: '40.67764000'
  longitude: '16.07892000'
- name: San Chirico Raparo
  state_code: '77'
  state_name: Basilicata
  latitude: '40.19242000'
  longitude: '16.07618000'
- name: San Costantino Albanese
  state_code: '77'
  state_name: Basilicata
  latitude: '40.03679000'
  longitude: '16.30475000'
- name: San Fele
  state_code: '77'
  state_name: Basilicata
  latitude: '40.81647000'
  longitude: '15.54043000'
- name: San Giorgio Lucano
  state_code: '77'
  state_name: Basilicata
  latitude: '40.11132000'
  longitude: '16.38930000'
- name: San Martino d'Agri
  state_code: '77'
  state_name: Basilicata
  latitude: '40.23913000'
  longitude: '16.05216000'
- name: San Mauro Forte
  state_code: '77'
  state_name: Basilicata
  latitude: '40.48333000'
  longitude: '16.25155000'
- name: San Paolo Albanese
  state_code: '77'
  state_name: Basilicata
  latitude: '40.03567000'
  longitude: '16.33498000'
- name: San Severino Lucano
  state_code: '77'
  state_name: Basilicata
  latitude: '40.02021000'
  longitude: '16.13860000'
- name: Sant'Angelo le Fratte
  state_code: '77'
  state_name: Basilicata
  latitude: '40.54490000'
  longitude: '15.56156000'
- name: Sant'Arcangelo
  state_code: '77'
  state_name: Basilicata
  latitude: '40.24852000'
  longitude: '16.27046000'
- name: Sarconi
  state_code: '77'
  state_name: Basilicata
  latitude: '40.24800000'
  longitude: '15.88837000'
- name: Sasso di Castalda
  state_code: '77'
  state_name: Basilicata
  latitude: '40.48525000'
  longitude: '15.67569000'
- name: Satriano di Lucania
  state_code: '77'
  state_name: Basilicata
  latitude: '40.54296000'
  longitude: '15.64024000'
- name: Savoia di Lucania
  state_code: '77'
  state_name: Basilicata
  latitude: '40.56949000'
  longitude: '15.55132000'
- name: Scalo di Baragiano
  state_code: '77'
