---
- name: Akkol
  state_code: AKM
  state_name: Akmola
  latitude: '51.99374000'
  longitude: '70.94704000'
- name: Akkol’
  state_code: AKM
  state_name: Akmola
  latitude: '53.29617000'
  longitude: '69.59997000'
- name: Aksu
  state_code: AKM
  state_name: Akmola
  latitude: '52.44422000'
  longitude: '71.95761000'
- name: Astrakhan
  state_code: AKM
  state_name: Akmola
  latitude: '51.53092000'
  longitude: '69.79684000'
- name: Atbasar
  state_code: AKM
  state_name: Akmola
  latitude: '51.80652000'
  longitude: '68.35996000'
- name: Balkashino
  state_code: AKM
  state_name: Akmola
  latitude: '52.51779000'
  longitude: '68.75160000'
- name: Bestobe
  state_code: AKM
  state_name: Akmola
  latitude: '52.49795000'
  longitude: '73.09592000'
- name: Derzhavīnsk
  state_code: AKM
  state_name: Akmola
  latitude: '51.09922000'
  longitude: '66.31557000'
- name: Egindiköl
  state_code: AKM
  state_name: Akmola
  latitude: '51.05412000'
  longitude: '69.47928000'
- name: Esil
  state_code: AKM
  state_name: Akmola
  latitude: '51.95495000'
  longitude: '66.40841000'
- name: Kokshetau
  state_code: AKM
  state_name: Akmola
  latitude: '53.28333000'
  longitude: '69.40000000'
- name: Krasnogorskiy
  state_code: AKM
  state_name: Akmola
  latitude: '52.24560000'
  longitude: '66.52081000'
- name: Makinsk
  state_code: AKM
  state_name: Akmola
  latitude: '52.63290000'
  longitude: '70.41911000'
- name: Shantobe
  state_code: AKM
  state_name: Akmola
  latitude: '52.45376000'
  longitude: '68.17475000'
- name: Shchuchinsk
  state_code: AKM
  state_name: Akmola
  latitude: '52.93592000'
  longitude: '70.18895000'
- name: Shortandy
  state_code: AKM
  state_name: Akmola
  latitude: '51.69946000'
  longitude: '70.99457000'
- name: Stepnogorsk
  state_code: AKM
  state_name: Akmola
  latitude: '52.35062000'
  longitude: '71.88161000'
- name: Stepnyak
  state_code: AKM
  state_name: Akmola
  latitude: '52.83489000'
  longitude: '70.78861000'
- name: Yermentau
  state_code: AKM
  state_name: Akmola
  latitude: '51.62364000'
  longitude: '73.10265000'
- name: Zavodskoy
  state_code: AKM
  state_name: Akmola
  latitude: '52.47031000'
  longitude: '72.01514000'
- name: Zhaqsy
  state_code: AKM
  state_name: Akmola
  latitude: '51.91058000'
  longitude: '67.31665000'
- name: Zholymbet
  state_code: AKM
  state_name: Akmola
  latitude: '51.74211000'
  longitude: '71.71245000'
- name: Aktobe
  state_code: AKT
  state_name: Aktobe
  latitude: '50.27969000'
  longitude: '57.20718000'
- name: Batamshinskiy
  state_code: AKT
  state_name: Aktobe
  latitude: '50.56022000'
  longitude: '58.27715000'
- name: Bayganin
  state_code: AKT
  state_name: Aktobe
  latitude: '48.68975000'
  longitude: '55.87512000'
- name: Embi
  state_code: AKT
  state_name: Aktobe
  latitude: '48.82981000'
  longitude: '58.15042000'
- name: Kandyagash
  state_code: AKT
  state_name: Aktobe
  latitude: '49.46912000'
  longitude: '57.41914000'
- name: Khromtau
  state_code: AKT
  state_name: Aktobe
  latitude: '50.25117000'
  longitude: '58.44003000'
- name: Martuk
  state_code: AKT
  state_name: Aktobe
  latitude: '50.74746000'
  longitude: '56.50611000'
- name: Shalqar
  state_code: AKT
  state_name: Aktobe
  latitude: '47.83333000'
  longitude: '59.60000000'
- name: Shubarkuduk
  state_code: AKT
  state_name: Aktobe
  latitude: '49.14391000'
  longitude: '56.48196000'
- name: Shubarshi
  state_code: AKT
  state_name: Aktobe
  latitude: '48.58022000'
  longitude: '57.18289000'
- name: Temir
  state_code: AKT
  state_name: Aktobe
  latitude: '49.14132000'
  longitude: '57.12855000'
- name: Yrghyz
  state_code: AKT
  state_name: Aktobe
  latitude: '48.61667000'
  longitude: '61.26667000'
- name: Bakanas
  state_code: ALM
  state_name: Almaty
  latitude: '44.80838000'
  longitude: '76.27214000'
- name: Balpyk Bī
  state_code: ALM
  state_name: Almaty
  latitude: '44.90225000'
  longitude: '78.23157000'
- name: Burunday
  state_code: ALM
  state_name: Almaty
  latitude: '43.35567000'
  longitude: '76.85477000'
- name: Chemolgan
  state_code: ALM
  state_name: Almaty
  latitude: '43.37633000'
  longitude: '76.62456000'
- name: Druzhba
  state_code: ALM
  state_name: Almaty
  latitude: '45.25332000'
  longitude: '82.48044000'
- name: Esik
  state_code: ALM
  state_name: Almaty
  latitude: '43.35520000'
  longitude: '77.45245000'
- name: Kapshagay
  state_code: ALM
  state_name: Almaty
  latitude: '43.86681000'
  longitude: '77.06304000'
- name: Kegen
  state_code: ALM
  state_name: Almaty
  latitude: '43.02143000'
  longitude: '79.22055000'
- name: Lepsy
  state_code: ALM
  state_name: Almaty
  latitude: '46.23500000'
  longitude: '78.94556000'
- name: Matay
  state_code: ALM
  state_name: Almaty
  latitude: '45.89500000'
  longitude: '78.71806000'
- name: Otegen Batyra
  state_code: ALM
  state_name: Almaty
  latitude: '43.41949000'
  longitude: '77.02020000'
- name: Pervomayka
  state_code: ALM
  state_name: Almaty
  latitude: '43.37361000'
  longitude: '76.94000000'
- name: Sarkand
  state_code: ALM
  state_name: Almaty
  latitude: '45.41126000'
  longitude: '79.91545000'
- name: Saryozek
  state_code: ALM
  state_name: Almaty
  latitude: '44.36178000'
  longitude: '77.97279000'
- name: Taldykorgan
  state_code: ALM
  state_name: Almaty
  latitude: '45.01556000'
  longitude: '78.37389000'
- name: Talghar
  state_code: ALM
  state_name: Almaty
  latitude: '43.30348000'
  longitude: '77.24085000'
- name: Tekeli
  state_code: ALM
  state_name: Almaty
  latitude: '44.83322000'
  longitude: '78.83089000'
- name: Turgen
  state_code: ALM
  state_name: Almaty
  latitude: '43.40056000'
  longitude: '77.59333000'
- name: Ülken
  state_code: ALM
  state_name: Almaty
  latitude: '45.21194000'
  longitude: '73.97861000'
- name: Ush-Tyube
  state_code: ALM
  state_name: Almaty
  latitude: '45.25201000'
  longitude: '77.98007000'
- name: Zharkent
  state_code: ALM
  state_name: Almaty
  latitude: '44.16660000'
  longitude: '80.00655000'
- name: Almaty
  state_code: ALA
  state_name: Almaty
  latitude: '43.25667000'
  longitude: '76.92861000'
- name: Nur-Sultan
  state_code: AST
  state_name: Astana
  latitude: '51.18010000'
  longitude: '71.44598000'
- name: Akkol’
  state_code: ATY
  state_name: Atyrau
  latitude: '48.77177000'
  longitude: '53.18580000'
- name: Atyrau
  state_code: ATY
  state_name: Atyrau
  latitude: '47.11667000'
  longitude: '51.88333000'
- name: Balykshi
  state_code: ATY
  state_name: Atyrau
  latitude: '47.06667000'
  longitude: '51.86667000'
- name: Bayshonas
  state_code: ATY
  state_name: Atyrau
  latitude: '47.24139000'
  longitude: '52.94111000'
- name: Dossor
  state_code: ATY
  state_name: Atyrau
  latitude: '47.52722000'
  longitude: '52.98111000'
- name: Inderbor
  state_code: ATY
  state_name: Atyrau
  latitude: '48.55000000'
  longitude: '51.78333000'
- name: Makhambet
  state_code: ATY
  state_name: Atyrau
  latitude: '47.66667000'
  longitude: '51.58333000'
- name: Maloye Ganyushkino
  state_code: ATY
  state_name: Atyrau
  latitude: '46.60000000'
  longitude: '49.26667000'
- name: Maqat
  state_code: ATY
  state_name: Atyrau
  latitude: '47.65000000'
  longitude: '53.31667000'
- name: Miyaly
  state_code: ATY
  state_name: Atyrau
  latitude: '48.88504000'
  longitude: '53.79194000'
- name: Qaraton
  state_code: ATY
  state_name: Atyrau
  latitude: '46.43528000'
  longitude: '53.48639000'
- name: Qulsary
  state_code: ATY
  state_name: Atyrau
  latitude: '46.95307000'
  longitude: '54.01978000'
- name: Shalkar
  state_code: ATY
  state_name: Atyrau
  latitude: '48.03333000'
  longitude: '48.90000000'
- name: Baikonur
  state_code: BAY
  state_name: Baikonur
  latitude: '45.61667000'
  longitude: '63.31667000'
- name: Altayskiy
  state_code: VOS
  state_name: East Kazakhstan
  latitude: '50.24593000'
  longitude: '82.36252000'
- name: Aqtoghay
  state_code: VOS
  state_name: East Kazakhstan
  latitude: '46.95000000'
  longitude: '79.66667000'
- name: Asūbulaq
  state_code: VOS
  state_name: East Kazakhstan
  latitude: '49.55688000'
  longitude: '83.06355000'
- name: Auezov
  state_code: VOS
  state_name: East Kazakhstan
  latitude: '49.71003000'
  longitude: '81.58018000'
- name: Ayagoz
  state_code: VOS
  state_name: East Kazakhstan
  latitude: '47.96447000'
  longitude: '80.43437000'
- name: Belogorskīy
  state_code: VOS
  state_name: East Kazakhstan
  latitude: '49.47698000'
  longitude: '83.14803000'
- name: Belousovka
  state_code: VOS
  state_name: East Kazakhstan
  latitude: '50.13287000'
  longitude: '82.52481000'
- name: Borodulikha
  state_code: VOS
  state_name: East Kazakhstan
  latitude: '50.71841000'
  longitude: '80.92950000'
- name: Georgīevka
  state_code: VOS
  state_name: East Kazakhstan
  latitude: '49.32671000'
  longitude: '81.57373000'
- name: Glubokoye
  state_code: VOS
  state_name: East Kazakhstan
  latitude: '50.13887000'
  longitude: '82.31114000'
- name: Kurchatov
  state_code: VOS
  state_name: East Kazakhstan
  latitude: '50.75617000'
  longitude: '78.54188000'
- name: Kurchum
  state_code: VOS
  state_name: East Kazakhstan
  latitude: '48.56603000'
  longitude: '83.66146000'
- name: Maleyevsk
  state_code: VOS
  state_name: East Kazakhstan
  latitude: '49.81441000'
  longitude: '84.29102000'
- name: Ognevka
  state_code: VOS
  state_name: East Kazakhstan
  latitude: '49.68351000'
  longitude: '83.01674000'
- name: Priisk Boko
  state_code: VOS
  state_name: East Kazakhstan
  latitude: '49.06028000'
  longitude: '81.64528000'
- name: Qaraūyl
  state_code: VOS
  state_name: East Kazakhstan
  latitude: '48.94509000'
  longitude: '79.25502000'
- name: Ridder
  state_code: VOS
  state_name: East Kazakhstan
  latitude: '50.34413000'
  longitude: '83.51287000'
- name: Semey
  state_code: VOS
  state_name: East Kazakhstan
  latitude: '50.42675000'
  longitude: '80.26669000'
- name: Shar
  state_code: VOS
  state_name: East Kazakhstan
  latitude: '49.58720000'
  longitude: '81.04883000'
- name: Shemonaīkha
  state_code: VOS
  state_name: East Kazakhstan
  latitude: '50.62811000'
  longitude: '81.91213000'
- name: Suykbulak
  state_code: VOS
  state_name: East Kazakhstan
  latitude: '49.70837000'
  longitude: '81.04854000'
- name: Tūghyl
  state_code: VOS
  state_name: East Kazakhstan
  latitude: '47.72521000'
  longitude: '84.20629000'
- name: Urzhar
  state_code: VOS
  state_name: East Kazakhstan
  latitude: '47.09302000'
  longitude: '81.62939000'
- name: Ust-Kamenogorsk
  state_code: VOS
  state_name: East Kazakhstan
  latitude: '49.97143000'
  longitude: '82.60586000'
- name: Ūst’-Talovka
  state_code: VOS
  state_name: East Kazakhstan
  latitude: '50.54927000'
  longitude: '81.84997000'
- name: Zaysan
  state_code: VOS
  state_name: East Kazakhstan
  latitude: '47.46657000'
  longitude: '84.87144000'
- name: Zhalghyztobe
  state_code: VOS
  state_name: East Kazakhstan
  latitude: '49.21094000'
  longitude: '81.21596000'
- name: Zhanga Buqtyrma
  state_code: VOS
  state_name: East Kazakhstan
  latitude: '49.62950000'
  longitude: '83.52475000'
- name: Zhezkent
  state_code: VOS
  state_name: East Kazakhstan
  latitude: '50.93112000'
  longitude: '81.36150000'
- name: Zyryanovsk
  state_code: VOS
  state_name: East Kazakhstan
  latitude: '49.72654000'
  longitude: '84.27318000'
- name: Aqbaqay
  state_code: ZHA
  state_name: Jambyl
  latitude: '45.00000000'
  longitude: '72.78333000'
- name: Chu
  state_code: ZHA
  state_name: Jambyl
  latitude: '43.60334000'
  longitude: '73.75919000'
- name: Georgiyevka
  state_code: ZHA
  state_name: Jambyl
  latitude: '43.03882000'
  longitude: '74.71287000'
- name: Granitogorsk
  state_code: ZHA
  state_name: Jambyl
  latitude: '42.74400000'
  longitude: '73.46848000'
- name: Karatau
  state_code: ZHA
  state_name: Jambyl
  latitude: '43.17869000'
  longitude: '70.46768000'
- name: Khantaū
  state_code: ZHA
  state_name: Jambyl
  latitude: '44.22744000'
  longitude: '73.79555000'
- name: Lugovoy
  state_code: ZHA
  state_name: Jambyl
  latitude: '42.94197000'
  longitude: '72.76098000'
- name: Lugovoye
  state_code: ZHA
  state_name: Jambyl
  latitude: '42.91010000'
  longitude: '72.72066000'
- name: Merke
  state_code: ZHA
  state_name: Jambyl
  latitude: '42.86976000'
  longitude: '73.18463000'
- name: Moyynkum
  state_code: ZHA
  state_name: Jambyl
  latitude: '44.28461000'
  longitude: '72.93920000'
- name: Mynaral
  state_code: ZHA
  state_name: Jambyl
  latitude: '45.41611000'
  longitude: '73.68444000'
- name: Oytal
  state_code: ZHA
  state_name: Jambyl
  latitude: '42.90573000'
  longitude: '73.26972000'
- name: Sarykemer
  state_code: ZHA
  state_name: Jambyl
  latitude: '43.00000000'
  longitude: '71.50000000'
- name: Shyghanaq
  state_code: ZHA
  state_name: Jambyl
  latitude: '44.83056000'
  longitude: '70.00194000'
- name: Taraz
  state_code: ZHA
  state_name: Jambyl
  latitude: '42.90000000'
  longitude: '71.36667000'
- name: Zhangatas
  state_code: ZHA
  state_name: Jambyl
  latitude: '43.56222000'
  longitude: '69.73428000'
- name: Abay
  state_code: KAR
  state_name: Karaganda
  latitude: '49.63575000'
  longitude: '72.86164000'
- name: Abay Qalasy
  state_code: KAR
  state_name: Karaganda
  latitude: '49.63333000'
  longitude: '72.88333000'
- name: Aksu-Ayuly
  state_code: KAR
  state_name: Karaganda
  latitude: '48.76788000'
  longitude: '73.67272000'
- name: Aktas
  state_code: KAR
  state_name: Karaganda
  latitude: '49.77952000'
  longitude: '72.96128000'
- name: Aktau
  state_code: KAR
  state_name: Karaganda
  latitude: '48.03333000'
  longitude: '72.83333000'
- name: Aktogay
  state_code: KAR
  state_name: Karaganda
  latitude: '48.16667000'
  longitude: '75.30000000'
- name: Aqadyr
  state_code: KAR
  state_name: Karaganda
  latitude: '48.26014000'
  longitude: '72.85851000'
- name: Aqshataū
  state_code: KAR
  state_name: Karaganda
  latitude: '47.98917000'
  longitude: '74.05750000'
- name: Aqtoghay Aūdany
  state_code: KAR
  state_name: Karaganda
  latitude: '48.50000000'
  longitude: '74.75000000'
- name: Atasū
  state_code: KAR
  state_name: Karaganda
  latitude: '48.68659000'
  longitude: '71.64469000'
- name: Balqash
  state_code: KAR
  state_name: Karaganda
  latitude: '46.84806000'
  longitude: '74.99500000'
- name: Bukhar-Zhyrau
  state_code: KAR
  state_name: Karaganda
  latitude: '49.85658000'
  longitude: '73.68118000'
- name: Dolinka
  state_code: KAR
  state_name: Karaganda
  latitude: '49.67685000'
  longitude: '72.67822000'
- name: Karagandy
  state_code: KAR
  state_name: Karaganda
  latitude: '49.80187000'
  longitude: '73.10211000'
- name: Kīevka
  state_code: KAR
  state_name: Karaganda
  latitude: '50.26212000'
  longitude: '71.54839000'
- name: Koktal
  state_code: KAR
  state_name: Karaganda
  latitude: '49.65000000'
  longitude: '73.51667000'
- name: Kushoky
  state_code: KAR
  state_name: Karaganda
  latitude: '50.23091000'
  longitude: '73.40146000'
- name: Kyzylzhar
  state_code: KAR
  state_name: Karaganda
  latitude: '49.98197000'
  longitude: '72.60761000'
- name: Moyynty
  state_code: KAR
  state_name: Karaganda
  latitude: '47.22111000'
  longitude: '73.36694000'
- name: Novodolinskiy
  state_code: KAR
  state_name: Karaganda
  latitude: '49.70650000'
  longitude: '72.70807000'
- name: Osakarovka
  state_code: KAR
  state_name: Karaganda
  latitude: '50.56219000'
  longitude: '72.57089000'
- name: Prigorodnoye
  state_code: KAR
  state_name: Karaganda
  latitude: '49.69244000'
  longitude: '75.58438000'
- name: Priozersk
  state_code: KAR
  state_name: Karaganda
  latitude: '46.03106000'
  longitude: '73.70247000'
- name: Qarazhal
  state_code: KAR
  state_name: Karaganda
  latitude: '48.00627000'
  longitude: '70.79607000'
- name: Qarqaraly
  state_code: KAR
  state_name: Karaganda
  latitude: '49.41287000'
  longitude: '75.47286000'
- name: Saryshaghan
  state_code: KAR
  state_name: Karaganda
  latitude: '46.11917000'
  longitude: '73.61917000'
- name: Sayaq
  state_code: KAR
  state_name: Karaganda
  latitude: '47.00000000'
  longitude: '77.26667000'
- name: Shakhan
  state_code: KAR
  state_name: Karaganda
  latitude: '49.81958000'
  longitude: '72.65407000'
- name: Shakhtinsk
  state_code: KAR
  state_name: Karaganda
  latitude: '49.70885000'
  longitude: '72.59212000'
- name: Shashūbay
  state_code: KAR
  state_name: Karaganda
  latitude: '46.81694000'
  longitude: '75.04028000'
- name: Shubarköl
  state_code: KAR
  state_name: Karaganda
  latitude: '48.88222000'
  longitude: '68.80722000'
- name: Soran
  state_code: KAR
  state_name: Karaganda
  latitude: '49.79080000'
  longitude: '72.83744000'
- name: Temirtau
  state_code: KAR
  state_name: Karaganda
  latitude: '50.05494000'
  longitude: '72.96464000'
- name: Tokarevka
  state_code: KAR
  state_name: Karaganda
  latitude: '50.11573000'
  longitude: '73.16034000'
- name: Verkhniye Kayrakty
  state_code: KAR
  state_name: Karaganda
  latitude: '48.68333000'
  longitude: '73.28333000'
- name: Zhambyl
  state_code: KAR
  state_name: Karaganda
  latitude: '47.20694000'
  longitude: '71.39694000'
- name: Zharyk
  state_code: KAR
  state_name: Karaganda
  latitude: '48.85692000'
  longitude: '72.83598000'
- name: Zhezqazghan
  state_code: KAR
  state_name: Karaganda
  latitude: '47.78333000'
  longitude: '67.76667000'
- name: Arkalyk
  state_code: KUS
  state_name: Kostanay
  latitude: '50.24915000'
  longitude: '66.92027000'
- name: Ayat
  state_code: KUS
  state_name: Kostanay
  latitude: '52.83554000'
  longitude: '62.52078000'
- name: Borovskoy
  state_code: KUS
  state_name: Kostanay
  latitude: '53.79270000'
  longitude: '64.18268000'
- name: Dzhetygara
  state_code: KUS
  state_name: Kostanay
  latitude: '52.19019000'
  longitude: '61.19894000'
- name: Fyodorovka
  state_code: KUS
  state_name: Kostanay
  latitude: '53.63809000'
  longitude: '62.69653000'
- name: Karasu
  state_code: KUS
  state_name: Kostanay
  latitude: '52.65995000'
  longitude: '65.48421000'
- name: Komsomolets
  state_code: KUS
  state_name: Kostanay
  latitude: '53.75019000'
  longitude: '62.05840000'
- name: Kostanay
  state_code: KUS
  state_name: Kostanay
  latitude: '53.21435000'
  longitude: '63.62463000'
- name: Lisakovsk
  state_code: KUS
  state_name: Kostanay
  latitude: '52.54707000'
  longitude: '62.49987000'
- name: Ordzhonikidze
  state_code: KUS
  state_name: Kostanay
  latitude: '52.44772000'
  longitude: '61.74942000'
- name: Qashar
  state_code: KUS
  state_name: Kostanay
  latitude: '53.36799000'
  longitude: '62.86839000'
- name: Qusmuryn
  state_code: KUS
  state_name: Kostanay
  latitude: '52.45107000'
  longitude: '64.61977000'
- name: Rudnyy
  state_code: KUS
  state_name: Kostanay
  latitude: '52.97290000'
  longitude: '63.11677000'
- name: Tobol
  state_code: KUS
  state_name: Kostanay
  latitude: '52.69366000'
  longitude: '62.59140000'
- name: Torghay
  state_code: KUS
  state_name: Kostanay
  latitude: '49.63389000'
  longitude: '63.49806000'
- name: Troyebratskiy
  state_code: KUS
  state_name: Kostanay
  latitude: '54.44306000'
  longitude: '66.07982000'
- name: Aral
  state_code: KZY
  state_name: Kyzylorda
  latitude: '46.80000000'
  longitude: '61.66667000'
- name: Ayteke Bi
  state_code: KZY
  state_name: Kyzylorda
  latitude: '45.84607000'
  longitude: '62.15264000'
- name: Belköl
  state_code: KZY
  state_name: Kyzylorda
  latitude: '44.81162000'
  longitude: '65.58796000'
- name: Dzhalagash
  state_code: KZY
  state_name: Kyzylorda
  latitude: '45.08333000'
  longitude: '64.66667000'
- name: Kyzylorda
  state_code: KZY
  state_name: Kyzylorda
  latitude: '44.85278000'
  longitude: '65.50917000'
- name: Qazaly
  state_code: KZY
  state_name: Kyzylorda
  latitude: '45.76278000'
  longitude: '62.10750000'
- name: Sekseūil
  state_code: KZY
  state_name: Kyzylorda
  latitude: '47.09000000'
  longitude: '61.15194000'
- name: Shalqīya
  state_code: KZY
  state_name: Kyzylorda
  latitude: '44.00947000'
  longitude: '67.41062000'
- name: Shīeli
  state_code: KZY
  state_name: Kyzylorda
  latitude: '44.16882000'
  longitude: '66.73887000'
- name: Tasböget
  state_code: KZY
  state_name: Kyzylorda
  latitude: '44.77384000'
  longitude: '65.55227000'
- name: Terenozek
  state_code: KZY
  state_name: Kyzylorda
  latitude: '45.05053000'
  longitude: '64.98395000'
- name: Yanykurgan
  state_code: KZY
  state_name: Kyzylorda
  latitude: '43.90652000'
  longitude: '67.24637000'
- name: Zhosaly
  state_code: KZY
  state_name: Kyzylorda
  latitude: '45.48778000'
  longitude: '64.07806000'
- name: Aktau
  state_code: MAN
  state_name: Mangystau
  latitude: '43.65000000'
  longitude: '51.16667000'
- name: Baūtīno
  state_code: MAN
  state_name: Mangystau
  latitude: '44.54479000'
  longitude: '50.24629000'
- name: Beyneu
  state_code: MAN
  state_name: Mangystau
  latitude: '45.31667000'
  longitude: '55.20000000'
- name: Fort-Shevchenko
  state_code: MAN
  state_name: Mangystau
  latitude: '44.50654000'
  longitude: '50.26388000'
- name: Munayshy
  state_code: MAN
  state_name: Mangystau
  latitude: '43.49111000'
  longitude: '52.10861000'
- name: Ömirzaq
  state_code: MAN
  state_name: Mangystau
  latitude: '43.59786000'
  longitude: '51.24171000'
- name: Sayötesh
  state_code: MAN
  state_name: Mangystau
  latitude: '44.32781000'
  longitude: '53.53246000'
- name: Shetpe
  state_code: MAN
  state_name: Mangystau
  latitude: '44.16667000'
  longitude: '52.11667000'
- name: Taūshyq
  state_code: MAN
  state_name: Mangystau
  latitude: '44.34678000'
  longitude: '51.34932000'
- name: Yeraliyev
  state_code: MAN
  state_name: Mangystau
  latitude: '43.18032000'
  longitude: '51.68116000'
- name: Zhanaozen
  state_code: MAN
  state_name: Mangystau
  latitude: '43.34116000'
  longitude: '52.86192000'
- name: Zhetibay
  state_code: MAN
  state_name: Mangystau
  latitude: '43.59417000'
  longitude: '52.07889000'
- name: Birlestik
  state_code: SEV
  state_name: North Kazakhstan
  latitude: '53.58414000'
  longitude: '68.35382000'
- name: Bishkul
  state_code: SEV
  state_name: North Kazakhstan
  latitude: '54.77763000'
  longitude: '69.09951000'
- name: Bulayevo
  state_code: SEV
  state_name: North Kazakhstan
  latitude: '54.90596000'
  longitude: '70.44155000'
- name: Būrabay
  state_code: SEV
  state_name: North Kazakhstan
  latitude: '53.08382000'
  longitude: '70.31379000'
- name: Kzyltu
  state_code: SEV
  state_name: North Kazakhstan
  latitude: '53.63589000'
  longitude: '72.34079000'
- name: Novoishimskiy
  state_code: SEV
  state_name: North Kazakhstan
  latitude: '53.19806000'
  longitude: '66.76944000'
- name: Petropavl
  state_code: SEV
  state_name: North Kazakhstan
  latitude: '54.86667000'
  longitude: '69.15000000'
- name: Sergeyevka
  state_code: SEV
  state_name: North Kazakhstan
  latitude: '53.88139000'
  longitude: '67.40882000'
- name: Smirnovo
  state_code: SEV
  state_name: North Kazakhstan
  latitude: '54.51480000'
  longitude: '69.42732000'
- name: Taiynsha
  state_code: SEV
  state_name: North Kazakhstan
  latitude: '53.84796000'
  longitude: '69.76773000'
- name: Talshik
  state_code: SEV
  state_name: North Kazakhstan
  latitude: '53.63736000'
  longitude: '71.87404000'
- name: Timiryazevo
  state_code: SEV
  state_name: North Kazakhstan
  latitude: '53.74947000'
  longitude: '66.48852000'
- name: Volodarskoye
  state_code: SEV
  state_name: North Kazakhstan
  latitude: '53.29270000'
  longitude: '68.10500000'
- name: Yavlenka
  state_code: SEV
  state_name: North Kazakhstan
  latitude: '54.34525000'
  longitude: '68.45740000'
- name: Aksu
  state_code: PAV
  state_name: Pavlodar
  latitude: '52.04023000'
  longitude: '76.92748000'
- name: Bayanaul
  state_code: PAV
  state_name: Pavlodar
  latitude: '50.79304000'
  longitude: '75.70123000'
- name: Belogor’ye
  state_code: PAV
  state_name: Pavlodar
  latitude: '51.52983000'
  longitude: '77.47146000'
- name: Ekibastuz
  state_code: PAV
  state_name: Pavlodar
  latitude: '51.72371000'
  longitude: '75.32287000'
- name: Irtyshsk
  state_code: PAV
  state_name: Pavlodar
  latitude: '53.33365000'
  longitude: '75.45775000'
- name: Kalkaman
  state_code: PAV
  state_name: Pavlodar
  latitude: '51.95349000'
  longitude: '76.02723000'
- name: Leninskiy
  state_code: PAV
  state_name: Pavlodar
  latitude: '52.25346000'
  longitude: '76.78211000'
- name: Mayqayyng
  state_code: PAV
  state_name: Pavlodar
  latitude: '51.45981000'
  longitude: '75.80232000'
- name: Pavlodar
  state_code: PAV
  state_name: Pavlodar
  latitude: '52.28333000'
  longitude: '76.96667000'
- name: Qashyr
  state_code: PAV
  state_name: Pavlodar
  latitude: '53.06649000'
  longitude: '76.10489000'
- name: Zhelezinka
  state_code: PAV
  state_name: Pavlodar
  latitude: '53.53880000'
  longitude: '75.31326000'
- name: Arys
  state_code: YUZ
  state_name: Turkestan
  latitude: '42.43015000'
  longitude: '68.80870000'
- name: Ashchysay
  state_code: YUZ
  state_name: Turkestan
  latitude: '43.55370000'
  longitude: '68.89792000'
- name: Asyqata
  state_code: YUZ
  state_name: Turkestan
  latitude: '40.89460000'
  longitude: '68.36430000'
- name: Atakent
  state_code: YUZ
  state_name: Turkestan
  latitude: '40.84782000'
  longitude: '68.50643000'
- name: Bayzhansay
  state_code: YUZ
  state_name: Turkestan
  latitude: '43.16708000'
  longitude: '69.91459000'
- name: Belyye Vody
  state_code: YUZ
  state_name: Turkestan
  latitude: '42.42193000'
  longitude: '69.82709000'
- name: Chardara
  state_code: YUZ
  state_name: Turkestan
  latitude: '41.25832000'
  longitude: '67.96991000'
- name: Chayan
  state_code: YUZ
  state_name: Turkestan
  latitude: '43.03399000'
  longitude: '69.38048000'
- name: Chulakkurgan
  state_code: YUZ
  state_name: Turkestan
  latitude: '43.76453000'
  longitude: '69.17856000'
- name: Kantagi
  state_code: YUZ
  state_name: Turkestan
  latitude: '43.52786000'
  longitude: '68.58287000'
- name: Kentau
  state_code: YUZ
  state_name: Turkestan
  latitude: '43.51672000'
  longitude: '68.50463000'
- name: Kokterek
  state_code: YUZ
  state_name: Turkestan
  latitude: '42.49442000'
  longitude: '70.25478000'
- name: Lenger
  state_code: YUZ
  state_name: Turkestan
  latitude: '42.18152000'
  longitude: '69.88582000'
- name: Leninskoye
  state_code: YUZ
  state_name: Turkestan
  latitude: '41.75640000'
  longitude: '69.38390000'
- name: Maqtaaral Aūdany
  state_code: YUZ
  state_name: Turkestan
  latitude: '40.75000000'
  longitude: '68.58333000'
- name: Myrzakent
  state_code: YUZ
  state_name: Turkestan
  latitude: '40.66338000'
  longitude: '68.54510000'
- name: Qogham
  state_code: YUZ
  state_name: Turkestan
  latitude: '42.82774000'
  longitude: '68.28074000'
- name: Saryaghash
  state_code: YUZ
  state_name: Turkestan
  latitude: '41.46042000'
  longitude: '69.16791000'
- name: Saryaghash Aūdany
  state_code: YUZ
  state_name: Turkestan
  latitude: '41.66667000'
  longitude: '68.83333000'
- name: Sastobe
  state_code: YUZ
  state_name: Turkestan
  latitude: '42.55330000'
  longitude: '69.99835000'
- name: Sozaq Aūdany
  state_code: YUZ
  state_name: Turkestan
  latitude: '44.83333000'
  longitude: '68.50000000'
- name: Temirlanovka
  state_code: YUZ
  state_name: Turkestan
  latitude: '42.59998000'
  longitude: '69.25836000'
- name: Turar Ryskulov
  state_code: YUZ
  state_name: Turkestan
  latitude: '42.53340000'
  longitude: '70.34960000'
- name: Turkestan
  state_code: YUZ
  state_name: Turkestan
  latitude: '43.29733000'
  longitude: '68.25175000'
- name: Tyul’kubas
  state_code: YUZ
  state_name: Turkestan
  latitude: '42.48578000'
  longitude: '70.29601000'
- name: Zhabagly
  state_code: YUZ
  state_name: Turkestan
  latitude: '42.43781000'
  longitude: '70.47841000'
- name: Aqsay
  state_code: ZAP
  state_name: West Kazakhstan
  latitude: '51.16810000'
  longitude: '52.99782000'
- name: Burlin
  state_code: ZAP
  state_name: West Kazakhstan
  latitude: '51.42724000'
  longitude: '52.71392000'
- name: Chapaev
  state_code: ZAP
  state_name: West Kazakhstan
  latitude: '50.20000000'
  longitude: '51.16667000'
- name: Chingirlau
  state_code: ZAP
  state_name: West Kazakhstan
  latitude: '51.09878000'
  longitude: '54.08426000'
- name: Dzhambeyty
  state_code: ZAP
  state_name: West Kazakhstan
  latitude: '50.25676000'
  longitude: '52.59895000'
- name: Fedorovka
  state_code: ZAP
  state_name: West Kazakhstan
  latitude: '51.22102000'
  longitude: '51.95723000'
- name: Kaztalovka
  state_code: ZAP
  state_name: West Kazakhstan
  latitude: '49.76612000'
  longitude: '48.68903000'
- name: Krūgloozernoe
  state_code: ZAP
  state_name: West Kazakhstan
  latitude: '51.07854000'
  longitude: '51.28992000'
- name: Oral
  state_code: ZAP
  state_name: West Kazakhstan
  latitude: '51.23333000'
  longitude: '51.36667000'
- name: Peremetnoe
  state_code: ZAP
  state_name: West Kazakhstan
  latitude: '51.19925000'
  longitude: '50.85544000'
- name: Saykhin
  state_code: ZAP
  state_name: West Kazakhstan
  latitude: '48.85611000'
  longitude: '46.83361000'
- name: Tasqala
  state_code: ZAP
  state_name: West Kazakhstan
  latitude: '51.11073000'
  longitude: '50.29454000'
- name: Zhänibek
  state_code: ZAP
  state_name: West Kazakhstan
  latitude: '49.42207000'
  longitude: '46.84705000'
