---
- name: Balzers
  state_code: '01'
  state_name: Balzers
  latitude: '47.06665000'
  longitude: '9.50251000'
- name: Eschen
  state_code: '02'
  state_name: Eschen
  latitude: '47.21071000'
  longitude: '9.52223000'
- name: Gamprin
  state_code: '03'
  state_name: Gamprin
  latitude: '47.22038000'
  longitude: '9.50935000'
- name: Mauren
  state_code: '04'
  state_name: Mauren
  latitude: '47.21805000'
  longitude: '9.54420000'
- name: Planken
  state_code: '05'
  state_name: Planken
  latitude: '47.18516000'
  longitude: '9.54437000'
- name: Ruggell
  state_code: '06'
  state_name: Ruggell
  latitude: '47.23799000'
  longitude: '9.52540000'
- name: Schaan
  state_code: '07'
  state_name: Schaan
  latitude: '47.16498000'
  longitude: '9.50867000'
- name: Schellenberg
  state_code: '08'
  state_name: Schellenberg
  latitude: '47.23123000'
  longitude: '9.54678000'
- name: Triesen
  state_code: '09'
  state_name: Triesen
  latitude: '47.10752000'
  longitude: '9.52815000'
- name: Triesenberg
  state_code: '10'
  state_name: Triesenberg
  latitude: '47.11815000'
  longitude: '9.54197000'
- name: Vaduz
  state_code: '11'
  state_name: Vaduz
  latitude: '47.14151000'
  longitude: '9.52154000'
