---
- name: Teyateyaneng
  state_code: D
  state_name: Berea
  latitude: "-29.14719000"
  longitude: '27.74895000'
- name: Butha-Buthe
  state_code: B
  state_name: Butha-Buthe
  latitude: "-28.76659000"
  longitude: '28.24937000'
- name: Leribe
  state_code: C
  state_name: Leribe
  latitude: "-28.87185000"
  longitude: '28.04501000'
- name: Maputsoe
  state_code: C
  state_name: Leribe
  latitude: "-28.88660000"
  longitude: '27.89915000'
- name: Mafeteng
  state_code: E
  state_name: Mafeteng
  latitude: "-29.82299000"
  longitude: '27.23744000'
- name: Maseru
  state_code: A
  state_name: Maseru
  latitude: "-29.31667000"
  longitude: '27.48333000'
- name: Nako
  state_code: A
  state_name: Maseru
  latitude: "-29.61667000"
  longitude: '27.76667000'
- name: Mohale’s Hoek
  state_code: F
  state_name: Mohale's Hoek
  latitude: "-30.15137000"
  longitude: '27.47691000'
- name: Mokhotlong
  state_code: J
  state_name: Mokhotlong
  latitude: "-29.28939000"
  longitude: '29.06751000'
- name: Qacha’s Nek
  state_code: H
  state_name: Qacha's Nek
  latitude: "-30.11537000"
  longitude: '28.68936000'
- name: Quthing
  state_code: G
  state_name: Quthing
  latitude: "-30.40001000"
  longitude: '27.70027000'
- name: Thaba-Tseka
  state_code: K
  state_name: Thaba-Tseka
  latitude: "-29.52204000"
  longitude: '28.60840000'
