---
- name: Alytus
  state_code: '02'
  state_name: Alytus
  latitude: '54.39635000'
  longitude: '24.04142000'
- name: Daugai
  state_code: '02'
  state_name: Alytus
  latitude: '54.36667000'
  longitude: '24.33333000'
- name: Druskininkai
  state_code: '02'
  state_name: Alytus
  latitude: '54.01573000'
  longitude: '23.98703000'
- name: Lazdijai
  state_code: '02'
  state_name: Alytus
  latitude: '54.23333000'
  longitude: '23.51667000'
- name: Simnas
  state_code: '02'
  state_name: Alytus
  latitude: '54.38200000'
  longitude: '23.64600000'
- name: Varėna
  state_code: '02'
  state_name: Alytus
  latitude: '54.21667000'
  longitude: '24.56667000'
- name: Veisiejai
  state_code: '02'
  state_name: Alytus
  latitude: '54.10110000'
  longitude: '23.69614000'
- name: Akademija (Kaunas)
  state_code: '15'
  state_name: Kaunas
  latitude: '54.89640000'
  longitude: '23.82411000'
- name: Aleksotas
  state_code: '15'
  state_name: Kaunas
  latitude: '54.88037000'
  longitude: '23.90842000'
- name: Ariogala
  state_code: '15'
  state_name: Kaunas
  latitude: '55.26200000'
  longitude: '23.47700000'
- name: Birštonas
  state_code: '15'
  state_name: Kaunas
  latitude: '54.61667000'
  longitude: '24.03333000'
- name: Dainava (Kaunas)
  state_code: '15'
  state_name: Kaunas
  latitude: '54.91525000'
  longitude: '23.96831000'
- name: Eiguliai
  state_code: '15'
  state_name: Kaunas
  latitude: '54.93133000'
  longitude: '23.93243000'
- name: Ežerėlis
  state_code: '15'
  state_name: Kaunas
  latitude: '54.88315000'
  longitude: '23.60396000'
- name: Garliava
  state_code: '15'
  state_name: Kaunas
  latitude: '54.82139000'
  longitude: '23.87130000'
- name: Jieznas
  state_code: '15'
  state_name: Kaunas
  latitude: '54.59937000'
  longitude: '24.17593000'
- name: Jonava
  state_code: '15'
  state_name: Kaunas
  latitude: '55.08333000'
  longitude: '24.28333000'
- name: Kaišiadorys
  state_code: '15'
  state_name: Kaunas
  latitude: '54.86667000'
  longitude: '24.45000000'
- name: Karmėlava
  state_code: '15'
  state_name: Kaunas
  latitude: '54.97055000'
  longitude: '24.06182000'
- name: Kaunas
  state_code: '15'
  state_name: Kaunas
  latitude: '54.90272000'
  longitude: '23.90961000'
- name: Kėdainiai
  state_code: '15'
  state_name: Kaunas
  latitude: '55.28333000'
  longitude: '23.96667000'
- name: Kulautuva
  state_code: '15'
  state_name: Kaunas
  latitude: '54.94212000'
  longitude: '23.64218000'
- name: Mastaiciai
  state_code: '15'
  state_name: Kaunas
  latitude: '54.81998000'
  longitude: '23.84462000'
- name: Prienai
  state_code: '15'
  state_name: Kaunas
  latitude: '54.63333000'
  longitude: '23.95000000'
- name: Ramučiai
  state_code: '15'
  state_name: Kaunas
  latitude: '54.94830000'
  longitude: '24.03050000'
- name: Raseiniai
  state_code: '15'
  state_name: Kaunas
  latitude: '55.36667000'
  longitude: '23.11667000'
- name: Sargėnai
  state_code: '15'
  state_name: Kaunas
  latitude: '54.94933000'
  longitude: '23.88316000'
- name: Šilainiai
  state_code: '15'
  state_name: Kaunas
  latitude: '54.92911000'
  longitude: '23.88599000'
- name: Vilkija
  state_code: '15'
  state_name: Kaunas
  latitude: '55.04609000'
  longitude: '23.58552000'
- name: Žiežmariai
  state_code: '15'
  state_name: Kaunas
  latitude: '54.80725000'
  longitude: '24.44073000'
- name: Gargždai
  state_code: '21'
  state_name: Klaipėda
  latitude: '55.70951000'
  longitude: '21.39441000'
- name: Klaipėda
  state_code: '21'
  state_name: Klaipėda
  latitude: '55.71667000'
  longitude: '21.11667000'
- name: Kretinga
  state_code: '21'
  state_name: Klaipėda
  latitude: '55.88880000'
  longitude: '21.24448000'
- name: Neringa
  state_code: '21'
  state_name: Klaipėda
  latitude: '55.36667000'
  longitude: '21.06667000'
- name: Nida
  state_code: '21'
  state_name: Klaipėda
  latitude: '55.30860000'
  longitude: '20.99651000'
- name: Palanga
  state_code: '21'
  state_name: Klaipėda
  latitude: '55.91750000'
  longitude: '21.06861000'
- name: Priekulė
  state_code: '21'
  state_name: Klaipėda
  latitude: '55.55427000'
  longitude: '21.31903000'
- name: Rusnė
  state_code: '21'
  state_name: Klaipėda
  latitude: '55.29820000'
  longitude: '21.37120000'
- name: Salantai
  state_code: '21'
  state_name: Klaipėda
  latitude: '56.05650000'
  longitude: '21.56890000'
- name: Silute
  state_code: '21'
  state_name: Klaipėda
  latitude: '55.34889000'
  longitude: '21.48306000'
- name: Skuodas
  state_code: '21'
  state_name: Klaipėda
  latitude: '56.26667000'
  longitude: '21.53333000'
- name: Šventoji
  state_code: '21'
  state_name: Klaipėda
  latitude: '56.02610000'
  longitude: '21.08411000'
- name: Žemaičių Naumiestis
  state_code: '21'
  state_name: Klaipėda
  latitude: '55.35941000'
  longitude: '21.70364000'
- name: Gelgaudiškis
  state_code: '25'
  state_name: Marijampolė
  latitude: '55.07688000'
  longitude: '22.97699000'
- name: Kalvarija
  state_code: '25'
  state_name: Marijampolė
  latitude: '54.41700000'
  longitude: '23.22300000'
- name: Kalvarija Municipality
  state_code: '25'
  state_name: Marijampolė
  latitude: '54.41468000'
  longitude: '23.22484000'
- name: Kazlų Rūda
  state_code: '25'
  state_name: Marijampolė
  latitude: '54.74900000'
  longitude: '23.49000000'
- name: Kazlų Rūda Municipality
  state_code: '25'
  state_name: Marijampolė
  latitude: '54.74751000'
  longitude: '23.49272000'
- name: Kudirkos Naumiestis
  state_code: '25'
  state_name: Marijampolė
  latitude: '54.77353000'
  longitude: '22.86138000'
- name: Kybartai
  state_code: '25'
  state_name: Marijampolė
  latitude: '54.63858000'
  longitude: '22.76316000'
- name: Marijampolė
  state_code: '25'
  state_name: Marijampolė
  latitude: '54.55991000'
  longitude: '23.35412000'
- name: Marijampolė Municipality
  state_code: '25'
  state_name: Marijampolė
  latitude: '54.56667000'
  longitude: '23.35000000'
- name: Sakiai
  state_code: '25'
  state_name: Marijampolė
  latitude: '54.95000000'
  longitude: '23.05000000'
- name: Vilkaviskis
  state_code: '25'
  state_name: Marijampolė
  latitude: '54.65167000'
  longitude: '23.03222000'
- name: Vilkaviškis District Municipality
  state_code: '25'
  state_name: Marijampolė
  latitude: '54.65000000'
  longitude: '23.03333000'
- name: Virbalis
  state_code: '25'
  state_name: Marijampolė
  latitude: '54.62858000'
  longitude: '22.82272000'
- name: Birzai
  state_code: '33'
  state_name: Panevėžys
  latitude: '56.20000000'
  longitude: '24.75000000'
- name: Juodupė
  state_code: '33'
  state_name: Panevėžys
  latitude: '56.08700000'
  longitude: '25.60700000'
- name: Kupiskis
  state_code: '33'
  state_name: Panevėžys
  latitude: '55.84027000'
  longitude: '24.97976000'
- name: Obeliai
  state_code: '33'
  state_name: Panevėžys
  latitude: '55.96895000'
  longitude: '25.15648000'
- name: Panevėžys
  state_code: '33'
  state_name: Panevėžys
  latitude: '55.73333000'
  longitude: '24.35000000'
- name: Panevėžys City
  state_code: '33'
  state_name: Panevėžys
  latitude: '55.73600000'
  longitude: '24.34347000'
- name: Panevėžys District Municipality
  state_code: '33'
  state_name: Panevėžys
  latitude: '55.73301000'
  longitude: '24.37609000'
- name: Pasvalys
  state_code: '33'
  state_name: Panevėžys
  latitude: '56.06667000'
  longitude: '24.40000000'
- name: Ramygala
  state_code: '33'
  state_name: Panevėžys
  latitude: '55.51400000'
  longitude: '24.30000000'
- name: Rokiškis
  state_code: '33'
  state_name: Panevėžys
  latitude: '55.96667000'
  longitude: '25.58333000'
- name: Vabalninkas
  state_code: '33'
  state_name: Panevėžys
  latitude: '55.98151000'
  longitude: '24.74828000'
- name: Akmenė
  state_code: '43'
  state_name: Šiauliai
  latitude: '56.25000000'
  longitude: '22.75000000'
- name: Joniškis
  state_code: '43'
  state_name: Šiauliai
  latitude: '56.23333000'
  longitude: '23.61667000'
- name: Kelmė
  state_code: '43'
  state_name: Šiauliai
  latitude: '55.63333000'
  longitude: '22.93333000'
- name: Kuršėnai
  state_code: '43'
  state_name: Šiauliai
  latitude: '56.00318000'
  longitude: '22.93662000'
- name: Linkuva
  state_code: '43'
  state_name: Šiauliai
  latitude: '56.08596000'
  longitude: '23.97061000'
- name: Naujoji Akmene
  state_code: '43'
  state_name: Šiauliai
  latitude: '56.31667000'
  longitude: '22.90000000'
- name: Pakruojis
  state_code: '43'
  state_name: Šiauliai
  latitude: '55.96667000'
  longitude: '23.86667000'
- name: Radviliskis
  state_code: '43'
  state_name: Šiauliai
  latitude: '55.81667000'
  longitude: '23.53333000'
- name: Šeduva
  state_code: '43'
  state_name: Šiauliai
  latitude: '55.74930000'
  longitude: '23.75610000'
- name: Šiauliai
  state_code: '43'
  state_name: Šiauliai
  latitude: '55.93333000'
  longitude: '23.31667000'
- name: Tytuvėnėliai
  state_code: '43'
  state_name: Šiauliai
  latitude: '55.62345000'
  longitude: '23.17162000'
- name: Venta
  state_code: '43'
  state_name: Šiauliai
  latitude: '56.19162000'
  longitude: '22.69528000'
- name: Žagarė
  state_code: '43'
  state_name: Šiauliai
  latitude: '56.36149000'
  longitude: '23.25094000'
- name: Būgai
  state_code: TA
  state_name: Tauragė
  latitude: '55.41387000'
  longitude: '22.60894000'
- name: Jurbarkas
  state_code: TA
  state_name: Tauragė
  latitude: '55.10859000'
  longitude: '22.79885000'
- name: Pagėgiai
  state_code: TA
  state_name: Tauragė
  latitude: '55.13400000'
  longitude: '21.90446000'
- name: Šilalė
  state_code: TA
  state_name: Tauragė
  latitude: '55.46667000'
  longitude: '22.20000000'
- name: Taurage
  state_code: TA
  state_name: Tauragė
  latitude: '55.25222000'
  longitude: '22.28972000'
- name: Mazeikiai
  state_code: '51'
  state_name: Telšiai
  latitude: '56.31667000'
  longitude: '22.33333000'
- name: Plateliai
  state_code: '51'
  state_name: Telšiai
  latitude: '56.04657000'
  longitude: '21.81615000'
- name: Plunge
  state_code: '51'
  state_name: Telšiai
  latitude: '55.91139000'
  longitude: '21.84417000'
- name: Rietavas
  state_code: '51'
  state_name: Telšiai
  latitude: '55.72375000'
  longitude: '21.93266000'
- name: Seda
  state_code: '51'
  state_name: Telšiai
  latitude: '56.16854000'
  longitude: '22.09071000'
- name: Telsiai
  state_code: '51'
  state_name: Telšiai
  latitude: '55.98139000'
  longitude: '22.24722000'
- name: Varniai
  state_code: '51'
  state_name: Telšiai
  latitude: '55.74435000'
  longitude: '22.37251000'
- name: Viekšniai
  state_code: '51'
  state_name: Telšiai
  latitude: '56.23598000'
  longitude: '22.51667000'
- name: Anyksciai
  state_code: UT
  state_name: Utena
  latitude: '55.52557000'
  longitude: '25.10264000'
- name: Dūkštas
  state_code: UT
  state_name: Utena
  latitude: '55.52200000'
  longitude: '26.32100000'
- name: Ignalina
  state_code: UT
  state_name: Utena
  latitude: '55.35000000'
  longitude: '26.16667000'
- name: Moletai
  state_code: UT
  state_name: Utena
  latitude: '55.23333000'
  longitude: '25.41667000'
- name: Utena
  state_code: UT
  state_name: Utena
  latitude: '55.49764000'
  longitude: '25.59918000'
- name: Visaginas
  state_code: UT
  state_name: Utena
  latitude: '55.60000000'
  longitude: '26.41667000'
- name: Zarasai
  state_code: UT
  state_name: Utena
  latitude: '55.73333000'
  longitude: '26.25000000'
- name: Aukstadvaris
  state_code: '57'
  state_name: Vilnius
  latitude: '54.57946000'
  longitude: '24.52683000'
- name: Baltoji Vokė
  state_code: '57'
  state_name: Vilnius
  latitude: '54.60002000'
  longitude: '25.19318000'
- name: Eišiškės
  state_code: '57'
  state_name: Vilnius
  latitude: '54.17414000'
  longitude: '24.99917000'
- name: Elektrėnai
  state_code: '57'
  state_name: Vilnius
  latitude: '54.78544000'
  longitude: '24.66302000'
- name: Fabijoniškės
  state_code: '57'
  state_name: Vilnius
  latitude: '54.73333000'
  longitude: '25.24167000'
- name: Grigiškės
  state_code: '57'
  state_name: Vilnius
  latitude: '54.68333000'
  longitude: '25.08333000'
- name: Justiniškės
  state_code: '57'
  state_name: Vilnius
  latitude: '54.71664000'
  longitude: '25.21740000'
- name: Lazdynai
  state_code: '57'
  state_name: Vilnius
  latitude: '54.66815000'
  longitude: '25.20684000'
- name: Lentvaris
  state_code: '57'
  state_name: Vilnius
  latitude: '54.64364000'
  longitude: '25.05162000'
- name: Naujamiestis
  state_code: '57'
  state_name: Vilnius
  latitude: '54.67951000'
  longitude: '25.26855000'
- name: Nemenčinė
  state_code: '57'
  state_name: Vilnius
  latitude: '54.84776000'
  longitude: '25.46992000'
- name: Pabradė
  state_code: '57'
  state_name: Vilnius
  latitude: '54.98100000'
  longitude: '25.76100000'
- name: Pašilaičiai
  state_code: '57'
  state_name: Vilnius
  latitude: '54.73429000'
  longitude: '25.21912000'
- name: Pilaitė
  state_code: '57'
  state_name: Vilnius
  latitude: '54.69981000'
  longitude: '25.18393000'
- name: Rasos
  state_code: '57'
  state_name: Vilnius
  latitude: '54.67877000'
  longitude: '25.31173000'
- name: Rūdiškės
  state_code: '57'
  state_name: Vilnius
  latitude: '54.51609000'
  longitude: '24.83084000'
- name: Šalčininkai
  state_code: '57'
  state_name: Vilnius
  latitude: '54.30000000'
  longitude: '25.38333000'
- name: Senieji Trakai
  state_code: '57'
  state_name: Vilnius
  latitude: '54.60900000'
  longitude: '24.98000000'
- name: Šeškinė
  state_code: '57'
  state_name: Vilnius
  latitude: '54.70972000'
  longitude: '25.25053000'
- name: Sirvintos
  state_code: '57'
  state_name: Vilnius
  latitude: '55.05000000'
  longitude: '24.95000000'
- name: Skaidiškės
  state_code: '57'
  state_name: Vilnius
  latitude: '54.61398000'
  longitude: '25.39573000'
- name: Švenčionėliai
  state_code: '57'
  state_name: Vilnius
  latitude: '55.16163000'
  longitude: '26.00177000'
- name: Svencionys
  state_code: '57'
  state_name: Vilnius
  latitude: '55.15000000'
  longitude: '26.16667000'
- name: Trakai
  state_code: '57'
  state_name: Vilnius
  latitude: '54.63783000'
  longitude: '24.93433000'
- name: Ukmerge
  state_code: '57'
  state_name: Vilnius
  latitude: '55.25000000'
  longitude: '24.75000000'
- name: Vievis
  state_code: '57'
  state_name: Vilnius
  latitude: '54.76667000'
  longitude: '24.80000000'
- name: Vilkpėdė
  state_code: '57'
  state_name: Vilnius
  latitude: '54.66969000'
  longitude: '25.24770000'
- name: Vilnius
  state_code: '57'
  state_name: Vilnius
  latitude: '54.68916000'
  longitude: '25.27980000'
- name: Vilnius District Municipality
  state_code: '57'
  state_name: Vilnius
  latitude: '54.73333000'
  longitude: '25.38333000'
