---
- name: Agadir
  state_code: ASZ
  state_name: Assa-Zag (EH-partial)
  latitude: '30.42018000'
  longitude: "-9.59815000"
- name: Agadir Melloul
  state_code: ASZ
  state_name: Assa-Zag (EH-partial)
  latitude: '30.22492000'
  longitude: "-7.79601000"
- name: Agadir-Ida-ou-Tnan
  state_code: ASZ
  state_name: Assa-Zag (EH-partial)
  latitude: '30.58333000'
  longitude: "-9.50000000"
- name: Aoulouz
  state_code: ASZ
  state_name: Assa-Zag (EH-partial)
  latitude: '30.67307000'
  longitude: "-8.18087000"
- name: Aourir
  state_code: ASZ
  state_name: Assa-Zag (EH-partial)
  latitude: '30.49238000'
  longitude: "-9.63550000"
- name: Arazane
  state_code: ASZ
  state_name: Assa-Zag (EH-partial)
  latitude: '30.50346000'
  longitude: "-8.60637000"
- name: Argana
  state_code: ASZ
  state_name: Assa-Zag (EH-partial)
  latitude: '30.78250000'
  longitude: "-9.11968000"
- name: Bigoudine
  state_code: ASZ
  state_name: Assa-Zag (EH-partial)
  latitude: '30.72376000'
  longitude: "-9.21097000"
- name: Chtouka-Ait-Baha
  state_code: ASZ
  state_name: Assa-Zag (EH-partial)
  latitude: '30.02948000'
  longitude: "-9.30909000"
- name: Inezgane
  state_code: ASZ
  state_name: Assa-Zag (EH-partial)
  latitude: '30.35535000'
  longitude: "-9.53639000"
- name: Inezgane-Ait Melloul
  state_code: ASZ
  state_name: Assa-Zag (EH-partial)
  latitude: '30.10000000'
  longitude: "-9.03333000"
- name: Ouijjane
  state_code: ASZ
  state_name: Assa-Zag (EH-partial)
  latitude: '29.62777000'
  longitude: "-9.53959000"
- name: Oulad Teïma
  state_code: ASZ
  state_name: Assa-Zag (EH-partial)
  latitude: '30.39467000'
  longitude: "-9.20897000"
- name: Reggada
  state_code: ASZ
  state_name: Assa-Zag (EH-partial)
  latitude: '29.58016000'
  longitude: "-9.70086000"
- name: Sidi Ifni
  state_code: ASZ
  state_name: Assa-Zag (EH-partial)
  latitude: '29.37975000'
  longitude: "-10.17299000"
- name: Tadrart
  state_code: ASZ
  state_name: Assa-Zag (EH-partial)
  latitude: '30.77477000'
  longitude: "-9.45951000"
- name: Tafraout
  state_code: ASZ
  state_name: Assa-Zag (EH-partial)
  latitude: '29.72449000'
  longitude: "-8.97470000"
- name: Taghazout
  state_code: ASZ
  state_name: Assa-Zag (EH-partial)
  latitude: '30.54259000'
  longitude: "-9.71115000"
- name: Taliouine
  state_code: ASZ
  state_name: Assa-Zag (EH-partial)
  latitude: '30.52917000'
  longitude: "-7.91262000"
- name: Tamri
  state_code: ASZ
  state_name: Assa-Zag (EH-partial)
  latitude: '30.69602000'
  longitude: "-9.82972000"
- name: Tanalt
  state_code: ASZ
  state_name: Assa-Zag (EH-partial)
  latitude: '29.77548000'
  longitude: "-9.16796000"
- name: Taroudannt
  state_code: ASZ
  state_name: Assa-Zag (EH-partial)
  latitude: '30.50000000'
  longitude: "-8.41667000"
- name: Taroudant
  state_code: ASZ
  state_name: Assa-Zag (EH-partial)
  latitude: '30.47028000'
  longitude: "-8.87695000"
- name: Tarsouat
  state_code: ASZ
  state_name: Assa-Zag (EH-partial)
  latitude: '29.58153000'
  longitude: "-9.02664000"
- name: Tata
  state_code: ASZ
  state_name: Assa-Zag (EH-partial)
  latitude: '29.66667000'
  longitude: "-7.83333000"
- name: Tiznit
  state_code: ASZ
  state_name: Assa-Zag (EH-partial)
  latitude: '29.58333000'
  longitude: "-9.50000000"
- name: Azemmour
  state_code: '06'
  state_name: Casablanca-Settat
  latitude: '33.28952000'
  longitude: "-8.34250000"
- name: Benslimane
  state_code: '06'
  state_name: Casablanca-Settat
  latitude: '33.50000000'
  longitude: "-7.16667000"
- name: Berrechid
  state_code: '06'
  state_name: Casablanca-Settat
  latitude: '33.26553000'
  longitude: "-7.58754000"
- name: Berrechid Province
  state_code: '06'
  state_name: Casablanca-Settat
  latitude: '33.26582000'
  longitude: "-7.58142000"
- name: Boulaouane
  state_code: '06'
  state_name: Casablanca-Settat
  latitude: '32.85995000'
  longitude: "-8.05555000"
- name: Bouskoura
  state_code: '06'
  state_name: Casablanca-Settat
  latitude: '33.44976000'
  longitude: "-7.65239000"
- name: Bouznika
  state_code: '06'
  state_name: Casablanca-Settat
  latitude: '33.78942000'
  longitude: "-7.15968000"
- name: Casablanca
  state_code: '06'
  state_name: Casablanca-Settat
  latitude: '33.58840000'
  longitude: "-7.55785000"
- name: El Jadid
  state_code: '06'
  state_name: Casablanca-Settat
  latitude: '33.25682000'
  longitude: "-8.50882000"
- name: El-Jadida
  state_code: '06'
  state_name: Casablanca-Settat
  latitude: '32.90000000'
  longitude: "-8.50000000"
- name: Mediouna
  state_code: '06'
  state_name: Casablanca-Settat
  latitude: '33.52012000'
  longitude: "-7.50350000"
- name: Mohammedia
  state_code: '06'
  state_name: Casablanca-Settat
  latitude: '33.68607000'
  longitude: "-7.38298000"
- name: Nouaceur
  state_code: '06'
  state_name: Casablanca-Settat
  latitude: '33.45839000'
  longitude: "-7.64726000"
- name: Oualidia
  state_code: '06'
  state_name: Casablanca-Settat
  latitude: '32.73372000'
  longitude: "-9.03059000"
- name: Oulad Frej
  state_code: '06'
  state_name: Casablanca-Settat
  latitude: '32.95956000'
  longitude: "-8.22740000"
- name: Settat
  state_code: '06'
  state_name: Casablanca-Settat
  latitude: '33.00103000'
  longitude: "-7.61662000"
- name: Settat Province
  state_code: '06'
  state_name: Casablanca-Settat
  latitude: '33.08333000'
  longitude: "-7.41667000"
- name: Sidi Bennour
  state_code: '06'
  state_name: Casablanca-Settat
  latitude: '32.64896000'
  longitude: "-8.42686000"
- name: Sidi Smai’il
  state_code: '06'
  state_name: Casablanca-Settat
  latitude: '32.82461000'
  longitude: "-8.51122000"
- name: Tit Mellil
  state_code: '06'
  state_name: Casablanca-Settat
  latitude: '33.55808000'
  longitude: "-7.48647000"
- name: Zawyat an Nwaçer
  state_code: '06'
  state_name: Casablanca-Settat
  latitude: '33.37981000'
  longitude: "-7.61932000"
- name: Agdz
  state_code: '08'
  state_name: Drâa-Tafilalet
  latitude: '30.69356000'
  longitude: "-6.44628000"
- name: Alnif
  state_code: '08'
  state_name: Drâa-Tafilalet
  latitude: '31.11411000'
  longitude: "-5.17154000"
- name: Aoufous
  state_code: '08'
  state_name: Drâa-Tafilalet
  latitude: '31.68000000'
  longitude: "-4.17000000"
- name: Arfoud
  state_code: '08'
  state_name: Drâa-Tafilalet
  latitude: '31.43530000'
  longitude: "-4.23258000"
- name: Errachidia
  state_code: '08'
  state_name: Drâa-Tafilalet
  latitude: '31.75000000'
  longitude: "-4.50000000"
- name: Imilchil
  state_code: '08'
  state_name: Drâa-Tafilalet
  latitude: '32.15309000'
  longitude: "-5.62453000"
- name: Jebel Tiskaouine
  state_code: '08'
  state_name: Drâa-Tafilalet
  latitude: '31.02722000'
  longitude: "-5.11643000"
- name: Jorf
  state_code: '08'
  state_name: Drâa-Tafilalet
  latitude: '31.49442000'
  longitude: "-4.40598000"
- name: Kelaat Mgouna
  state_code: '08'
  state_name: Drâa-Tafilalet
  latitude: '31.24573000'
  longitude: "-6.13260000"
- name: Mhamid
  state_code: '08'
  state_name: Drâa-Tafilalet
  latitude: '29.82000000'
  longitude: "-5.72000000"
- name: Midelt
  state_code: '08'
  state_name: Drâa-Tafilalet
  latitude: '32.68055000'
  longitude: "-4.73691000"
- name: Ouarzazat
  state_code: '08'
  state_name: Drâa-Tafilalet
  latitude: '30.91894000'
  longitude: "-6.89341000"
- name: Ouarzazate
  state_code: '08'
  state_name: Drâa-Tafilalet
  latitude: '30.94130000'
  longitude: "-6.90285000"
- name: Reçani
  state_code: '08'
  state_name: Drâa-Tafilalet
  latitude: '31.28318000'
  longitude: "-4.26565000"
- name: Taznakht
  state_code: '08'
  state_name: Drâa-Tafilalet
  latitude: '30.57836000'
  longitude: "-7.20341000"
- name: Telouet
  state_code: '08'
  state_name: Drâa-Tafilalet
  latitude: '31.28925000'
  longitude: "-7.23789000"
- name: Tinghir
  state_code: '08'
  state_name: Drâa-Tafilalet
  latitude: '31.51472000'
  longitude: "-5.53278000"
- name: Tinghir Province
  state_code: '08'
  state_name: Drâa-Tafilalet
  latitude: '31.51965000'
  longitude: "-5.52999000"
- name: Zagora
  state_code: '08'
  state_name: Drâa-Tafilalet
  latitude: '30.34839000'
  longitude: "-5.83649000"
- name: Aïn Leuh
  state_code: '03'
  state_name: Fès-Meknès
  latitude: '33.28984000'
  longitude: "-5.33863000"
- name: Aknoul
  state_code: '03'
  state_name: Fès-Meknès
  latitude: '34.65371000'
  longitude: "-3.86754000"
- name: Almis Marmoucha
  state_code: '03'
  state_name: Fès-Meknès
  latitude: '33.32000000'
  longitude: "-4.18000000"
- name: Azrou
  state_code: '03'
  state_name: Fès-Meknès
  latitude: '33.43443000'
  longitude: "-5.22126000"
- name: Bhalil
  state_code: '03'
  state_name: Fès-Meknès
  latitude: '33.85194000'
  longitude: "-4.87228000"
- name: Bouarouss
  state_code: '03'
  state_name: Fès-Meknès
  latitude: '34.36000000'
  longitude: "-4.81000000"
- name: Boulemane
  state_code: '03'
  state_name: Fès-Meknès
  latitude: '33.16667000'
  longitude: "-4.00000000"
- name: El Hajeb
  state_code: '03'
  state_name: Fès-Meknès
  latitude: '33.68786000'
  longitude: "-5.37100000"
- name: El-Hajeb
  state_code: '03'
  state_name: Fès-Meknès
  latitude: '33.72883000'
  longitude: "-5.46119000"
- name: Fes
  state_code: '03'
  state_name: Fès-Meknès
  latitude: '34.04000000'
  longitude: "-4.87000000"
- name: Fès al Bali
  state_code: '03'
  state_name: Fès-Meknès
  latitude: '34.07010000'
  longitude: "-4.95473000"
- name: Galaz
  state_code: '03'
  state_name: Fès-Meknès
  latitude: '34.54424000'
  longitude: "-4.80355000"
- name: Ghouazi
  state_code: '03'
  state_name: Fès-Meknès
  latitude: '34.47737000'
  longitude: "-5.30235000"
- name: Guercif
  state_code: '03'
  state_name: Fès-Meknès
  latitude: '34.22568000'
  longitude: "-3.35361000"
- name: Ifrane
  state_code: '03'
  state_name: Fès-Meknès
  latitude: '33.33333000'
  longitude: "-5.25000000"
- name: Meknes
  state_code: '03'
  state_name: Fès-Meknès
  latitude: '33.97761000'
  longitude: "-5.52496000"
- name: Missour
  state_code: '03'
  state_name: Fès-Meknès
  latitude: '33.04893000'
  longitude: "-3.98947000"
- name: Moulay Bouchta
  state_code: '03'
  state_name: Fès-Meknès
  latitude: '34.48922000'
  longitude: "-5.13023000"
- name: Moulay-Yacoub
  state_code: '03'
  state_name: Fès-Meknès
  latitude: '34.14558000'
  longitude: "-5.10259000"
- name: Oued Amlil
  state_code: '03'
  state_name: Fès-Meknès
  latitude: '34.20000000'
  longitude: "-4.28000000"
- name: Oulad Tayeb
  state_code: '03'
  state_name: Fès-Meknès
  latitude: '33.94633000'
  longitude: "-4.99509000"
- name: Ourtzagh
  state_code: '03'
  state_name: Fès-Meknès
  latitude: '34.53477000'
  longitude: "-4.96878000"
- name: Sefrou
  state_code: '03'
  state_name: Fès-Meknès
  latitude: '33.79979000'
  longitude: "-4.68000000"
- name: Tahla
  state_code: '03'
  state_name: Fès-Meknès
  latitude: '34.04965000'
  longitude: "-4.42162000"
- name: Talzemt
  state_code: '03'
  state_name: Fès-Meknès
  latitude: '33.59000000'
  longitude: "-4.19000000"
- name: Taounate
  state_code: '03'
  state_name: Fès-Meknès
  latitude: '34.50000000'
  longitude: "-4.83333000"
- name: Taza
  state_code: '03'
  state_name: Fès-Meknès
  latitude: '34.25000000'
  longitude: "-3.75000000"
- name: Tmourghout
  state_code: '03'
  state_name: Fès-Meknès
  latitude: '33.90650000'
  longitude: "-4.02696000"
- name: Assa-Zag
  state_code: '10'
  state_name: Guelmim-Oued Noun (EH-partial)
  latitude: '28.16667000'
  longitude: "-9.41667000"
- name: Guelmim
  state_code: '10'
  state_name: Guelmim-Oued Noun (EH-partial)
  latitude: '28.75000000'
  longitude: "-10.00000000"
- name: Sidi Ifni
  state_code: '10'
  state_name: Guelmim-Oued Noun (EH-partial)
  latitude: '29.37719000'
  longitude: "-10.17111000"
- name: Tan-Tan
  state_code: '10'
  state_name: Guelmim-Oued Noun (EH-partial)
  latitude: '28.08333000'
  longitude: "-11.08333000"
- name: Arbaoua
  state_code: KEN
  state_name: Kénitra
  latitude: '34.90239000'
  longitude: "-5.94871000"
- name: Had Kourt
  state_code: KEN
  state_name: Kénitra
  latitude: '34.61588000'
  longitude: "-5.74040000"
- name: Kenitra
  state_code: KEN
  state_name: Kénitra
  latitude: '34.26101000'
  longitude: "-6.58020000"
- name: Kenitra Province
  state_code: KEN
  state_name: Kénitra
  latitude: '34.58333000'
  longitude: "-6.33333000"
- name: Khemisset
  state_code: KEN
  state_name: Kénitra
  latitude: '33.66667000'
  longitude: "-6.25000000"
- name: Mechraa Bel Ksiri
  state_code: KEN
  state_name: Kénitra
  latitude: '34.57373000'
  longitude: "-5.95585000"
- name: Oulmes
  state_code: KEN
  state_name: Kénitra
  latitude: '33.42585000'
  longitude: "-6.00137000"
- name: Rabat
  state_code: KEN
  state_name: Kénitra
  latitude: '34.01325000'
  longitude: "-6.83255000"
- name: Sale
  state_code: KEN
  state_name: Kénitra
  latitude: '34.05310000'
  longitude: "-6.79846000"
- name: Sidi Bousber
  state_code: KEN
  state_name: Kénitra
  latitude: '34.56283000'
  longitude: "-5.36208000"
- name: Sidi Qacem
  state_code: KEN
  state_name: Kénitra
  latitude: '34.22149000'
  longitude: "-5.70775000"
- name: Sidi Redouane
  state_code: KEN
  state_name: Kénitra
  latitude: '34.68692000'
  longitude: "-5.44538000"
- name: Sidi Slimane
  state_code: KEN
  state_name: Kénitra
  latitude: '34.26479000'
  longitude: "-5.92598000"
- name: Sidi Yahia El Gharb
  state_code: KEN
  state_name: Kénitra
  latitude: '34.30494000'
  longitude: "-6.30404000"
- name: Sidi-Kacem
  state_code: KEN
  state_name: Kénitra
  latitude: '34.58333000'
  longitude: "-5.75000000"
- name: Skhirate
  state_code: KEN
  state_name: Kénitra
  latitude: '33.85270000'
  longitude: "-7.03171000"
- name: Skhirate-Temara
  state_code: KEN
  state_name: Kénitra
  latitude: '33.77000000'
  longitude: "-6.87000000"
- name: Souq Larb’a al Gharb
  state_code: KEN
  state_name: Kénitra
  latitude: '34.68664000'
  longitude: "-6.00272000"
- name: Temara
  state_code: KEN
  state_name: Kénitra
  latitude: '33.92866000'
  longitude: "-6.90656000"
- name: Teroual
  state_code: KEN
  state_name: Kénitra
  latitude: '34.67452000'
  longitude: "-5.27331000"
- name: Tiflet
  state_code: KEN
  state_name: Kénitra
  latitude: '33.89469000'
  longitude: "-6.30649000"
- name: Aguelmous
  state_code: KHN
  state_name: Khénifra
  latitude: '33.16139000'
  longitude: "-5.84626000"
- name: Al Fqih Ben Çalah
  state_code: KHN
  state_name: Khénifra
  latitude: '32.50213000'
  longitude: "-6.68771000"
- name: Azilal
  state_code: KHN
  state_name: Khénifra
  latitude: '31.96156000'
  longitude: "-6.57109000"
- name: Azilal Province
  state_code: KHN
  state_name: Khénifra
  latitude: '31.91667000'
  longitude: "-6.50000000"
- name: Beni Mellal
  state_code: KHN
  state_name: Khénifra
  latitude: '32.33725000'
  longitude: "-6.34983000"
- name: Beni-Mellal
  state_code: KHN
  state_name: Khénifra
  latitude: '32.50000000'
  longitude: "-6.33333000"
- name: Boujniba
  state_code: KHN
  state_name: Khénifra
  latitude: '32.90046000'
  longitude: "-6.77464000"
- name: Bzou
  state_code: KHN
  state_name: Khénifra
  latitude: '32.09171000'
  longitude: "-7.04786000"
- name: Dar Ould Zidouh
  state_code: KHN
  state_name: Khénifra
  latitude: '32.31247000'
  longitude: "-6.90494000"
- name: Demnate
  state_code: KHN
  state_name: Khénifra
  latitude: '31.73443000'
  longitude: "-7.00505000"
- name: El Ksiba
  state_code: KHN
  state_name: Khénifra
  latitude: '32.57286000'
  longitude: "-6.01947000"
- name: Fquih Ben Salah Province
  state_code: KHN
  state_name: Khénifra
  latitude: '32.50108000'
  longitude: "-6.68415000"
- name: Ifrane
  state_code: KHN
  state_name: Khénifra
  latitude: '31.70217000'
  longitude: "-6.34940000"
- name: Isseksi
  state_code: KHN
  state_name: Khénifra
  latitude: '32.22981000'
  longitude: "-6.27661000"
- name: Itzer
  state_code: KHN
  state_name: Khénifra
  latitude: '32.87830000'
  longitude: "-5.05150000"
- name: Kasba Tadla
  state_code: KHN
  state_name: Khénifra
  latitude: '32.59770000'
  longitude: "-6.26844000"
- name: Kerrouchen
  state_code: KHN
  state_name: Khénifra
  latitude: '32.79639000'
  longitude: "-5.31880000"
- name: Khenifra
  state_code: KHN
  state_name: Khénifra
  latitude: '32.93333000'
  longitude: "-5.66667000"
- name: Khouribga
  state_code: KHN
  state_name: Khénifra
  latitude: '32.88108000'
  longitude: "-6.90630000"
- name: Khouribga Province
  state_code: KHN
  state_name: Khénifra
  latitude: '32.93333000'
  longitude: "-6.60000000"
- name: Midelt
  state_code: KHN
  state_name: Khénifra
  latitude: '32.68520000'
  longitude: "-4.74512000"
- name: Ouaoula
  state_code: KHN
  state_name: Khénifra
  latitude: '31.87000000'
  longitude: "-6.75000000"
- name: Oued Zem
  state_code: KHN
  state_name: Khénifra
  latitude: '32.86270000'
  longitude: "-6.57359000"
- name: Sidi Jaber
  state_code: KHN
  state_name: Khénifra
  latitude: '32.38952000'
  longitude: "-6.42095000"
- name: Timoulilt
  state_code: KHN
  state_name: Khénifra
  latitude: '32.20368000'
  longitude: "-6.46660000"
- name: Zawyat ech Cheïkh
  state_code: KHN
  state_name: Khénifra
  latitude: '32.64445000'
  longitude: "-5.91826000"
- name: Ahfir
  state_code: '02'
  state_name: L'Oriental
  latitude: '34.95368000'
  longitude: "-2.10027000"
- name: Aïn Beni Mathar
  state_code: '02'
  state_name: L'Oriental
  latitude: '34.00970000'
  longitude: "-2.03238000"
- name: Al Aaroui
  state_code: '02'
  state_name: L'Oriental
  latitude: '35.01090000'
  longitude: "-3.00938000"
- name: Berkane
  state_code: '02'
  state_name: L'Oriental
  latitude: '34.61000000'
  longitude: "-2.57000000"
- name: Bouarfa
  state_code: '02'
  state_name: L'Oriental
  latitude: '32.53379000'
  longitude: "-1.96209000"
- name: Debdou
  state_code: '02'
  state_name: L'Oriental
  latitude: '33.98228000'
  longitude: "-3.04263000"
- name: Driouch Province
  state_code: '02'
  state_name: L'Oriental
  latitude: '34.97670000'
  longitude: "-3.38842000"
- name: El Aïoun
  state_code: '02'
  state_name: L'Oriental
  latitude: '34.58319000'
  longitude: "-2.50612000"
- name: Figuig
  state_code: '02'
  state_name: L'Oriental
  latitude: '32.83333000'
  longitude: "-2.25000000"
- name: Guercif Province
  state_code: '02'
  state_name: L'Oriental
  latitude: '34.25041000'
  longitude: "-3.32542000"
- name: Jerada
  state_code: '02'
  state_name: L'Oriental
  latitude: '34.23662000'
  longitude: "-2.04284000"
- name: Madagh
  state_code: '02'
  state_name: L'Oriental
  latitude: '35.01032000'
  longitude: "-2.33701000"
- name: Midar
  state_code: '02'
  state_name: L'Oriental
  latitude: '34.94025000'
  longitude: "-3.53311000"
- name: Nador
  state_code: '02'
  state_name: L'Oriental
  latitude: '35.00000000'
  longitude: "-3.00000000"
- name: Oujda-Angad
  state_code: '02'
  state_name: L'Oriental
  latitude: '34.23600000'
  longitude: "-2.29400000"
- name: Saidia
  state_code: '02'
  state_name: L'Oriental
  latitude: '35.08195000'
  longitude: "-2.22897000"
- name: Selouane
  state_code: '02'
  state_name: L'Oriental
  latitude: '35.07313000'
  longitude: "-2.94230000"
- name: Taourirt
  state_code: '02'
  state_name: L'Oriental
  latitude: '34.40731000'
  longitude: "-2.89732000"
- name: Tiztoutine
  state_code: '02'
  state_name: L'Oriental
  latitude: '34.97159000'
  longitude: "-3.15273000"
- name: Zaïo
  state_code: '02'
  state_name: L'Oriental
  latitude: '34.94282000'
  longitude: "-2.73290000"
- name: Akhfennir
  state_code: '11'
  state_name: Laâyoune-Sakia El Hamra (EH-partial)
  latitude: '28.09455000'
  longitude: "-12.05157000"
- name: Boujdour
  state_code: '11'
  state_name: Laâyoune-Sakia El Hamra (EH-partial)
  latitude: '25.66172000'
  longitude: "-13.68419000"
- name: Es-Semara
  state_code: '11'
  state_name: Laâyoune-Sakia El Hamra (EH-partial)
  latitude: '27.75000000'
  longitude: "-11.00000000"
- name: Gueltat Zemmour
  state_code: '11'
  state_name: Laâyoune-Sakia El Hamra (EH-partial)
  latitude: '25.14276000'
  longitude: "-12.37168000"
- name: Laayoune
  state_code: '11'
  state_name: Laâyoune-Sakia El Hamra (EH-partial)
  latitude: '27.83333000'
  longitude: "-12.33333000"
- name: Smara
  state_code: '11'
  state_name: Laâyoune-Sakia El Hamra (EH-partial)
  latitude: '26.73841000'
  longitude: "-11.67194000"
- name: Tarfaya
  state_code: '11'
  state_name: Laâyoune-Sakia El Hamra (EH-partial)
  latitude: '27.93901000'
  longitude: "-12.92082000"
- name: Aousserd
  state_code: OUD
  state_name: Oued Ed-Dahab (EH)
  latitude: '21.91977000'
  longitude: "-15.02068000"
- name: Imlili
  state_code: OUD
  state_name: Oued Ed-Dahab (EH)
  latitude: '22.65580000'
  longitude: "-15.60719000"
- name: Oued-Ed-Dahab
  state_code: OUD
  state_name: Oued Ed-Dahab (EH)
  latitude: '23.64201000'
  longitude: "-14.44934000"
- name: Abadou
  state_code: SAF
  state_name: Safi
  latitude: '31.57917000'
  longitude: "-7.31308000"
- name: Adassil
  state_code: SAF
  state_name: Safi
  latitude: '31.10783000'
  longitude: "-8.49083000"
- name: Al-Haouz
  state_code: SAF
  state_name: Safi
  latitude: '31.34083000'
  longitude: "-7.91076000"
- name: Bouabout
  state_code: SAF
  state_name: Safi
  latitude: '31.26554000'
  longitude: "-9.17865000"
- name: Chichaoua
  state_code: SAF
  state_name: Safi
  latitude: '31.26365000'
  longitude: "-8.84411000"
- name: Essaouira
  state_code: SAF
  state_name: Safi
  latitude: '31.50675000'
  longitude: "-9.75655000"
- name: Kelaa-Des-Sraghna
  state_code: SAF
  state_name: Safi
  latitude: '32.16667000'
  longitude: "-7.75000000"
- name: Marrakech
  state_code: SAF
  state_name: Safi
  latitude: '31.63623000'
  longitude: "-8.01041000"
- name: Marrakesh
  state_code: SAF
  state_name: Safi
  latitude: '31.63416000'
  longitude: "-7.99994000"
- name: Oukaïmedene
  state_code: SAF
  state_name: Safi
  latitude: '31.20603000'
  longitude: "-7.86089000"
- name: Rehamna
  state_code: SAF
  state_name: Safi
  latitude: '32.24581000'
  longitude: "-7.93144000"
- name: Safi
  state_code: SAF
  state_name: Safi
  latitude: '32.16667000'
  longitude: "-8.83333000"
- name: Setti Fatma
  state_code: SAF
  state_name: Safi
  latitude: '31.22508000'
  longitude: "-7.67751000"
- name: Sidi Rahhal
  state_code: SAF
  state_name: Safi
  latitude: '31.65031000'
  longitude: "-7.47288000"
- name: Smimou
  state_code: SAF
  state_name: Safi
  latitude: '31.21014000'
  longitude: "-9.70863000"
- name: Tamanar
  state_code: SAF
  state_name: Safi
  latitude: '31.00087000'
  longitude: "-9.67802000"
- name: Taouloukoult
  state_code: SAF
  state_name: Safi
  latitude: '31.22218000'
  longitude: "-9.07943000"
- name: Tidili Mesfioua
  state_code: SAF
  state_name: Safi
  latitude: '31.46586000'
  longitude: "-7.61199000"
- name: Timezgadiouine
  state_code: SAF
  state_name: Safi
  latitude: '30.88366000'
  longitude: "-9.04548000"
- name: Youssoufia
  state_code: SAF
  state_name: Safi
  latitude: '32.24634000'
  longitude: "-8.52941000"
- name: Zerkten
  state_code: SAF
  state_name: Safi
  latitude: '31.44470000'
  longitude: "-7.39224000"
- name: Al Hoceïma
  state_code: '01'
  state_name: Tanger-Tétouan-Al Hoceïma
  latitude: '35.25165000'
  longitude: "-3.93723000"
- name: Al-Hoceima
  state_code: '01'
  state_name: Tanger-Tétouan-Al Hoceïma
  latitude: '35.00000000'
  longitude: "-4.25000000"
- name: Asilah
  state_code: '01'
  state_name: Tanger-Tétouan-Al Hoceïma
  latitude: '35.46522000'
  longitude: "-6.03415000"
- name: Bni Bouayach
  state_code: '01'
  state_name: Tanger-Tétouan-Al Hoceïma
  latitude: '35.10506000'
  longitude: "-3.84028000"
- name: Brikcha
  state_code: '01'
  state_name: Tanger-Tétouan-Al Hoceïma
  latitude: '34.96732000'
  longitude: "-5.57295000"
- name: Cap Negro II
  state_code: '01'
  state_name: Tanger-Tétouan-Al Hoceïma
  latitude: '35.65970000'
  longitude: "-5.28525000"
- name: Chefchaouen Province
  state_code: '01'
  state_name: Tanger-Tétouan-Al Hoceïma
  latitude: '35.00000000'
  longitude: "-5.08333000"
- name: Chefchaouene
  state_code: '01'
  state_name: Tanger-Tétouan-Al Hoceïma
  latitude: '35.16878000'
  longitude: "-5.26360000"
- name: Derdara
  state_code: '01'
  state_name: Tanger-Tétouan-Al Hoceïma
  latitude: '35.11041000'
  longitude: "-5.29015000"
- name: Fahs-Anjra
  state_code: '01'
  state_name: Tanger-Tétouan-Al Hoceïma
  latitude: '35.74000000'
  longitude: "-5.68000000"
- name: Fnidek
  state_code: '01'
  state_name: Tanger-Tétouan-Al Hoceïma
  latitude: '35.84906000'
  longitude: "-5.35747000"
- name: Imzouren
  state_code: '01'
  state_name: Tanger-Tétouan-Al Hoceïma
  latitude: '35.14637000'
  longitude: "-3.85063000"
- name: Ksar El Kebir
  state_code: '01'
  state_name: Tanger-Tétouan-Al Hoceïma
  latitude: '35.00044000'
  longitude: "-5.90378000"
- name: Larache
  state_code: '01'
  state_name: Tanger-Tétouan-Al Hoceïma
  latitude: '35.16667000'
  longitude: "-5.83333000"
- name: M'Diq-Fnideq
  state_code: '01'
  state_name: Tanger-Tétouan-Al Hoceïma
  latitude: '35.85743000'
  longitude: "-5.35858000"
- name: Martil
  state_code: '01'
  state_name: Tanger-Tétouan-Al Hoceïma
  latitude: '35.61662000'
  longitude: "-5.27522000"
- name: Oued Laou
  state_code: '01'
  state_name: Tanger-Tétouan-Al Hoceïma
  latitude: '35.44840000'
  longitude: "-5.09627000"
- name: Ouezzane
  state_code: '01'
  state_name: Tanger-Tétouan-Al Hoceïma
  latitude: '34.79584000'
  longitude: "-5.57849000"
- name: Ouezzane Province
  state_code: '01'
  state_name: Tanger-Tétouan-Al Hoceïma
  latitude: '34.79759000'
  longitude: "-5.58603000"
- name: Senada
  state_code: '01'
  state_name: Tanger-Tétouan-Al Hoceïma
  latitude: '35.07452000'
  longitude: "-4.21583000"
- name: Tamorot
  state_code: '01'
  state_name: Tanger-Tétouan-Al Hoceïma
  latitude: '34.93632000'
  longitude: "-4.77940000"
- name: Tanger-Assilah
  state_code: '01'
  state_name: Tanger-Tétouan-Al Hoceïma
  latitude: '35.59000000'
  longitude: "-5.90000000"
- name: Tangier
  state_code: '01'
  state_name: Tanger-Tétouan-Al Hoceïma
  latitude: '35.76727000'
  longitude: "-5.79975000"
- name: Targuist
  state_code: '01'
  state_name: Tanger-Tétouan-Al Hoceïma
  latitude: '34.93769000'
  longitude: "-4.31856000"
- name: Tetouan
  state_code: '01'
  state_name: Tanger-Tétouan-Al Hoceïma
  latitude: '35.58333000'
  longitude: "-5.50000000"
- name: Tirhanimîne
  state_code: '01'
  state_name: Tanger-Tétouan-Al Hoceïma
  latitude: '35.23619000'
  longitude: "-3.95453000"
- name: Zinat
  state_code: '01'
  state_name: Tanger-Tétouan-Al Hoceïma
  latitude: '35.43000000'
  longitude: "-5.40000000"
- name: Zoumi
  state_code: '01'
  state_name: Tanger-Tétouan-Al Hoceïma
  latitude: '34.80321000'
  longitude: "-5.34458000"
