---
- name: Andrijevica
  state_code: '01'
  state_name: Andrijevica
  latitude: '42.73389000'
  longitude: '19.79194000'
- name: Bar
  state_code: '02'
  state_name: Bar
  latitude: '42.09306000'
  longitude: '19.10028000'
- name: Stari Bar
  state_code: '02'
  state_name: Bar
  latitude: '42.09700000'
  longitude: '19.13600000'
- name: Šušanj
  state_code: '02'
  state_name: Bar
  latitude: '42.11556000'
  longitude: '19.08833000'
- name: Sutomore
  state_code: '02'
  state_name: Bar
  latitude: '42.14278000'
  longitude: '19.04667000'
- name: Berane
  state_code: '03'
  state_name: Berane
  latitude: '42.84250000'
  longitude: '19.87333000'
- name: Bijelo Polje
  state_code: '04'
  state_name: Bijelo Polje
  latitude: '43.03834000'
  longitude: '19.74758000'
- name: Budva
  state_code: '05'
  state_name: Budva
  latitude: '42.28639000'
  longitude: '18.84000000'
- name: Petrovac na Moru
  state_code: '05'
  state_name: Budva
  latitude: '42.20556000'
  longitude: '18.94250000'
- name: Danilovgrad
  state_code: '07'
  state_name: Danilovgrad
  latitude: '42.55384000'
  longitude: '19.14608000'
- name: Spuž
  state_code: '07'
  state_name: Danilovgrad
  latitude: '42.51500000'
  longitude: '19.19500000'
- name: Gusinje
  state_code: '22'
  state_name: Gusinje
  latitude: '42.56194000'
  longitude: '19.83389000'
- name: Kolašin
  state_code: '09'
  state_name: Kolašin
  latitude: '42.82229000'
  longitude: '19.51653000'
- name: Dobrota
  state_code: '10'
  state_name: Kotor
  latitude: '42.45417000'
  longitude: '18.76833000'
- name: Kotor
  state_code: '10'
  state_name: Kotor
  latitude: '42.42067000'
  longitude: '18.76825000'
- name: Prčanj
  state_code: '10'
  state_name: Kotor
  latitude: '42.45750000'
  longitude: '18.74222000'
- name: Risan
  state_code: '10'
  state_name: Kotor
  latitude: '42.51500000'
  longitude: '18.69556000'
- name: Mojkovac
  state_code: '11'
  state_name: Mojkovac
  latitude: '42.96044000'
  longitude: '19.58330000'
- name: Nikšić
  state_code: '12'
  state_name: Nikšić
  latitude: '42.77310000'
  longitude: '18.94446000'
- name: Cetinje
  state_code: '06'
  state_name: Old Royal Capital Cetinje
  latitude: '42.39063000'
  longitude: '18.91417000'
- name: Plav
  state_code: '13'
  state_name: Plav
  latitude: '42.59694000'
  longitude: '19.94556000'
- name: Pljevlja
  state_code: '14'
  state_name: Pljevlja
  latitude: '43.35670000'
  longitude: '19.35843000'
- name: Plužine
  state_code: '15'
  state_name: Plužine
  latitude: '43.15278000'
  longitude: '18.83944000'
- name: Golubovci
  state_code: '16'
  state_name: Podgorica
  latitude: '42.33500000'
  longitude: '19.23111000'
- name: Goričani
  state_code: '16'
  state_name: Podgorica
  latitude: '42.33222000'
  longitude: '19.21194000'
- name: Mataguži
  state_code: '16'
  state_name: Podgorica
  latitude: '42.32361000'
  longitude: '19.27278000'
- name: Mojanovići
  state_code: '16'
  state_name: Podgorica
  latitude: '42.34167000'
  longitude: '19.22139000'
- name: Podgorica
  state_code: '16'
  state_name: Podgorica
  latitude: '42.44111000'
  longitude: '19.26361000'
- name: Tuzi
  state_code: '16'
  state_name: Podgorica
  latitude: '42.36556000'
  longitude: '19.33139000'
- name: Rožaje
  state_code: '17'
  state_name: Rožaje
  latitude: '42.83299000'
  longitude: '20.16652000'
- name: Šavnik
  state_code: '18'
  state_name: Šavnik
  latitude: '42.95639000'
  longitude: '19.09667000'
- name: Tivat
  state_code: '19'
  state_name: Tivat
  latitude: '42.43639000'
  longitude: '18.69611000'
- name: Ulcinj
  state_code: '20'
  state_name: Ulcinj
  latitude: '41.92936000'
  longitude: '19.22436000'
- name: Žabljak
  state_code: '21'
  state_name: Žabljak
  latitude: '43.15423000'
  longitude: '19.12325000'
