---
- name: Арачиново
  state_code: '02'
  state_name: Aračinovo
  latitude: '42.02639000'
  longitude: '21.56194000'
- name: Berovo
  state_code: '03'
  state_name: Berovo
  latitude: '41.70306000'
  longitude: '22.85778000'
- name: Rusinovo
  state_code: '03'
  state_name: Berovo
  latitude: '41.68728000'
  longitude: '22.80849000'
- name: Vladimirovo
  state_code: '03'
  state_name: Berovo
  latitude: '41.71000000'
  longitude: '22.79278000'
- name: Bistrica
  state_code: '04'
  state_name: Bitola
  latitude: '40.97892000'
  longitude: '21.36580000'
- name: Bitola
  state_code: '04'
  state_name: Bitola
  latitude: '41.03143000'
  longitude: '21.33474000'
- name: Capari
  state_code: '04'
  state_name: Bitola
  latitude: '41.05656000'
  longitude: '21.17884000'
- name: Dolno Orizari
  state_code: '04'
  state_name: Bitola
  latitude: '41.05028000'
  longitude: '21.37944000'
- name: Gorno Orizari
  state_code: '04'
  state_name: Bitola
  latitude: '41.05188000'
  longitude: '21.34548000'
- name: Kukurečani
  state_code: '04'
  state_name: Bitola
  latitude: '41.09562000'
  longitude: '21.32454000'
- name: Logovardi
  state_code: '04'
  state_name: Bitola
  latitude: '41.03096000'
  longitude: '21.40967000'
- name: Bogdanci
  state_code: '05'
  state_name: Bogdanci
  latitude: '41.20306000'
  longitude: '22.57556000'
- name: Stojakovo
  state_code: '05'
  state_name: Bogdanci
  latitude: '41.15556000'
  longitude: '22.57750000'
- name: Bogovinje
  state_code: '06'
  state_name: Bogovinje
  latitude: '41.92361000'
  longitude: '20.91361000'
- name: Dolno Palčište
  state_code: '06'
  state_name: Bogovinje
  latitude: '41.96859000'
  longitude: '20.92899000'
- name: Gradec
  state_code: '06'
  state_name: Bogovinje
  latitude: '41.89611000'
  longitude: '20.90417000'
- name: Kamenjane
  state_code: '06'
  state_name: Bogovinje
  latitude: '41.94568000'
  longitude: '20.92894000'
- name: Bosilovo
  state_code: '07'
  state_name: Bosilovo
  latitude: '41.44056000'
  longitude: '22.72778000'
- name: Ilovica
  state_code: '07'
  state_name: Bosilovo
  latitude: '41.47224000'
  longitude: '22.80480000'
- name: Sekirnik
  state_code: '07'
  state_name: Bosilovo
  latitude: '41.43999000'
  longitude: '22.79536000'
- name: Brvenica
  state_code: '08'
  state_name: Brvenica
  latitude: '41.96722000'
  longitude: '20.98083000'
- name: Čelopek
  state_code: '08'
  state_name: Brvenica
  latitude: '41.93167000'
  longitude: '21.01333000'
- name: Gurgurnica
  state_code: '08'
  state_name: Brvenica
  latitude: '41.84508000'
  longitude: '21.10538000'
- name: Miletino
  state_code: '08'
  state_name: Brvenica
  latitude: '41.90753000'
  longitude: '21.01601000'
- name: Butel
  state_code: '09'
  state_name: Butel
  latitude: '42.03083000'
  longitude: '21.44667000'
- name: Radishani
  state_code: '09'
  state_name: Butel
  latitude: '42.06111000'
  longitude: '21.44778000'
- name: Čair
  state_code: '79'
  state_name: Čair
  latitude: '42.01528000'
  longitude: '21.44111000'
- name: Bogomila
  state_code: '80'
  state_name: Čaška
  latitude: '41.59306000'
  longitude: '21.47167000'
- name: Čaška
  state_code: '80'
  state_name: Čaška
  latitude: '41.65056000'
  longitude: '21.66222000'
- name: Centar Župa
  state_code: '78'
  state_name: Centar Župa
  latitude: '41.47849000'
  longitude: '20.55945000'
- name: Češinovo
  state_code: '81'
  state_name: Češinovo-Obleševo
  latitude: '41.87148000'
  longitude: '22.28961000'
- name: Oblesevo
  state_code: '81'
  state_name: Češinovo-Obleševo
  latitude: '41.88333000'
  longitude: '22.33389000'
- name: Чучер - Сандево
  state_code: '82'
  state_name: Čučer-Sandevo
  latitude: '42.10361000'
  longitude: '21.38222000'
- name: Belčišta
  state_code: '22'
  state_name: Debarca
  latitude: '41.30278000'
  longitude: '20.83028000'
- name: Mešeišta
  state_code: '22'
  state_name: Debarca
  latitude: '41.23814000'
  longitude: '20.77414000'
- name: Delcevo
  state_code: '23'
  state_name: Delčevo
  latitude: '41.96722000'
  longitude: '22.76944000'
- name: Demir Hisar
  state_code: '25'
  state_name: Demir Hisar
  latitude: '41.22097000'
  longitude: '21.20302000'
- name: Slepče
  state_code: '25'
  state_name: Demir Hisar
  latitude: '41.23333000'
  longitude: '21.17500000'
- name: Sopotnica
  state_code: '25'
  state_name: Demir Hisar
  latitude: '41.29594000'
  longitude: '21.15357000'
- name: Demir Kapija
  state_code: '24'
  state_name: Demir Kapija
  latitude: '41.40613000'
  longitude: '22.24631000'
- name: Star Dojran
  state_code: '26'
  state_name: Dojran
  latitude: '41.18647000'
  longitude: '22.72030000'
- name: Crnilište
  state_code: '27'
  state_name: Dolneni
  latitude: '41.53025000'
  longitude: '21.41416000'
- name: Desovo
  state_code: '27'
  state_name: Dolneni
  latitude: '41.46278000'
  longitude: '21.49111000'
- name: Dolneni
  state_code: '27'
  state_name: Dolneni
  latitude: '41.42579000'
  longitude: '21.45402000'
- name: Lažani
  state_code: '27'
  state_name: Dolneni
  latitude: '41.44222000'
  longitude: '21.31583000'
- name: Žitoše
  state_code: '27'
  state_name: Dolneni
  latitude: '41.41991000'
  longitude: '21.29078000'
- name: Cresevo
  state_code: '17'
  state_name: Gazi Baba
  latitude: '42.05083000'
  longitude: '21.50972000'
- name: Gevgelija
  state_code: '18'
  state_name: Gevgelija
  latitude: '41.14166000'
  longitude: '22.50141000'
- name: Miravci
  state_code: '18'
  state_name: Gevgelija
  latitude: '41.30925000'
  longitude: '22.43641000'
- name: Gjorče Petro
  state_code: '29'
  state_name: Gjorče Petrov
  latitude: '42.00778000'
  longitude: '21.35306000'
- name: Cegrane
  state_code: '19'
  state_name: Gostivar
  latitude: '41.83889000'
  longitude: '20.97583000'
- name: Dolna Banjica
  state_code: '19'
  state_name: Gostivar
  latitude: '41.78611000'
  longitude: '20.90611000'
- name: Forino
  state_code: '19'
  state_name: Gostivar
  latitude: '41.82334000'
  longitude: '20.96174000'
- name: Gostivar
  state_code: '19'
  state_name: Gostivar
  latitude: '41.79601000'
  longitude: '20.90819000'
- name: Srbinovo
  state_code: '19'
  state_name: Gostivar
  latitude: '41.70586000'
  longitude: '20.95859000'
- name: Vrutok
  state_code: '19'
  state_name: Gostivar
  latitude: '41.76861000'
  longitude: '20.83917000'
- name: Gradsko
  state_code: '20'
  state_name: Gradsko
  latitude: '41.57750000'
  longitude: '21.94278000'
- name: Bojane
  state_code: '85'
  state_name: Greater Skopje
  latitude: '42.00009000'
  longitude: '21.19265000'
- name: Dračevo
  state_code: '85'
  state_name: Greater Skopje
  latitude: '41.93667000'
  longitude: '21.52167000'
- name: Ljubin
  state_code: '85'
  state_name: Greater Skopje
  latitude: '42.00139000'
  longitude: '21.30917000'
- name: Saraj
  state_code: '85'
  state_name: Greater Skopje
  latitude: '42.00000000'
  longitude: '21.32778000'
- name: Usje
  state_code: '85'
  state_name: Greater Skopje
  latitude: '41.95871000'
  longitude: '21.45835000'
- name: Ilinden
  state_code: '34'
  state_name: Ilinden
  latitude: '41.99451000'
  longitude: '21.58002000'
- name: Kadino
  state_code: '34'
  state_name: Ilinden
  latitude: '41.96889000'
  longitude: '21.60139000'
- name: Marino
  state_code: '34'
  state_name: Ilinden
  latitude: '41.98776000'
  longitude: '21.59148000'
- name: Miladinovci
  state_code: '34'
  state_name: Ilinden
  latitude: '41.98029000'
  longitude: '21.64982000'
- name: Идризово
  state_code: '34'
  state_name: Ilinden
  latitude: '41.96083000'
  longitude: '21.57556000'
- name: Јурумлери
  state_code: '34'
  state_name: Ilinden
  latitude: '41.96722000'
  longitude: '21.55694000'
- name: Jegunovce
  state_code: '35'
  state_name: Jegunovce
  latitude: '42.07238000'
  longitude: '21.12367000'
- name: Vratnica
  state_code: '35'
  state_name: Jegunovce
  latitude: '42.14333000'
  longitude: '21.11694000'
- name: Karbinci
  state_code: '37'
  state_name: Karbinci
  latitude: '41.81758000'
  longitude: '22.23529000'
- name: Skopje
  state_code: '38'
  state_name: Karpoš
  latitude: '41.99646000'
  longitude: '21.43141000'
- name: Kavadarci
  state_code: '36'
  state_name: Kavadarci
  latitude: '41.43306000'
  longitude: '22.01194000'
- name: Vataša
  state_code: '36'
  state_name: Kavadarci
  latitude: '41.41694000'
  longitude: '22.01889000'
- name: Drugovo
  state_code: '40'
  state_name: Kičevo
  latitude: '41.48490000'
  longitude: '20.92636000'
- name: Kičevo
  state_code: '40'
  state_name: Kičevo
  latitude: '41.51267000'
  longitude: '20.95886000'
- name: Srbica
  state_code: '40'
  state_name: Kičevo
  latitude: '41.58672000'
  longitude: '21.03027000'
- name: Strelci
  state_code: '40'
  state_name: Kičevo
  latitude: '41.54046000'
  longitude: '21.00563000'
- name: Tuin
  state_code: '40'
  state_name: Kičevo
  latitude: '41.61944000'
  longitude: '21.04528000'
- name: Vraneštica
  state_code: '40'
  state_name: Kičevo
  latitude: '41.44496000'
  longitude: '21.02683000'
- name: Zajas
  state_code: '40'
  state_name: Kičevo
  latitude: '41.60722000'
  longitude: '20.93833000'
- name: Kisela Voda
  state_code: '39'
  state_name: Kisela Voda
  latitude: '41.94889000'
  longitude: '21.50278000'
- name: Kochani
  state_code: '42'
  state_name: Kočani
  latitude: '41.91639000'
  longitude: '22.41278000'
- name: Orizari
  state_code: '42'
  state_name: Kočani
  latitude: '41.92262000'
  longitude: '22.44628000'
- name: Konče
  state_code: '41'
  state_name: Konče
  latitude: '41.49511000'
  longitude: '22.38359000'
- name: Kratovo
  state_code: '43'
  state_name: Kratovo
  latitude: '42.07838000'
  longitude: '22.18070000'
- name: Kriva Palanka
  state_code: '44'
  state_name: Kriva Palanka
  latitude: '42.20088000'
  longitude: '22.33244000'
- name: Krivogashtani
  state_code: '45'
  state_name: Krivogaštani
  latitude: '41.33611000'
  longitude: '21.33306000'
- name: Obršani
  state_code: '45'
  state_name: Krivogaštani
  latitude: '41.28168000'
  longitude: '21.36150000'
- name: Клечовце
  state_code: '45'
  state_name: Krivogaštani
  latitude: '42.11611000'
  longitude: '21.85722000'
- name: Bučin
  state_code: '46'
  state_name: Kruševo
  latitude: '41.27377000'
  longitude: '21.31692000'
- name: Krusevo
  state_code: '46'
  state_name: Kruševo
  latitude: '41.36889000'
  longitude: '21.24889000'
- name: Bedinje
  state_code: '47'
  state_name: Kumanovo
  latitude: '42.14167000'
  longitude: '21.69639000'
- name: Kumanovo
  state_code: '47'
  state_name: Kumanovo
  latitude: '42.13222000'
  longitude: '21.71444000'
- name: Romanovci
  state_code: '47'
  state_name: Kumanovo
  latitude: '42.09472000'
  longitude: '21.69306000'
- name: Izvor
  state_code: '48'
  state_name: Lipkovo
  latitude: '42.20322000'
  longitude: '21.57812000'
- name: Lipkovo
  state_code: '48'
  state_name: Lipkovo
  latitude: '42.15639000'
  longitude: '21.58528000'
- name: Lojane
  state_code: '48'
  state_name: Lipkovo
  latitude: '42.23276000'
  longitude: '21.66550000'
- name: Matejce
  state_code: '48'
  state_name: Lipkovo
  latitude: '42.12556000'
  longitude: '21.59778000'
- name: Otlja
  state_code: '48'
  state_name: Lipkovo
  latitude: '42.14315000'
  longitude: '21.58675000'
- name: Vaksince
  state_code: '48'
  state_name: Lipkovo
  latitude: '42.20611000'
  longitude: '21.66306000'
- name: Слупчане
  state_code: '48'
  state_name: Lipkovo
  latitude: '42.17333000'
  longitude: '21.62778000'
- name: Lozovo
  state_code: '49'
  state_name: Lozovo
  latitude: '41.78389000'
  longitude: '21.90556000'
- name: Makedonska Kamenica
  state_code: '51'
  state_name: Makedonska Kamenica
  latitude: '42.02079000'
  longitude: '22.58760000'
- name: Makedonski Brod
  state_code: '52'
  state_name: Makedonski Brod
  latitude: '41.51361000'
  longitude: '21.21528000'
- name: Samokov
  state_code: '52'
  state_name: Makedonski Brod
  latitude: '41.68331000'
  longitude: '21.14625000'
- name: Rostusa
  state_code: '50'
  state_name: Mavrovo and Rostuša
  latitude: '41.61000000'
  longitude: '20.60000000'
- name: Beranci
  state_code: '53'
  state_name: Mogila
  latitude: '41.15969000'
  longitude: '21.35963000'
- name: Dobruševo
  state_code: '53'
  state_name: Mogila
  latitude: '41.16861000'
  longitude: '21.48250000'
- name: Dolno Srpci
  state_code: '53'
  state_name: Mogila
  latitude: '41.17480000'
  longitude: '21.36464000'
- name: Mogila
  state_code: '53'
  state_name: Mogila
  latitude: '41.10833000'
  longitude: '21.37861000'
- name: Negotino
  state_code: '54'
  state_name: Negotino
  latitude: '41.48456000'
  longitude: '22.09056000'
- name: Novaci
  state_code: '55'
  state_name: Novaci
  latitude: '41.04197000'
  longitude: '21.45866000'
- name: Novo Selo
  state_code: '56'
  state_name: Novo Selo
  latitude: '41.41486000'
  longitude: '22.88164000'
- name: Sušica
  state_code: '56'
  state_name: Novo Selo
  latitude: '41.43982000'
  longitude: '22.83676000'
- name: Kosel
  state_code: '58'
  state_name: Ohrid
  latitude: '41.17444000'
  longitude: '20.83556000'
- name: Ohrid
  state_code: '58'
  state_name: Ohrid
  latitude: '41.11722000'
  longitude: '20.80194000'
- name: Ohrid Opština
  state_code: '58'
  state_name: Ohrid
  latitude: '41.16667000'
  longitude: '20.83333000'
- name: Pehčevo
  state_code: '60'
  state_name: Pehčevo
  latitude: '41.76226000'
  longitude: '22.88921000'
- name: Sredno Konjare
  state_code: '59'
  state_name: Petrovec
  latitude: '41.95743000'
  longitude: '21.71494000'
- name: Петровец
  state_code: '59'
  state_name: Petrovec
  latitude: '41.93889000'
  longitude: '21.61500000'
- name: Lisičani
  state_code: '61'
  state_name: Plasnica
  latitude: '41.46139000'
  longitude: '21.05444000'
- name: Plasnica
  state_code: '61'
  state_name: Plasnica
  latitude: '41.46722000'
  longitude: '21.12306000'
- name: Kanatlarci
  state_code: '62'
  state_name: Prilep
  latitude: '41.21028000'
  longitude: '21.50333000'
- name: Markov Grad
  state_code: '62'
  state_name: Prilep
  latitude: '41.35722000'
  longitude: '21.53250000'
- name: Prilep
  state_code: '62'
  state_name: Prilep
  latitude: '41.34514000'
  longitude: '21.55504000'
- name: Topolčani
  state_code: '62'
  state_name: Prilep
  latitude: '41.22772000'
  longitude: '21.43113000'
- name: Probishtip
  state_code: '63'
  state_name: Probištip
  latitude: '42.00306000'
  longitude: '22.17861000'
- name: Zletovo
  state_code: '63'
  state_name: Probištip
  latitude: '41.98861000'
  longitude: '22.23611000'
- name: Oraovica
  state_code: '64'
  state_name: Radoviš
  latitude: '41.62583000'
  longitude: '22.51333000'
- name: Podareš
  state_code: '64'
  state_name: Radoviš
  latitude: '41.61389000'
  longitude: '22.54222000'
- name: Radovis
  state_code: '64'
  state_name: Radoviš
  latitude: '41.63833000'
  longitude: '22.46472000'
- name: Ранковце
  state_code: '65'
  state_name: Rankovce
  latitude: '42.16964000'
  longitude: '22.11617000'
- name: Grnčari
  state_code: '66'
  state_name: Resen
  latitude: '41.01722000'
  longitude: '21.05333000'
- name: Jankovec
  state_code: '66'
  state_name: Resen
  latitude: '41.11028000'
  longitude: '21.01139000'
- name: Krani
  state_code: '66'
  state_name: Resen
  latitude: '40.93934000'
  longitude: '21.10911000'
- name: Resen
  state_code: '66'
  state_name: Resen
  latitude: '41.08934000'
  longitude: '21.01092000'
- name: Rosoman
  state_code: '67'
  state_name: Rosoman
  latitude: '41.51671000'
  longitude: '21.94585000'
- name: Bukovik
  state_code: '68'
  state_name: Saraj
  latitude: '41.96833000'
  longitude: '21.23694000'
- name: Grčec
  state_code: '68'
  state_name: Saraj
  latitude: '41.98806000'
  longitude: '21.33028000'
- name: Kondovo
  state_code: '68'
  state_name: Saraj
  latitude: '42.01167000'
  longitude: '21.31361000'
- name: Krušopek
  state_code: '68'
  state_name: Saraj
  latitude: '41.97833000'
  longitude: '21.35444000'
- name: Сопиште
  state_code: '70'
  state_name: Sopište
  latitude: '41.95472000'
  longitude: '21.42750000'
- name: Старо Нагоричане
  state_code: '71'
  state_name: Staro Nagoričane
  latitude: '42.19806000'
  longitude: '21.82861000'
- name: Shtip
  state_code: '83'
  state_name: Štip
  latitude: '41.74583000'
  longitude: '22.19583000'
- name: Delogožda
  state_code: '72'
  state_name: Struga
  latitude: '41.25728000'
  longitude: '20.72180000'
- name: Labunista
  state_code: '72'
  state_name: Struga
  latitude: '41.26861000'
  longitude: '20.59611000'
- name: Lukovo
  state_code: '72'
  state_name: Struga
  latitude: '41.35339000'
  longitude: '20.60637000'
- name: Mislesevo
  state_code: '72'
  state_name: Struga
  latitude: '41.18500000'
  longitude: '20.70861000'
- name: Oktisi
  state_code: '72'
  state_name: Struga
  latitude: '41.23250000'
  longitude: '20.60722000'
- name: Radolista
  state_code: '72'
  state_name: Struga
  latitude: '41.16417000'
  longitude: '20.62333000'
- name: Struga
  state_code: '72'
  state_name: Struga
  latitude: '41.17799000'
  longitude: '20.67784000'
- name: Velesta
  state_code: '72'
  state_name: Struga
  latitude: '41.24083000'
  longitude: '20.64389000'
- name: Kuklis
  state_code: '73'
  state_name: Strumica
  latitude: '41.40528000'
  longitude: '22.66528000'
- name: Murtino
  state_code: '73'
  state_name: Strumica
  latitude: '41.41537000'
  longitude: '22.72589000'
- name: Strumica
  state_code: '73'
  state_name: Strumica
  latitude: '41.43750000'
  longitude: '22.64333000'
- name: Veljusa
  state_code: '73'
  state_name: Strumica
  latitude: '41.47611000'
  longitude: '22.56750000'
- name: Batinci
  state_code: '74'
  state_name: Studeničani
  latitude: '41.91909000'
  longitude: '21.47978000'
- name: Dolno Količani
  state_code: '74'
  state_name: Studeničani
  latitude: '41.88639000'
  longitude: '21.48556000'
- name: Morani
  state_code: '74'
  state_name: Studeničani
  latitude: '41.90978000'
  longitude: '21.54997000'
- name: Studeničane
  state_code: '74'
  state_name: Studeničani
  latitude: '41.92208000'
  longitude: '21.53483000'
- name: Šuto Orizare
  state_code: '84'
  state_name: Šuto Orizari
  latitude: '42.04000000'
  longitude: '21.42500000'
- name: Gorobinci
  state_code: '69'
  state_name: Sveti Nikole
  latitude: '41.87507000'
  longitude: '21.87599000'
- name: Sveti Nikole
  state_code: '69'
  state_name: Sveti Nikole
  latitude: '41.86956000'
  longitude: '21.95274000'
- name: Nerašte
  state_code: '75'
  state_name: Tearce
  latitude: '42.10711000'
  longitude: '21.10810000'
- name: Orashac
  state_code: '75'
  state_name: Tearce
  latitude: '42.06250000'
  longitude: '21.79972000'
- name: Pršovce
  state_code: '75'
  state_name: Tearce
  latitude: '42.08336000'
  longitude: '21.05994000'
- name: Slatino
  state_code: '75'
  state_name: Tearce
  latitude: '42.06784000'
  longitude: '21.03902000'
- name: Tearce
  state_code: '75'
  state_name: Tearce
  latitude: '42.07666000'
  longitude: '21.05310000'
- name: Dobrošte
  state_code: '76'
  state_name: Tetovo
  latitude: '42.10333000'
  longitude: '21.07778000'
- name: Džepčište
  state_code: '76'
  state_name: Tetovo
  latitude: '42.03287000'
  longitude: '20.99817000'
- name: Golema Rečica
  state_code: '76'
  state_name: Tetovo
  latitude: '41.98803000'
  longitude: '20.94517000'
- name: Pirok
  state_code: '76'
  state_name: Tetovo
  latitude: '41.91083000'
  longitude: '20.91056000'
- name: Poroj
  state_code: '76'
  state_name: Tetovo
  latitude: '42.02913000'
  longitude: '20.99266000'
- name: Selce
  state_code: '76'
  state_name: Tetovo
  latitude: '42.03482000'
  longitude: '20.94035000'
- name: Šipkovica
  state_code: '76'
  state_name: Tetovo
  latitude: '42.03500000'
  longitude: '20.91556000'
- name: Tetovo
  state_code: '76'
  state_name: Tetovo
  latitude: '42.00973000'
  longitude: '20.97155000'
- name: Pirava
  state_code: '10'
  state_name: Valandovo
  latitude: '41.32042000'
  longitude: '22.53047000'
- name: Valandovo
  state_code: '10'
  state_name: Valandovo
  latitude: '41.31744000'
  longitude: '22.56002000'
- name: Vasilevo
  state_code: '11'
  state_name: Vasilevo
  latitude: '41.47408000'
  longitude: '22.64301000'
- name: Gorno Orizari
  state_code: '13'
  state_name: Veles
  latitude: '41.68583000'
  longitude: '21.73475000'
- name: Ivankovci
  state_code: '13'
  state_name: Veles
  latitude: '41.84889000'
  longitude: '21.82028000'
- name: Veles
  state_code: '13'
  state_name: Veles
  latitude: '41.71556000'
  longitude: '21.77556000'
- name: Vevčani
  state_code: '12'
  state_name: Vevčani
  latitude: '41.24056000'
  longitude: '20.59333000'
- name: Blatec
  state_code: '14'
  state_name: Vinica
  latitude: '41.83668000'
  longitude: '22.57909000'
- name: Gradec
  state_code: '14'
  state_name: Vinica
  latitude: '41.85068000'
  longitude: '22.51132000'
- name: Vinica
  state_code: '14'
  state_name: Vinica
  latitude: '41.88278000'
  longitude: '22.50917000'
- name: Dobri Dol
  state_code: '16'
  state_name: Vrapčište
  latitude: '41.86520000'
  longitude: '20.89009000'
- name: Negotino
  state_code: '16'
  state_name: Vrapčište
  latitude: '41.87792000'
  longitude: '20.88389000'
- name: Vrapčište
  state_code: '16'
  state_name: Vrapčište
  latitude: '41.83439000'
  longitude: '20.88563000'
- name: Zelenikovo
  state_code: '32'
  state_name: Zelenikovo
  latitude: '41.88413000'
  longitude: '21.58848000'
- name: Dobarce
  state_code: '30'
  state_name: Želino
  latitude: '41.95530000'
  longitude: '21.08875000'
- name: Larce
  state_code: '30'
  state_name: Želino
  latitude: '41.93319000'
  longitude: '21.12628000'
- name: Sedlarevo
  state_code: '30'
  state_name: Želino
  latitude: '41.88306000'
  longitude: '21.12750000'
- name: Strimnica
  state_code: '30'
  state_name: Želino
  latitude: '41.96719000'
  longitude: '21.03598000'
- name: Zelino
  state_code: '30'
  state_name: Želino
  latitude: '41.98028000'
  longitude: '21.06417000'
- name: Zrnovci
  state_code: '33'
  state_name: Zrnovci
  latitude: '41.85417000'
  longitude: '22.44444000'
