---
- name: Fort-de-France
  state_code: '01'
  state_name: Fort-de-France
  latitude: '14.64924180'
  longitude: "-61.10984450"
- name: Le Lamentin
  state_code: '01'
  state_name: Fort-de-France
  latitude: '14.62308620'
  longitude: "-61.03347490"
- name: Saint-Joseph
  state_code: '01'
  state_name: Fort-de-France
  latitude: '14.68353400'
  longitude: "-61.08186620"
- name: Schœlcher
  state_code: '01'
  state_name: Fort-de-France
  latitude: '14.65179970'
  longitude: "-61.14128670"
- name: Basse-Pointe
  state_code: '02'
  state_name: La Trinité
  latitude: '14.84097080'
  longitude: "-61.16485230"
- name: Grand'Rivière
  state_code: '02'
  state_name: La Trinité
  latitude: '14.84696630'
  longitude: "-61.20427640"
- name: Gros-Morne
  state_code: '02'
  state_name: La Trinité
  latitude: '14.70841840'
  longitude: "-61.11271220"
- name: L'Ajoupa-Bouillon
  state_code: '02'
  state_name: La Trinité
  latitude: '14.81597180'
  longitude: "-61.17170630"
- name: La Trinité
  state_code: '02'
  state_name: La Trinité
  latitude: '14.73804150'
  longitude: "-61.02929560"
- name: Le Lorrain
  state_code: '02'
  state_name: La Trinité
  latitude: '14.79952560'
  longitude: "-61.11513740"
- name: Le Marigot
  state_code: '02'
  state_name: La Trinité
  latitude: '14.77958180'
  longitude: "-61.09424580"
- name: Le Robert
  state_code: '02'
  state_name: La Trinité
  latitude: '14.67443270'
  longitude: "-61.01692720"
- name: Macouba
  state_code: '02'
  state_name: La Trinité
  latitude: '14.84743860'
  longitude: "-61.16709460"
- name: Sainte-Marie
  state_code: '02'
  state_name: La Trinité
  latitude: '14.77300930'
  longitude: "-61.04959970"
- name: Ducos
  state_code: '03'
  state_name: Le Marin
  latitude: '14.57854420'
  longitude: "-61.00973860"
- name: Le Diamant
  state_code: '03'
  state_name: Le Marin
  latitude: '14.47680040'
  longitude: "-61.05973840"
- name: Le François
  state_code: '03'
  state_name: Le Marin
  latitude: '14.60928850'
  longitude: "-60.97999110"
- name: Le Marin
  state_code: '03'
  state_name: Le Marin
  latitude: '14.48221690'
  longitude: "-60.90011410"
- name: Le Vauclin
  state_code: '03'
  state_name: Le Marin
  latitude: '14.54208600'
  longitude: "-60.90060060"
- name: Les Anses-d'Arlet
  state_code: '03'
  state_name: Le Marin
  latitude: '14.49954780'
  longitude: "-61.11481620"
- name: Les Trois-Îlets
  state_code: '03'
  state_name: Le Marin
  latitude: '14.53287460'
  longitude: "-61.07877690"
- name: Rivière-Pilote
  state_code: '03'
  state_name: Le Marin
  latitude: '14.50266970'
  longitude: "-60.93819210"
- name: Rivière-Salée
  state_code: '03'
  state_name: Le Marin
  latitude: '14.52621400'
  longitude: "-61.00353090"
- name: Saint-Esprit
  state_code: '03'
  state_name: Le Marin
  latitude: '14.56175950'
  longitude: "-60.96451110"
- name: Sainte-Anne
  state_code: '03'
  state_name: Le Marin
  latitude: '14.43142200'
  longitude: "-60.89278760"
- name: Sainte-Luce
  state_code: '03'
  state_name: Le Marin
  latitude: '14.49040930'
  longitude: "-60.98793650"
- name: Bellefontaine
  state_code: '04'
  state_name: Saint-Pierre
  latitude: '14.67474760'
  longitude: "-61.16653080"
- name: Case-Pilote
  state_code: '04'
  state_name: Saint-Pierre
  latitude: '14.65933990'
  longitude: "-61.15026120"
- name: Fonds-Saint-Denis
  state_code: '04'
  state_name: Saint-Pierre
  latitude: '14.72275460'
  longitude: "-61.16189190"
- name: Le Carbet
  state_code: '04'
  state_name: Saint-Pierre
  latitude: '14.70521580'
  longitude: "-61.19444680"
- name: Le Morne-Rouge
  state_code: '04'
  state_name: Saint-Pierre
  latitude: '14.76953640'
  longitude: "-61.16292840"
- name: Le Morne-Vert
  state_code: '04'
  state_name: Saint-Pierre
  latitude: '14.70464330'
  longitude: "-61.15679770"
- name: Le Prêcheur
  state_code: '04'
  state_name: Saint-Pierre
  latitude: '14.82202610'
  longitude: "-61.23746860"
- name: Saint-Pierre
  state_code: '04'
  state_name: Saint-Pierre
  latitude: '14.77167190'
  longitude: "-61.21475010"
