---
- name: Atar
  state_code: '07'
  state_name: Adrar
  latitude: '20.51770000'
  longitude: "-13.04857000"
- name: Azougui
  state_code: '07'
  state_name: Adrar
  latitude: '20.56764000'
  longitude: "-13.11191000"
- name: Chingueṭṭi
  state_code: '07'
  state_name: Adrar
  latitude: '20.46300000'
  longitude: "-12.36200000"
- name: Ksar el Khali
  state_code: '07'
  state_name: Adrar
  latitude: '20.93333333'
  longitude: "-11.61666667"
- name: Barkéwol
  state_code: '03'
  state_name: Assaba
  latitude: '16.64039000'
  longitude: "-12.49849000"
- name: Kiffa
  state_code: '03'
  state_name: Assaba
  latitude: '16.62073000'
  longitude: "-11.40208000"
- name: "’Elb el Jmel"
  state_code: '05'
  state_name: Brakna
  latitude: '17.01050000'
  longitude: "-13.97102000"
- name: Aleg
  state_code: '05'
  state_name: Brakna
  latitude: '17.05314000'
  longitude: "-13.91312000"
- name: Bofal
  state_code: '05'
  state_name: Brakna
  latitude: '16.41666667'
  longitude: "-13.80000000"
- name: Sori Malé
  state_code: '05'
  state_name: Brakna
  latitude: '16.95416667'
  longitude: "-13.37916667"
- name: Cansado
  state_code: '08'
  state_name: Dakhlet Nouadhibou
  latitude: '20.85333333'
  longitude: "-17.03250000"
- name: Iouik
  state_code: '08'
  state_name: Dakhlet Nouadhibou
  latitude: '19.84944444'
  longitude: "-16.33083333"
- name: Nouadhibou
  state_code: '08'
  state_name: Dakhlet Nouadhibou
  latitude: '20.94188000'
  longitude: "-17.03842000"
- name: Kaédi
  state_code: '04'
  state_name: Gorgol
  latitude: '16.15027000'
  longitude: "-13.50370000"
- name: Sélibaby
  state_code: '10'
  state_name: Guidimaka
  latitude: '15.15846000'
  longitude: "-12.18430000"
- name: Diade
  state_code: '01'
  state_name: Hodh Ech Chargui
  latitude: '16.23333333'
  longitude: "-7.41666667"
- name: Kataouane
  state_code: '01'
  state_name: Hodh Ech Chargui
  latitude: '16.06888889'
  longitude: "-6.49888889"
- name: Néma
  state_code: '01'
  state_name: Hodh Ech Chargui
  latitude: '16.61702000'
  longitude: "-7.25649000"
- name: Timbedra
  state_code: '01'
  state_name: Hodh Ech Chargui
  latitude: '16.24472222'
  longitude: "-8.16750000"
- name: Aioun
  state_code: '02'
  state_name: Hodh El Gharbi
  latitude: '16.66140000'
  longitude: "-9.61490000"
- name: Ayoun el Atrous
  state_code: '02'
  state_name: Hodh El Gharbi
  latitude: '16.66666667'
  longitude: "-9.61666667"
- name: Togba
  state_code: '02'
  state_name: Hodh El Gharbi
  latitude: '17.40000000'
  longitude: "-10.36666667"
- name: Akjoujt
  state_code: '12'
  state_name: Inchiri
  latitude: '19.74657000'
  longitude: "-14.38531000"
- name: Dar-Naim
  state_code: '14'
  state_name: Nouakchott-Nord
  latitude: '18.03333333'
  longitude: "-15.96666667"
- name: Teyarett
  state_code: '14'
  state_name: Nouakchott-Nord
  latitude: '18.12895720'
  longitude: "-15.93778340"
- name: Toujouonine
  state_code: '14'
  state_name: Nouakchott-Nord
  latitude: '18.07169000'
  longitude: "-15.90311000"
- name: Ksar
  state_code: '13'
  state_name: Nouakchott-Ouest
  latitude: '18.10222222'
  longitude: "-15.95500000"
- name: Sebkha
  state_code: '13'
  state_name: Nouakchott-Ouest
  latitude: '18.07555556'
  longitude: "-16.00194444"
- name: Tevragh-Zeina
  state_code: '13'
  state_name: Nouakchott-Ouest
  latitude: '18.11011000'
  longitude: "-15.99931000"
- name: Arafat
  state_code: '15'
  state_name: Nouakchott-Sud
  latitude: '18.04639000'
  longitude: "-15.97194000"
- name: Riyad
  state_code: '15'
  state_name: Nouakchott-Sud
  latitude: '18.10222222'
  longitude: "-15.95500000"
- name: Moudjeria
  state_code: '09'
  state_name: Tagant
  latitude: '17.97955140'
  longitude: "-13.39795340"
- name: Tichit
  state_code: '09'
  state_name: Tagant
  latitude: '18.49686260'
  longitude: "-12.12199350"
- name: Tijigja
  state_code: '09'
  state_name: Tagant
  latitude: '18.51647870'
  longitude: "-12.98264760"
- name: Ain Ben Tili
  state_code: '11'
  state_name: Tiris Zemmour
  latitude: '25.99444444'
  longitude: "-9.55333333"
- name: Chegga
  state_code: '11'
  state_name: Tiris Zemmour
  latitude: '25.37194444'
  longitude: "-5.78666667"
- name: Fderîck
  state_code: '11'
  state_name: Tiris Zemmour
  latitude: '22.67777778'
  longitude: "-12.70750000"
- name: Zouérat
  state_code: '11'
  state_name: Tiris Zemmour
  latitude: '22.73444444'
  longitude: "-12.47250000"
- name: Zouerate
  state_code: '11'
  state_name: Tiris Zemmour
  latitude: '22.73542000'
  longitude: "-12.47134000"
- name: Legat
  state_code: '06'
  state_name: Trarza
  latitude: '16.75000000'
  longitude: "-14.83333333"
- name: Rosso
  state_code: '06'
  state_name: Trarza
  latitude: '16.51378000'
  longitude: "-15.80503000"
- name: Tékane
  state_code: '06'
  state_name: Trarza
  latitude: '16.60175000'
  longitude: "-15.34866000"
