---
- name: Attard
  state_code: '01'
  state_name: Attard
  latitude: '35.88972000'
  longitude: '14.44250000'
- name: Balzan
  state_code: '02'
  state_name: Balzan
  latitude: '35.90028000'
  longitude: '14.45500000'
- name: Birgu (Vittoriosa)
  state_code: '03'
  state_name: Birgu
  latitude: '35.89222000'
  longitude: '14.51833000'
- name: Birkirkara
  state_code: '04'
  state_name: Birkirkara
  latitude: '35.89722000'
  longitude: '14.46111000'
- name: Fleur De Lys
  state_code: '04'
  state_name: Birkirkara
  latitude: '35.89530000'
  longitude: '14.46560000'
- name: Swatar
  state_code: '04'
  state_name: Birkirkara
  latitude: '35.89877800'
  longitude: '14.47659200'
- name: Birżebbuġa
  state_code: '05'
  state_name: Birżebbuġa
  latitude: '35.82583000'
  longitude: '14.52694000'
- name: Ħal Far
  state_code: '05'
  state_name: Birżebbuġa
  latitude: '35.81134900'
  longitude: '14.51068600'
- name: Cospicua
  state_code: '06'
  state_name: Cospicua
  latitude: '35.88556000'
  longitude: '14.52750000'
- name: Dingli
  state_code: '07'
  state_name: Dingli
  latitude: '35.86139000'
  longitude: '14.38222000'
- name: Fgura
  state_code: '08'
  state_name: Fgura
  latitude: '35.87028000'
  longitude: '14.51333000'
- name: Floriana
  state_code: '09'
  state_name: Floriana
  latitude: '35.89583000'
  longitude: '14.50833000'
- name: Fontana
  state_code: '10'
  state_name: Fontana
  latitude: '36.03750000'
  longitude: '14.23611000'
- name: Għajnsielem
  state_code: '13'
  state_name: Għajnsielem
  latitude: '36.02639000'
  longitude: '14.28500000'
- name: Ħal Għargħur
  state_code: '13'
  state_name: Għajnsielem
  latitude: '35.92409000'
  longitude: '14.45118000'
- name: Ħal Għaxaq
  state_code: '15'
  state_name: Għargħur
  latitude: '35.84889000'
  longitude: '14.51667000'
- name: Gudja
  state_code: '16'
  state_name: Għasri
  latitude: '35.84917000'
  longitude: '14.50306000'
- name: Gżira
  state_code: '17'
  state_name: Għaxaq
  latitude: '35.90583000'
  longitude: '14.48806000'
- name: Għarb
  state_code: '12'
  state_name: Gżira
  latitude: '36.06000000'
  longitude: '14.20889000'
- name: Blata l' Bajda
  state_code: '18'
  state_name: Ħamrun
  latitude: '35.88750000'
  longitude: '14.49861100'
- name: Ħamrun
  state_code: '18'
  state_name: Ħamrun
  latitude: '35.88472000'
  longitude: '14.48444000'
- name: L-Iklin
  state_code: '19'
  state_name: Iklin
  latitude: '35.90414000'
  longitude: '14.45415000'
- name: Imġarr
  state_code: '21'
  state_name: Kalkara
  latitude: '35.92056000'
  longitude: '14.36639000'
- name: Mġarr
  state_code: '21'
  state_name: Kalkara
  latitude: '36.02528000'
  longitude: '14.29500000'
- name: Mqabba
  state_code: '22'
  state_name: Kerċem
  latitude: '35.84763000'
  longitude: '14.46824000'
- name: Imsida
  state_code: '23'
  state_name: Kirkop
  latitude: '35.89250000'
  longitude: '14.48278000'
- name: Kirkop
  state_code: '23'
  state_name: Kirkop
  latitude: '35.84222000'
  longitude: '14.48528000'
- name: Ħal Lija
  state_code: '24'
  state_name: Lija
  latitude: '35.90056000'
  longitude: '14.44639000'
- name: Imtarfa
  state_code: '24'
  state_name: Lija
  latitude: '35.89333000'
  longitude: '14.39889000'
- name: Ħal Luqa
  state_code: '25'
  state_name: Luqa
  latitude: '35.85889000'
  longitude: '14.48861000'
- name: Ħal Safi
  state_code: '25'
  state_name: Luqa
  latitude: '35.83333300'
  longitude: '14.48500000'
- name: Senglea
  state_code: '25'
  state_name: Luqa
  latitude: '35.88750000'
  longitude: '14.51694000'
- name: Kalkara
  state_code: '26'
  state_name: Marsa
  latitude: '35.88917000'
  longitude: '14.53278000'
- name: Kerċem
  state_code: '27'
  state_name: Marsaskala
  latitude: '36.04194000'
  longitude: '14.22667000'
- name: Marsaskala
  state_code: '27'
  state_name: Marsaskala
  latitude: '35.86220000'
  longitude: '14.56701000'
- name: Marsaxlokk
  state_code: '28'
  state_name: Marsaxlokk
  latitude: '35.84194000'
  longitude: '14.54306000'
- name: Manikata
  state_code: '30'
  state_name: Mellieħa
  latitude: '35.94000000'
  longitude: '14.35333000'
- name: Marsa
  state_code: '31'
  state_name: Mġarr
  latitude: '35.87917000'
  longitude: '14.49528000'
- name: Bidnija
  state_code: '32'
  state_name: Mosta
  latitude: '35.92694400'
  longitude: '14.39833300'
- name: Mellieħa
  state_code: '34'
  state_name: Msida
  latitude: '35.95639000'
  longitude: '14.36222000'
- name: Munxar
  state_code: '36'
  state_name: Munxar
  latitude: '36.03000000'
  longitude: '14.23333000'
- name: Nadur
  state_code: '37'
  state_name: Nadur
  latitude: '36.03778000'
  longitude: '14.29417000'
- name: Baħar iċ-Ċagħaq
  state_code: '38'
  state_name: Naxxar
  latitude: '35.93878700'
  longitude: '14.45372500'
- name: Magħtab
  state_code: '38'
  state_name: Naxxar
  latitude: '35.94500000'
  longitude: '14.44000000'
- name: Naxxar
  state_code: '38'
  state_name: Naxxar
  latitude: '35.91361000'
  longitude: '14.44361000'
- name: Salina
  state_code: '38'
  state_name: Naxxar
  latitude: '35.94555600'
  longitude: '14.42444400'
- name: Paola
  state_code: '39'
  state_name: Paola
  latitude: '35.87306000'
  longitude: '14.49889000'
- name: Pembroke
  state_code: '40'
  state_name: Pembroke
  latitude: '35.93056000'
  longitude: '14.47639000'
- name: Pietà
  state_code: '41'
  state_name: Pietà
  latitude: '35.89472000'
  longitude: '14.49500000'
- name: Qala
  state_code: '42'
  state_name: Qala
  latitude: '36.03611000'
  longitude: '14.30944000'
- name: Qormi
  state_code: '43'
  state_name: Qormi
  latitude: '35.87601000'
  longitude: '14.47200000'
- name: Qrendi
  state_code: '44'
  state_name: Qrendi
  latitude: '35.83472000'
  longitude: '14.45833000'
- name: Baħrija
  state_code: '46'
  state_name: Rabat
  latitude: '35.89472200'
  longitude: '14.34833300'
- name: Binġemma
  state_code: '46'
  state_name: Rabat
  latitude: '35.90277800'
  longitude: '14.37777800'
- name: San Ġiljan (St. Julian's)
  state_code: '49'
  state_name: San Ġwann
  latitude: '35.91839000'
  longitude: '14.48977000'
- name: San Lawrenz
  state_code: '50'
  state_name: San Lawrenz
  latitude: '36.05556000'
  longitude: '14.20361000'
- name: San Pawl il-Baħar
  state_code: '52'
  state_name: Sannat
  latitude: '35.95064000'
  longitude: '14.41561000'
- name: Sannat
  state_code: '52'
  state_name: Sannat
  latitude: '36.02444000'
  longitude: '14.24278000'
- name: Santa Venera
  state_code: '53'
  state_name: Santa Luċija
  latitude: '35.89083000'
  longitude: '14.47417000'
- name: Imdina
  state_code: '20'
  state_name: Senglea
  latitude: '35.88694000'
  longitude: '14.40250000'
- name: Siġġiewi
  state_code: '55'
  state_name: Siġġiewi
  latitude: '35.85556000'
  longitude: '14.43639000'
- name: Sliema
  state_code: '56'
  state_name: Sliema
  latitude: '35.91250000'
  longitude: '14.50194000'
- name: Paceville
  state_code: '48'
  state_name: St. Julian's
  latitude: '35.92370000'
  longitude: '14.49140000'
- name: San Ġwann
  state_code: '48'
  state_name: St. Julian's
  latitude: '35.90556000'
  longitude: '14.47611000'
- name: Buġibba
  state_code: '51'
  state_name: St. Paul's Bay
  latitude: '35.94916700'
  longitude: '14.41166700'
- name: Burmarrad
  state_code: '51'
  state_name: St. Paul's Bay
  latitude: '35.93490000'
  longitude: '14.41430000'
- name: Mosta
  state_code: '51'
  state_name: St. Paul's Bay
  latitude: '35.90917000'
  longitude: '14.42556000'
- name: Qawra
  state_code: '51'
  state_name: St. Paul's Bay
  latitude: '35.95416700'
  longitude: '14.42000000'
- name: Santa Luċija
  state_code: '51'
  state_name: St. Paul's Bay
  latitude: '36.04306000'
  longitude: '14.21722000'
- name: Santa Luċija, Gozo
  state_code: '51'
  state_name: St. Paul's Bay
  latitude: '35.86278000'
  longitude: '14.50750000'
- name: Wardija
  state_code: '51'
  state_name: St. Paul's Bay
  latitude: '35.93795800'
  longitude: '14.39254200'
- name: Xemxija
  state_code: '51'
  state_name: St. Paul's Bay
  latitude: '35.95055600'
  longitude: '14.38583300'
- name: Madliena
  state_code: '57'
  state_name: Swieqi
  latitude: '35.93333300'
  longitude: '14.46666700'
- name: Swieqi
  state_code: '57'
  state_name: Swieqi
  latitude: '35.92250000'
  longitude: '14.48000000'
- name: Ta’ Xbiex
  state_code: '58'
  state_name: Ta' Xbiex
  latitude: '35.89917000'
  longitude: '14.49444000'
- name: Ħal Tarxien
  state_code: '59'
  state_name: Tarxien
  latitude: '35.86583000'
  longitude: '14.51500000'
- name: Valletta
  state_code: '60'
  state_name: Valletta
  latitude: '35.89972000'
  longitude: '14.51472000'
- name: Rabat
  state_code: '45'
  state_name: Victoria
  latitude: '35.88152000'
  longitude: '14.39872000'
- name: Victoria
  state_code: '45'
  state_name: Victoria
  latitude: '36.04444000'
  longitude: '14.23972000'
- name: Xagħra
  state_code: '61'
  state_name: Xagħra
  latitude: '36.05000000'
  longitude: '14.26444000'
- name: Xewkija
  state_code: '62'
  state_name: Xewkija
  latitude: '36.03278000'
  longitude: '14.25806000'
- name: Xgħajra
  state_code: '63'
  state_name: Xgħajra
  latitude: '35.88556000'
  longitude: '14.54750000'
- name: Żabbar
  state_code: '64'
  state_name: Żabbar
  latitude: '35.87611000'
  longitude: '14.53500000'
- name: Ħaż-Żebbuġ
  state_code: '65'
  state_name: Żebbuġ Gozo
  latitude: '35.87194000'
  longitude: '14.44111000'
- name: Żebbuġ
  state_code: '66'
  state_name: Żebbuġ Malta
  latitude: '36.07222000'
  longitude: '14.23583000'
- name: Żejtun
  state_code: '67'
  state_name: Żejtun
  latitude: '35.85583000'
  longitude: '14.53306000'
- name: Żurrieq
  state_code: '68'
  state_name: Żurrieq
  latitude: '35.83111000'
  longitude: '14.47417000'
