---
- name: Vingt Cinq
  state_code: AG
  state_name: Agalega Islands
  latitude: "-10.38803000"
  longitude: '56.61795000'
- name: Albion
  state_code: BL
  state_name: Black River
  latitude: "-20.20814000"
  longitude: '57.40766000'
- name: Bambous
  state_code: BL
  state_name: Black River
  latitude: "-20.25667000"
  longitude: '57.40611000'
- name: Black River
  state_code: BL
  state_name: Black River
  latitude: "-20.32047900"
  longitude: '57.40372500'
- name: Cascavelle
  state_code: BL
  state_name: Black River
  latitude: "-20.28694000"
  longitude: '57.40722000'
- name: Case Noyale
  state_code: BL
  state_name: Black River
  latitude: "-20.41370400"
  longitude: '57.36906500'
- name: Chamarel
  state_code: BL
  state_name: Black River
  latitude: "-20.42523600"
  longitude: '57.39116500'
- name: Flic en Flac
  state_code: BL
  state_name: Black River
  latitude: "-20.27417000"
  longitude: '57.36306000'
- name: Grande Rivière Noire
  state_code: BL
  state_name: Black River
  latitude: "-20.36028000"
  longitude: '57.36611000'
- name: Gros Cailloux
  state_code: BL
  state_name: Black River
  latitude: "-20.20722000"
  longitude: '57.43000000'
- name: La Gaulette
  state_code: BL
  state_name: Black River
  latitude: "-20.42938800"
  longitude: '57.35884100'
- name: Le Morne
  state_code: BL
  state_name: Black River
  latitude: "-20.44417400"
  longitude: '57.33031500'
- name: Petite Case Noyale
  state_code: BL
  state_name: Black River
  latitude: "-20.39306000"
  longitude: '57.36500000'
- name: Petite Rivière
  state_code: BL
  state_name: Black River
  latitude: "-20.19551000"
  longitude: '57.44592000'
- name: Richelieu
  state_code: BL
  state_name: Black River
  latitude: "-20.19084900"
  longitude: '57.46129900'
- name: Tamarin
  state_code: BL
  state_name: Black River
  latitude: "-20.32556000"
  longitude: '57.37056000'
- name: Bel Air
  state_code: FL
  state_name: Flacq
  latitude: "-20.25849300"
  longitude: '57.75498700'
- name: Bel Air Rivière Sèche
  state_code: FL
  state_name: Flacq
  latitude: "-20.25777000"
  longitude: '57.74976000'
- name: Bon Accueil
  state_code: FL
  state_name: Flacq
  latitude: "-20.17083000"
  longitude: '57.65639000'
- name: Bramsthan
  state_code: FL
  state_name: Flacq
  latitude: "-20.21297900"
  longitude: '57.73768000'
- name: Brisée Verdière
  state_code: FL
  state_name: Flacq
  latitude: "-20.16389000"
  longitude: '57.64667000'
- name: Camp de Masque
  state_code: FL
  state_name: Flacq
  latitude: "-20.23694000"
  longitude: '57.66333000'
- name: Camp De Masque Pave
  state_code: FL
  state_name: Flacq
  latitude: "-20.25006300"
  longitude: '57.67997000'
- name: Camp Ithier
  state_code: FL
  state_name: Flacq
  latitude: "-20.21583000"
  longitude: '57.74556000'
- name: Centre de Flacq
  state_code: FL
  state_name: Flacq
  latitude: "-20.18972000"
  longitude: '57.71444000'
- name: Clémencia
  state_code: FL
  state_name: Flacq
  latitude: "-20.26389000"
  longitude: '57.70611000'
- name: Ecroignard
  state_code: FL
  state_name: Flacq
  latitude: "-20.22611000"
  longitude: '57.73611000'
- name: Grande Retraite
  state_code: FL
  state_name: Flacq
  latitude: "-20.16507700"
  longitude: '57.69461600'
- name: Grande Rivière Sud Est
  state_code: FL
  state_name: Flacq
  latitude: "-20.28611000"
  longitude: '57.77583000'
- name: Lalmatie
  state_code: FL
  state_name: Flacq
  latitude: "-20.18972000"
  longitude: '57.66111000'
- name: Laventure
  state_code: FL
  state_name: Flacq
  latitude: "-20.14583000"
  longitude: '57.67667000'
- name: Mare La Chaux
  state_code: FL
  state_name: Flacq
  latitude: "-20.19806000"
  longitude: '57.74944000'
- name: Medine Camp De Masque
  state_code: FL
  state_name: Flacq
  latitude: "-20.24395800"
  longitude: '57.64703500'
- name: Olivia
  state_code: FL
  state_name: Flacq
  latitude: "-20.28778000"
  longitude: '57.73097000'
- name: Poste de Flacq
  state_code: FL
  state_name: Flacq
  latitude: "-20.16306000"
  longitude: '57.73056000'
- name: Quatre Cocos
  state_code: FL
  state_name: Flacq
  latitude: "-20.20151000"
  longitude: '57.77448000'
- name: Quatre Soeurs
  state_code: FL
  state_name: Flacq
  latitude: "-20.29917000"
  longitude: '57.77056000'
- name: Queen Victoria
  state_code: FL
  state_name: Flacq
  latitude: "-20.22000000"
  longitude: '57.70750000'
- name: Saint Julien
  state_code: FL
  state_name: Flacq
  latitude: "-20.22639000"
  longitude: '57.63639000'
- name: Sebastopol
  state_code: FL
  state_name: Flacq
  latitude: "-20.29070000"
  longitude: '57.68779000'
- name: Trou D'Eau Douce
  state_code: FL
  state_name: Flacq
  latitude: "-20.23458600"
  longitude: '57.79486100'
- name: Bambous Virieux
  state_code: GP
  state_name: Grand Port
  latitude: "-20.34278000"
  longitude: '57.75750000'
- name: Beau Vallon
  state_code: GP
  state_name: Grand Port
  latitude: "-20.41889000"
  longitude: '57.69528000'
- name: Bois des Amourettes
  state_code: GP
  state_name: Grand Port
  latitude: "-20.36306000"
  longitude: '57.73111000'
- name: Camp Carol
  state_code: GP
  state_name: Grand Port
  latitude: "-20.46178500"
  longitude: '57.67845600'
- name: Cluny
  state_code: GP
  state_name: Grand Port
  latitude: "-20.36694000"
  longitude: '57.60389000'
- name: Grand Bel Air
  state_code: GP
  state_name: Grand Port
  latitude: "-20.40912400"
  longitude: '57.68174200'
- name: Grand Sable
  state_code: GP
  state_name: Grand Port
  latitude: "-20.31417000"
  longitude: '57.76444000'
- name: Mahébourg
  state_code: GP
  state_name: Grand Port
  latitude: "-20.40806000"
  longitude: '57.70000000'
- name: Mare D'Albert
  state_code: GP
  state_name: Grand Port
  latitude: "-20.42019500"
  longitude: '57.62728800'
- name: Mare Tabac
  state_code: GP
  state_name: Grand Port
  latitude: "-20.44035800"
  longitude: '57.59421500'
- name: New Grove
  state_code: GP
  state_name: Grand Port
  latitude: "-20.40861000"
  longitude: '57.61361000'
- name: Nouvelle France
  state_code: GP
  state_name: Grand Port
  latitude: "-20.37056000"
  longitude: '57.56111000'
- name: Petit Bel Air
  state_code: GP
  state_name: Grand Port
  latitude: "-20.39941200"
  longitude: '57.69295900'
- name: Plaine Magnien
  state_code: GP
  state_name: Grand Port
  latitude: "-20.42967000"
  longitude: '57.66968000'
- name: Riviere Des Creoles
  state_code: GP
  state_name: Grand Port
  latitude: "-20.39084000"
  longitude: '57.69696000'
- name: Rose Belle
  state_code: GP
  state_name: Grand Port
  latitude: "-20.40028000"
  longitude: '57.59667000'
- name: Saint Hubert
  state_code: GP
  state_name: Grand Port
  latitude: "-20.36417000"
  longitude: '57.63833000'
- name: Seizieme Mille
  state_code: GP
  state_name: Grand Port
  latitude: "-20.34211100"
  longitude: '57.54924400'
- name: Trois Boutiques
  state_code: GP
  state_name: Grand Port
  latitude: "-20.45046100"
  longitude: '57.64682900'
- name: Union Park
  state_code: GP
  state_name: Grand Port
  latitude: "-20.38629400"
  longitude: '57.58068000'
- name: Vieux Grand Port
  state_code: GP
  state_name: Grand Port
  latitude: "-20.37406600"
  longitude: '57.71607700'
- name: Camp Thorel
  state_code: MO
  state_name: Moka
  latitude: "-20.21472000"
  longitude: '57.61611000'
- name: Dagotière
  state_code: MO
  state_name: Moka
  latitude: "-20.24476000"
  longitude: '57.56188000'
- name: Dubreuil
  state_code: MO
  state_name: Moka
  latitude: "-20.30132000"
  longitude: '57.59861000'
- name: L'Avenir
  state_code: MO
  state_name: Moka
  latitude: "-20.21714200"
  longitude: '57.55048200'
- name: L'Esperance
  state_code: MO
  state_name: Moka
  latitude: "-20.23041300"
  longitude: '57.59526800'
- name: La Laura-Malenga
  state_code: MO
  state_name: Moka
  latitude: "-20.20386100"
  longitude: '57.54991500'
- name: Melrose
  state_code: MO
  state_name: Moka
  latitude: "-20.26972000"
  longitude: '57.63194000'
- name: Moka
  state_code: MO
  state_name: Moka
  latitude: "-20.21889000"
  longitude: '57.49583000'
- name: Montagne Blanche
  state_code: MO
  state_name: Moka
  latitude: "-20.28592000"
  longitude: '57.65774600'
- name: Nouvelle Découverte
  state_code: MO
  state_name: Moka
  latitude: "-20.18600000"
  longitude: '57.59079700'
- name: Pailles
  state_code: MO
  state_name: Moka
  latitude: "-20.19271000"
  longitude: '57.48826000'
- name: Providence
  state_code: MO
  state_name: Moka
  latitude: "-20.24472000"
  longitude: '57.61222000'
- name: Quartier Militaire
  state_code: MO
  state_name: Moka
  latitude: "-20.24790000"
  longitude: '57.59737000'
- name: Ripailles
  state_code: MO
  state_name: Moka
  latitude: "-20.19472500"
  longitude: '57.58059600'
- name: Saint Julien D'Hotman
  state_code: MO
  state_name: Moka
  latitude: "-20.23067000"
  longitude: '57.64037800'
- name: Saint Pierre
  state_code: MO
  state_name: Moka
  latitude: "-20.21750000"
  longitude: '57.52083000'
- name: Verdun
  state_code: MO
  state_name: Moka
  latitude: "-20.23417000"
  longitude: '57.55476000'
- name: Arsenal
  state_code: PA
  state_name: Pamplemousses
  latitude: "-20.10556000"
  longitude: '57.53528000'
- name: Calebasses
  state_code: PA
  state_name: Pamplemousses
  latitude: "-20.11167000"
  longitude: '57.55389000'
- name: Congomah
  state_code: PA
  state_name: Pamplemousses
  latitude: "-20.14889000"
  longitude: '57.59083000'
- name: Crève Coeur
  state_code: PA
  state_name: Pamplemousses
  latitude: "-20.19111000"
  longitude: '57.55722000'
- name: D'Epinay
  state_code: PA
  state_name: Pamplemousses
  latitude: "-20.13021100"
  longitude: '57.59583800'
- name: Fond du Sac
  state_code: PA
  state_name: Pamplemousses
  latitude: "-20.04732000"
  longitude: '57.58400000'
- name: Le Hochet
  state_code: PA
  state_name: Pamplemousses
  latitude: "-20.13500000"
  longitude: '57.52111000'
- name: Long Mountain
  state_code: PA
  state_name: Pamplemousses
  latitude: "-20.14306000"
  longitude: '57.56222000'
- name: Morcellement Saint André
  state_code: PA
  state_name: Pamplemousses
  latitude: "-20.07199000"
  longitude: '57.56833000'
- name: Notre Dame
  state_code: PA
  state_name: Pamplemousses
  latitude: "-20.14056000"
  longitude: '57.55306000'
- name: Pamplemousses
  state_code: PA
  state_name: Pamplemousses
  latitude: "-20.10389000"
  longitude: '57.57028000'
- name: Plaine des Papayes
  state_code: PA
  state_name: Pamplemousses
  latitude: "-20.06500000"
  longitude: '57.57250000'
- name: Pointe aux Piments
  state_code: PA
  state_name: Pamplemousses
  latitude: "-20.06494000"
  longitude: '57.52347000'
- name: Terre Rouge
  state_code: PA
  state_name: Pamplemousses
  latitude: "-20.12611000"
  longitude: '57.52444000'
- name: Tombeau Bay
  state_code: PA
  state_name: Pamplemousses
  latitude: "-20.12345100"
  longitude: '57.50218400'
- name: Triolet
  state_code: PA
  state_name: Pamplemousses
  latitude: "-20.05760000"
  longitude: '57.55025000'
- name: Trou Aux Biches
  state_code: PA
  state_name: Pamplemousses
  latitude: "-20.03123500"
  longitude: '57.55189700'
- name: Ville Bague
  state_code: PA
  state_name: Pamplemousses
  latitude: "-20.14604500"
  longitude: '57.62414900'
- name: Beau Bassin
  state_code: PW
  state_name: Plaines Wilhems
  latitude: "-20.22538700"
  longitude: '57.47145500'
- name: Beau Bassin-Rose Hill
  state_code: PW
  state_name: Plaines Wilhems
  latitude: "-20.23325000"
  longitude: '57.46609000'
- name: Belle Terre
  state_code: PW
  state_name: Plaines Wilhems
  latitude: "-20.26948370"
  longitude: '57.51655530'
- name: Camp Fouqueraux
  state_code: PW
  state_name: Plaines Wilhems
  latitude: "-20.28568630"
  longitude: '57.51718270'
- name: Chebel
  state_code: PW
  state_name: Plaines Wilhems
  latitude: "-20.21373190"
  longitude: '57.46075450'
- name: Coromandel
  state_code: PW
  state_name: Plaines Wilhems
  latitude: "-20.19522920"
  longitude: '57.44565340'
- name: Curepipe
  state_code: PW
  state_name: Plaines Wilhems
  latitude: "-20.31628000"
  longitude: '57.52594000'
- name: Eau Coulee
  state_code: PW
  state_name: Plaines Wilhems
  latitude: "-20.30336600"
  longitude: '57.52778800'
- name: Ebene
  state_code: PW
  state_name: Plaines Wilhems
  latitude: "-20.24494000"
  longitude: '57.49163000'
- name: Floreal
  state_code: PW
  state_name: Plaines Wilhems
  latitude: "-20.31121400"
  longitude: '57.50726300'
- name: Forest Side
  state_code: PW
  state_name: Plaines Wilhems
  latitude: "-20.32952100"
  longitude: '57.53898100'
- name: Glen Park
  state_code: PW
  state_name: Plaines Wilhems
  latitude: "-20.32440680"
  longitude: '57.47531880'
- name: Henrietta
  state_code: PW
  state_name: Plaines Wilhems
  latitude: "-20.27200480"
  longitude: '57.52898870'
- name: Hermitage
  state_code: PW
  state_name: Plaines Wilhems
  latitude: "-20.27685080"
  longitude: '57.53471370'
- name: Highlands
  state_code: PW
  state_name: Plaines Wilhems
  latitude: "-20.27827480"
  longitude: '57.51350410'
- name: Midlands
  state_code: PW
  state_name: Plaines Wilhems
  latitude: "-20.31907000"
  longitude: '57.57016000'
- name: Phoenix
  state_code: PW
  state_name: Plaines Wilhems
  latitude: "-20.28584460"
  longitude: '57.50291860'
- name: Quatre Bornes
  state_code: PW
  state_name: Plaines Wilhems
  latitude: "-20.26381000"
  longitude: '57.47910000'
- name: Rose Hill
  state_code: PW
  state_name: Plaines Wilhems
  latitude: "-20.24347800"
  longitude: '57.46985500'
- name: Vacoas
  state_code: PW
  state_name: Plaines Wilhems
  latitude: "-20.29806000"
  longitude: '57.47833000'
- name: Bell Village
  state_code: PL
  state_name: Port Louis
  latitude: "-20.17049700"
  longitude: '57.48618400'
- name: Caudan Waterfront
  state_code: PL
  state_name: Port Louis
  latitude: "-20.16089880"
  longitude: '57.49772560'
- name: China Town
  state_code: PL
  state_name: Port Louis
  latitude: "-20.15879700"
  longitude: '57.50678900'
- name: Les Pailles
  state_code: PL
  state_name: Port Louis
  latitude: "-20.19352700"
  longitude: '57.48962900'
- name: Les Salines
  state_code: PL
  state_name: Port Louis
  latitude: "-20.16016800"
  longitude: '57.48904100'
- name: Plaine Verte
  state_code: PL
  state_name: Port Louis
  latitude: "-20.15841000"
  longitude: '57.51421500'
- name: Pointe aux Sables
  state_code: PL
  state_name: Port Louis
  latitude: "-20.17168700"
  longitude: '57.45389300'
- name: Port Louis
  state_code: PL
  state_name: Port Louis
  latitude: "-20.16194000"
  longitude: '57.49889000'
- name: Soreze
  state_code: PL
  state_name: Port Louis
  latitude: "-20.20856100"
  longitude: '57.48638200'
- name: Tour Koenig
  state_code: PL
  state_name: Port Louis
  latitude: "-20.17864600"
  longitude: '57.46872100'
- name: Tranquebar
  state_code: PL
  state_name: Port Louis
  latitude: "-20.17681600"
  longitude: '57.51132900'
- name: Vallée des Prêtres
  state_code: PL
  state_name: Port Louis
  latitude: "-20.16514700"
  longitude: '57.53403900'
- name: Vallee Pitot
  state_code: PL
  state_name: Port Louis
  latitude: "-20.16920000"
  longitude: '57.51997000'
- name: Amaury
  state_code: RR
  state_name: Rivière du Rempart
  latitude: "-20.13083000"
  longitude: '57.65917000'
- name: Amitié Gokoola
  state_code: RR
  state_name: Rivière du Rempart
  latitude: "-20.10688300"
  longitude: '57.65472800'
- name: Cap Malheureux
  state_code: RR
  state_name: Rivière du Rempart
  latitude: "-19.98417000"
  longitude: '57.61417000'
- name: Cottage
  state_code: RR
  state_name: Rivière du Rempart
  latitude: "-20.05972000"
  longitude: '57.62917000'
- name: Espérance Trébuchet
  state_code: RR
  state_name: Rivière du Rempart
  latitude: "-20.06972000"
  longitude: '57.64194000'
- name: Goodlands
  state_code: RR
  state_name: Rivière du Rempart
  latitude: "-20.03841000"
  longitude: '57.65055000'
- name: Grand Baie
  state_code: RR
  state_name: Rivière du Rempart
  latitude: "-20.01816000"
  longitude: '57.58015000'
- name: Grand Gaube
  state_code: RR
  state_name: Rivière du Rempart
  latitude: "-20.00639000"
  longitude: '57.66083000'
- name: Mapou
  state_code: RR
  state_name: Rivière du Rempart
  latitude: "-20.07583000"
  longitude: '57.60139000'
- name: Petit Raffray
  state_code: RR
  state_name: Rivière du Rempart
  latitude: "-20.02022000"
  longitude: '57.62296000'
- name: Piton
  state_code: RR
  state_name: Rivière du Rempart
  latitude: "-20.09028000"
  longitude: '57.63028000'
- name: Plaines des Roches
  state_code: RR
  state_name: Rivière du Rempart
  latitude: "-20.11167000"
  longitude: '57.69083000'
- name: Poudre D'Or
  state_code: RR
  state_name: Rivière du Rempart
  latitude: "-20.06162700"
  longitude: '57.68297100'
- name: Poudre D'Or Hamlet
  state_code: RR
  state_name: Rivière du Rempart
  latitude: "-20.08102400"
  longitude: '57.65272600'
- name: Rivière du Rempart
  state_code: RR
  state_name: Rivière du Rempart
  latitude: "-20.10306000"
  longitude: '57.68472000'
- name: Roche Terre
  state_code: RR
  state_name: Rivière du Rempart
  latitude: "-20.01861000"
  longitude: '57.64472000'
- name: Roches Noire
  state_code: RR
  state_name: Rivière du Rempart
  latitude: "-20.11111000"
  longitude: '57.71222000'
- name: The Vale
  state_code: RR
  state_name: Rivière du Rempart
  latitude: "-20.03018000"
  longitude: '57.60219000'
- name: Baie aux Huîtres
  state_code: RO
  state_name: Rodrigues Island
  latitude: "-19.69444000"
  longitude: '63.40833000'
- name: Port Mathurin
  state_code: RO
  state_name: Rodrigues Island
  latitude: "-19.68333000"
  longitude: '63.41667000'
- name: Cargados Carajos
  state_code: CC
  state_name: Saint Brandon Islands
  latitude: "-16.60329000"
  longitude: '59.65851000'
- name: Baie Du Cap
  state_code: SA
  state_name: Savanne
  latitude: "-20.48664400"
  longitude: '57.37881500'
- name: Bel Ombre
  state_code: SA
  state_name: Savanne
  latitude: "-20.50191900"
  longitude: '57.42550700'
- name: Benares
  state_code: SA
  state_name: Savanne
  latitude: "-20.48440700"
  longitude: '57.58871700'
- name: Bois Cheri
  state_code: SA
  state_name: Savanne
  latitude: "-20.42667100"
  longitude: '57.53425200'
- name: Britannia
  state_code: SA
  state_name: Savanne
  latitude: "-20.44865500"
  longitude: '57.56340700'
- name: Camp Diable
  state_code: SA
  state_name: Savanne
  latitude: "-20.46278000"
  longitude: '57.57889000'
- name: Chamouny
  state_code: SA
  state_name: Savanne
  latitude: "-20.48222000"
  longitude: '57.46611000'
- name: Chemin Grenier
  state_code: SA
  state_name: Savanne
  latitude: "-20.48722000"
  longitude: '57.46556000'
- name: Grand Bois
  state_code: SA
  state_name: Savanne
  latitude: "-20.41889000"
  longitude: '57.54417000'
- name: L'Escalier
  state_code: SA
  state_name: Savanne
  latitude: "-20.47333500"
  longitude: '57.61867600'
- name: La Flora
  state_code: SA
  state_name: Savanne
  latitude: "-20.41000500"
  longitude: '57.56048700'
- name: Rivière des Anguilles
  state_code: SA
  state_name: Savanne
  latitude: "-20.48528000"
  longitude: '57.55083000'
- name: Rivière Du Poste
  state_code: SA
  state_name: Savanne
  latitude: "-20.42866200"
  longitude: '57.57368100'
- name: Saint Aubin
  state_code: SA
  state_name: Savanne
  latitude: "-20.49600000"
  longitude: '57.55000000'
- name: Souillac
  state_code: SA
  state_name: Savanne
  latitude: "-20.51667000"
  longitude: '57.51667000'
- name: St Aubin
  state_code: SA
  state_name: Savanne
  latitude: "-20.49444600"
  longitude: '57.55033500'
- name: Surinam
  state_code: SA
  state_name: Savanne
  latitude: "-20.50972000"
  longitude: '57.50528000'
