---
- name: Bakri
  state_code: '01'
  state_name: Johor
  latitude: '2.04410000'
  longitude: '102.65270000'
- name: Batu Pahat
  state_code: '01'
  state_name: Johor
  latitude: '1.85480000'
  longitude: '102.93250000'
- name: Buloh Kasap
  state_code: '01'
  state_name: Johor
  latitude: '2.55360000'
  longitude: '102.76400000'
- name: Chaah
  state_code: '01'
  state_name: Johor
  latitude: '2.24900000'
  longitude: '103.04800000'
- name: Daerah Batu Pahat
  state_code: '01'
  state_name: Johor
  latitude: '1.93333000'
  longitude: '103.00000000'
- name: Daerah Johor Baharu
  state_code: '01'
  state_name: Johor
  latitude: '1.65000000'
  longitude: '103.60000000'
- name: Daerah Keluang
  state_code: '01'
  state_name: Johor
  latitude: '2.20000000'
  longitude: '103.33333000'
- name: Daerah Kota Tinggi
  state_code: '01'
  state_name: Johor
  latitude: '1.81667000'
  longitude: '103.96667000'
- name: Daerah Mersing
  state_code: '01'
  state_name: Johor
  latitude: '2.31667000'
  longitude: '103.71667000'
- name: Daerah Muar
  state_code: '01'
  state_name: Johor
  latitude: '2.25000000'
  longitude: '102.75000000'
- name: Daerah Pontian
  state_code: '01'
  state_name: Johor
  latitude: '1.50000000'
  longitude: '103.50000000'
- name: Daerah Segamat
  state_code: '01'
  state_name: Johor
  latitude: '2.60000000'
  longitude: '102.81667000'
- name: Johor Bahru
  state_code: '01'
  state_name: Johor
  latitude: '1.46550000'
  longitude: '103.75780000'
- name: Kampung Pasir Gudang Baru
  state_code: '01'
  state_name: Johor
  latitude: '1.47260000'
  longitude: '103.87800000'
- name: Kampung Simpang Renggam
  state_code: '01'
  state_name: Johor
  latitude: '1.82780000'
  longitude: '103.30000000'
- name: Kelapa Sawit
  state_code: '01'
  state_name: Johor
  latitude: '1.66980000'
  longitude: '103.53270000'
- name: Kluang
  state_code: '01'
  state_name: Johor
  latitude: '2.03046000'
  longitude: '103.31689000'
- name: Kota Tinggi
  state_code: '01'
  state_name: Johor
  latitude: '1.73810000'
  longitude: '103.89990000'
- name: Kulai
  state_code: '01'
  state_name: Johor
  latitude: '1.65610000'
  longitude: '103.60320000'
- name: Labis
  state_code: '01'
  state_name: Johor
  latitude: '2.38500000'
  longitude: '103.02100000'
- name: Mersing
  state_code: '01'
  state_name: Johor
  latitude: '2.43120000'
  longitude: '103.84050000'
- name: Muar
  state_code: '01'
  state_name: Johor
  latitude: '2.04420000'
  longitude: '102.56890000'
- name: Parit Raja
  state_code: '01'
  state_name: Johor
  latitude: '1.86810000'
  longitude: '103.11240000'
- name: Pekan Nenas
  state_code: '01'
  state_name: Johor
  latitude: '1.51000000'
  longitude: '103.51410000'
- name: Pontian Kechil
  state_code: '01'
  state_name: Johor
  latitude: '1.48660000'
  longitude: '103.38960000'
- name: Segamat
  state_code: '01'
  state_name: Johor
  latitude: '2.51480000'
  longitude: '102.81580000'
- name: Skudai
  state_code: '01'
  state_name: Johor
  latitude: '1.53741000'
  longitude: '103.65779000'
- name: Taman Senai
  state_code: '01'
  state_name: Johor
  latitude: '1.60060000'
  longitude: '103.64190000'
- name: Tangkak
  state_code: '01'
  state_name: Johor
  latitude: '2.26730000'
  longitude: '102.54530000'
- name: Ulu Tiram
  state_code: '01'
  state_name: Johor
  latitude: '1.60000000'
  longitude: '103.81667000'
- name: Yong Peng
  state_code: '01'
  state_name: Johor
  latitude: '2.01360000'
  longitude: '103.06590000'
- name: Alor Setar
  state_code: '02'
  state_name: Kedah
  latitude: '6.12104000'
  longitude: '100.36014000'
- name: Ayer Hangat
  state_code: '02'
  state_name: Kedah
  latitude: '6.42062000'
  longitude: '99.82199000'
- name: Bedong
  state_code: '02'
  state_name: Kedah
  latitude: '5.72743000'
  longitude: '100.50876000'
- name: Gurun
  state_code: '02'
  state_name: Kedah
  latitude: '5.81717000'
  longitude: '100.47381000'
- name: Jitra
  state_code: '02'
  state_name: Kedah
  latitude: '6.26812000'
  longitude: '100.42167000'
- name: Kampung Kilim
  state_code: '02'
  state_name: Kedah
  latitude: '6.40550000'
  longitude: '99.85020000'
- name: Kampung Kok
  state_code: '02'
  state_name: Kedah
  latitude: '6.36759000'
  longitude: '99.68252000'
- name: Kuah
  state_code: '02'
  state_name: Kedah
  latitude: '6.32649000'
  longitude: '99.84320000'
- name: Kuala Kedah
  state_code: '02'
  state_name: Kedah
  latitude: '6.10000000'
  longitude: '100.30000000'
- name: Kuala Teriang
  state_code: '02'
  state_name: Kedah
  latitude: '6.36377000'
  longitude: '99.71532000'
- name: Kulim
  state_code: '02'
  state_name: Kedah
  latitude: '5.36499000'
  longitude: '100.56177000'
- name: Langkawi
  state_code: '02'
  state_name: Kedah
  latitude: '6.35608000'
  longitude: '99.78375000'
- name: Padang Mat Sirat
  state_code: '02'
  state_name: Kedah
  latitude: '6.35423000'
  longitude: '99.73404000'
- name: Sungai Petani
  state_code: '02'
  state_name: Kedah
  latitude: '5.64700000'
  longitude: '100.48772000'
- name: Gua Musang
  state_code: '03'
  state_name: Kelantan
  latitude: '4.88441000'
  longitude: '101.96857000'
- name: Kampong Kadok
  state_code: '03'
  state_name: Kelantan
  latitude: '6.00000000'
  longitude: '102.25000000'
- name: Kampong Pangkal Kalong
  state_code: '03'
  state_name: Kelantan
  latitude: '5.91667000'
  longitude: '102.21667000'
- name: Kota Bharu
  state_code: '03'
  state_name: Kelantan
  latitude: '6.12361000'
  longitude: '102.24333000'
- name: Pasir Mas
  state_code: '03'
  state_name: Kelantan
  latitude: '6.04934000'
  longitude: '102.13987000'
- name: Peringat
  state_code: '03'
  state_name: Kelantan
  latitude: '6.03333000'
  longitude: '102.28333000'
- name: Tumpat
  state_code: '03'
  state_name: Kelantan
  latitude: '6.19775000'
  longitude: '102.17098000'
- name: Kuala Lumpur
  state_code: '14'
  state_name: Kuala Lumpur
  latitude: '3.14120000'
  longitude: '101.68653000'
- name: Labuan
  state_code: '15'
  state_name: Labuan
  latitude: '5.28028000'
  longitude: '115.24750000'
- name: Alor Gajah
  state_code: '04'
  state_name: Malacca
  latitude: '2.38040000'
  longitude: '102.20890000'
- name: Batu Berendam
  state_code: '04'
  state_name: Malacca
  latitude: '2.24870000'
  longitude: '102.24600000'
- name: Bemban
  state_code: '04'
  state_name: Malacca
  latitude: '2.26840000'
  longitude: '102.37460000'
- name: Bukit Rambai
  state_code: '04'
  state_name: Malacca
  latitude: '2.25940000'
  longitude: '102.18380000'
- name: Kampong Masjid Tanah
  state_code: '04'
  state_name: Malacca
  latitude: '2.35000000'
  longitude: '102.11667000'
- name: Kampung Ayer Keroh
  state_code: '04'
  state_name: Malacca
  latitude: '2.26540000'
  longitude: '102.28010000'
- name: Kampung Ayer Molek
  state_code: '04'
  state_name: Malacca
  latitude: '2.21390000'
  longitude: '102.32780000'
- name: Kampung Bukit Baharu
  state_code: '04'
  state_name: Malacca
  latitude: '2.21520000'
  longitude: '102.28510000'
- name: Klebang Besar
  state_code: '04'
  state_name: Malacca
  latitude: '2.21860000'
  longitude: '102.19950000'
- name: Kuala Sungai Baru
  state_code: '04'
  state_name: Malacca
  latitude: '2.35940000'
  longitude: '102.03530000'
- name: Malacca
  state_code: '04'
  state_name: Malacca
  latitude: '2.19600000'
  longitude: '102.24050000'
- name: Pulau Sebang
  state_code: '04'
  state_name: Malacca
  latitude: '2.45500000'
  longitude: '102.23290000'
- name: Sungai Udang
  state_code: '04'
  state_name: Malacca
  latitude: '2.26900000'
  longitude: '102.14270000'
- name: Bahau
  state_code: '05'
  state_name: Negeri Sembilan
  latitude: '2.80790000'
  longitude: '102.40490000'
- name: Kampung Baharu Nilai
  state_code: '05'
  state_name: Negeri Sembilan
  latitude: '2.80330000'
  longitude: '101.79720000'
- name: Kuala Pilah
  state_code: '05'
  state_name: Negeri Sembilan
  latitude: '2.73890000'
  longitude: '102.24870000'
- name: Port Dickson
  state_code: '05'
  state_name: Negeri Sembilan
  latitude: '2.53718000'
  longitude: '101.80571000'
- name: Seremban
  state_code: '05'
  state_name: Negeri Sembilan
  latitude: '2.72970000'
  longitude: '101.93810000'
- name: Tampin
  state_code: '05'
  state_name: Negeri Sembilan
  latitude: '2.47010000'
  longitude: '102.23020000'
- name: Bentong Town
  state_code: '06'
  state_name: Pahang
  latitude: '3.52229000'
  longitude: '101.90866000'
- name: Jerantut
  state_code: '06'
  state_name: Pahang
  latitude: '3.93600000'
  longitude: '102.36260000'
- name: Kampung Bukit Tinggi Bentong
  state_code: '06'
  state_name: Pahang
  latitude: '3.34944000'
  longitude: '101.82631000'
- name: Kampung Tekek
  state_code: '06'
  state_name: Pahang
  latitude: '2.81470000'
  longitude: '104.15920000'
- name: Kuala Lipis
  state_code: '06'
  state_name: Pahang
  latitude: '4.18420000'
  longitude: '102.04680000'
- name: Kuantan
  state_code: '06'
  state_name: Pahang
  latitude: '3.80770000'
  longitude: '103.32600000'
- name: Mentekab
  state_code: '06'
  state_name: Pahang
  latitude: '3.48540000'
  longitude: '102.34840000'
- name: Pekan
  state_code: '06'
  state_name: Pahang
  latitude: '3.48360000'
  longitude: '103.39960000'
- name: Raub
  state_code: '06'
  state_name: Pahang
  latitude: '3.78990000'
  longitude: '101.85700000'
- name: Tanah Rata
  state_code: '06'
  state_name: Pahang
  latitude: '4.46361000'
  longitude: '101.37630000'
- name: Temerluh
  state_code: '06'
  state_name: Pahang
  latitude: '3.45060000'
  longitude: '102.41760000'
- name: Batu Feringgi
  state_code: '07'
  state_name: Penang
  latitude: '5.47090000'
  longitude: '100.24529000'
- name: Bukit Mertajam
  state_code: '07'
  state_name: Penang
  latitude: '5.36301000'
  longitude: '100.46670000'
- name: Butterworth
  state_code: '07'
  state_name: Penang
  latitude: '5.39910000'
  longitude: '100.36382000'
- name: George Town
  state_code: '07'
  state_name: Penang
  latitude: '5.41123000'
  longitude: '100.33543000'
- name: Juru
  state_code: '07'
  state_name: Penang
  latitude: '5.31201000'
  longitude: '100.44229000'
- name: Kampung Batu Feringgi
  state_code: '07'
  state_name: Penang
  latitude: '5.46948000'
  longitude: '100.24449000'
- name: Kampung Sungai Ara
  state_code: '07'
  state_name: Penang
  latitude: '5.32699000'
  longitude: '100.27348000'
- name: Kepala Batas
  state_code: '07'
  state_name: Penang
  latitude: '5.51707000'
  longitude: '100.42650000'
- name: Nibong Tebal
  state_code: '07'
  state_name: Penang
  latitude: '5.16586000'
  longitude: '100.47793000'
- name: Perai
  state_code: '07'
  state_name: Penang
  latitude: '5.38333000'
  longitude: '100.38333000'
- name: Permatang Kuching
  state_code: '07'
  state_name: Penang
  latitude: '5.46339000'
  longitude: '100.38144000'
- name: Seberang Perai
  state_code: '07'
  state_name: Penang
  latitude: '5.38770000'
  longitude: '100.42603000'
- name: Tanjung Tokong
  state_code: '07'
  state_name: Penang
  latitude: '5.46061000'
  longitude: '100.30742000'
- name: Tasek Glugor
  state_code: '07'
  state_name: Penang
  latitude: '5.48032000'
  longitude: '100.49849000'
- name: Telaga Batu
  state_code: '07'
  state_name: Penang
  latitude: '5.46667000'
  longitude: '100.23333000'
- name: Bagan Serai
  state_code: '08'
  state_name: Perak
  latitude: '5.01080000'
  longitude: '100.54101000'
- name: Batu Gajah
  state_code: '08'
  state_name: Perak
  latitude: '4.46916000'
  longitude: '101.04107000'
- name: Bidur
  state_code: '08'
  state_name: Perak
  latitude: '4.11667000'
  longitude: '101.28333000'
- name: Ipoh
  state_code: '08'
  state_name: Perak
  latitude: '4.58410000'
  longitude: '101.08290000'
- name: Kampar
  state_code: '08'
  state_name: Perak
  latitude: '4.30000000'
  longitude: '101.15000000'
- name: Kampong Dungun
  state_code: '08'
  state_name: Perak
  latitude: '3.21667000'
  longitude: '101.31667000'
- name: Kuala Kangsar
  state_code: '08'
  state_name: Perak
  latitude: '4.76667000'
  longitude: '100.93333000'
- name: Lumut
  state_code: '08'
  state_name: Perak
  latitude: '4.23230000'
  longitude: '100.62980000'
- name: Pantai Remis
  state_code: '08'
  state_name: Perak
  latitude: '4.45570000'
  longitude: '100.62880000'
- name: Parit Buntar
  state_code: '08'
  state_name: Perak
  latitude: '5.12671000'
  longitude: '100.49316000'
- name: Simpang Empat
  state_code: '08'
  state_name: Perak
  latitude: '4.95000000'
  longitude: '100.63333000'
- name: Taiping
  state_code: '08'
  state_name: Perak
  latitude: '4.85000000'
  longitude: '100.73333000'
- name: Tapah Road
  state_code: '08'
  state_name: Perak
  latitude: '4.16667000'
  longitude: '101.20000000'
- name: Teluk Intan
  state_code: '08'
  state_name: Perak
  latitude: '4.02219000'
  longitude: '101.02083000'
- name: Kangar
  state_code: '09'
  state_name: Perlis
  latitude: '6.44140000'
  longitude: '100.19862000'
- name: Kuala Perlis
  state_code: '09'
  state_name: Perlis
  latitude: '6.40000000'
  longitude: '100.13333000'
- name: Pantai Cenang
  state_code: '09'
  state_name: Perlis
  latitude: '6.29369000'
  longitude: '99.72786000'
- name: Putrajaya
  state_code: '16'
  state_name: Putrajaya
  latitude: '2.93527000'
  longitude: '101.69112000'
- name: Bandar Labuan
  state_code: '12'
  state_name: Sabah
  latitude: '5.28883000'
  longitude: '115.26924000'
- name: Beaufort
  state_code: '12'
  state_name: Sabah
  latitude: '5.34730000'
  longitude: '115.74550000'
- name: Donggongon
  state_code: '12'
  state_name: Sabah
  latitude: '5.90702000'
  longitude: '116.10146000'
- name: Keningau
  state_code: '12'
  state_name: Sabah
  latitude: '5.33780000'
  longitude: '116.16020000'
- name: Kinarut
  state_code: '12'
  state_name: Sabah
  latitude: '5.82310000'
  longitude: '116.04660000'
- name: Kota Belud
  state_code: '12'
  state_name: Sabah
  latitude: '6.35100000'
  longitude: '116.43050000'
- name: Kota Kinabalu
  state_code: '12'
  state_name: Sabah
  latitude: '5.97490000'
  longitude: '116.07240000'
- name: Kudat
  state_code: '12'
  state_name: Sabah
  latitude: '6.88732000'
  longitude: '116.82364000'
- name: Lahad Datu
  state_code: '12'
  state_name: Sabah
  latitude: '5.02298000'
  longitude: '118.32897000'
- name: Papar
  state_code: '12'
  state_name: Sabah
  latitude: '5.73333000'
  longitude: '115.93333000'
- name: Putatan
  state_code: '12'
  state_name: Sabah
  latitude: '5.92580000'
  longitude: '116.06094000'
- name: Ranau
  state_code: '12'
  state_name: Sabah
  latitude: '5.95380000'
  longitude: '116.66410000'
- name: Sandakan
  state_code: '12'
  state_name: Sabah
  latitude: '5.84020000'
  longitude: '118.11790000'
- name: Semporna
  state_code: '12'
  state_name: Sabah
  latitude: '4.48178000'
  longitude: '118.61119000'
- name: Taman Rajawali
  state_code: '12'
  state_name: Sabah
  latitude: '5.89477000'
  longitude: '118.04576000'
- name: Tawau
  state_code: '12'
  state_name: Sabah
  latitude: '4.24482000'
  longitude: '117.89115000'
- name: Bintulu
  state_code: '13'
  state_name: Sarawak
  latitude: '3.16667000'
  longitude: '113.03333000'
- name: Data Kakus
  state_code: '13'
  state_name: Sarawak
  latitude: '2.65465000'
  longitude: '113.62249000'
- name: Kapit
  state_code: '13'
  state_name: Sarawak
  latitude: '1.99546000'
  longitude: '112.93254000'
- name: Kuching
  state_code: '13'
  state_name: Sarawak
  latitude: '1.55000000'
  longitude: '110.33333000'
- name: Lawas
  state_code: '13'
  state_name: Sarawak
  latitude: '4.86040000'
  longitude: '115.40900000'
- name: Lidung Jelo
  state_code: '13'
  state_name: Sarawak
  latitude: '2.64848000'
  longitude: '114.78653000'
- name: Limbang
  state_code: '13'
  state_name: Sarawak
  latitude: '4.75000000'
  longitude: '115.00000000'
- name: Long Ampan Aing or Abanang
  state_code: '13'
  state_name: Sarawak
  latitude: '2.65671000'
  longitude: '114.73675000'
- name: Marudi
  state_code: '13'
  state_name: Sarawak
  latitude: '4.18333000'
  longitude: '114.31667000'
- name: Miri
  state_code: '13'
  state_name: Sarawak
  latitude: '4.39928000'
  longitude: '113.99163000'
- name: Mukah
  state_code: '13'
  state_name: Sarawak
  latitude: '2.89435000'
  longitude: '112.09145000'
- name: Sarikei
  state_code: '13'
  state_name: Sarawak
  latitude: '2.11667000'
  longitude: '111.51667000'
- name: Sibu
  state_code: '13'
  state_name: Sarawak
  latitude: '2.30000000'
  longitude: '111.81667000'
- name: Simanggang
  state_code: '13'
  state_name: Sarawak
  latitude: '1.24722000'
  longitude: '111.45278000'
- name: Ampang
  state_code: '10'
  state_name: Selangor
  latitude: '3.15000000'
  longitude: '101.76667000'
- name: Bagan Pulau Ketam
  state_code: '10'
  state_name: Selangor
  latitude: '3.01667000'
  longitude: '101.26667000'
- name: Banting
  state_code: '10'
  state_name: Selangor
  latitude: '2.81360000'
  longitude: '101.50185000'
- name: Batang Berjuntai
  state_code: '10'
  state_name: Selangor
  latitude: '3.38333000'
  longitude: '101.41667000'
- name: Batu Arang
  state_code: '10'
  state_name: Selangor
  latitude: '3.31667000'
  longitude: '101.46667000'
- name: Jenjarum
  state_code: '10'
  state_name: Selangor
  latitude: '2.87240000'
  longitude: '101.49484000'
- name: Kampong Baharu Balakong
  state_code: '10'
  state_name: Selangor
  latitude: '3.03333000'
  longitude: '101.75000000'
- name: Kampung Baru Subang
  state_code: '10'
  state_name: Selangor
  latitude: '3.15000000'
  longitude: '101.53333000'
- name: Kampung Tanjung Karang
  state_code: '10'
  state_name: Selangor
  latitude: '3.42420000'
  longitude: '101.18490000'
- name: Klang
  state_code: '10'
  state_name: Selangor
  latitude: '3.03667000'
  longitude: '101.44333000'
- name: Kuala Selangor
  state_code: '10'
  state_name: Selangor
  latitude: '3.35000000'
  longitude: '101.25000000'
- name: Kuang
  state_code: '10'
  state_name: Selangor
  latitude: '3.25940000'
  longitude: '101.55410000'
- name: Ladang Seri Kundang
  state_code: '10'
  state_name: Selangor
  latitude: '3.28560000'
  longitude: '101.51900000'
- name: Pelabuhan Klang
  state_code: '10'
  state_name: Selangor
  latitude: '2.99959000'
  longitude: '101.39287000'
- name: Petaling Jaya
  state_code: '10'
  state_name: Selangor
  latitude: '3.10726000'
  longitude: '101.60671000'
- name: Puchong
  state_code: '10'
  state_name: Selangor
  latitude: '3.03270000'
  longitude: '101.61880000'
- name: Putra Heights
  state_code: '10'
  state_name: Selangor
  latitude: '2.99361000'
  longitude: '101.57255000'
- name: Rawang
  state_code: '10'
  state_name: Selangor
  latitude: '3.32130000'
  longitude: '101.57670000'
- name: Semenyih
  state_code: '10'
  state_name: Selangor
  latitude: '2.95160000'
  longitude: '101.84300000'
- name: Serendah
  state_code: '10'
  state_name: Selangor
  latitude: '3.36460000'
  longitude: '101.60410000'
- name: Shah Alam
  state_code: '10'
  state_name: Selangor
  latitude: '3.08507000'
  longitude: '101.53281000'
- name: Subang Jaya
  state_code: '10'
  state_name: Selangor
  latitude: '3.04384000'
  longitude: '101.58062000'
- name: Sungai Besar
  state_code: '10'
  state_name: Selangor
  latitude: '3.67460000'
  longitude: '100.98670000'
- name: Sungai Pelek New Village
  state_code: '10'
  state_name: Selangor
  latitude: '2.65000000'
  longitude: '101.70000000'
- name: Tanjung Sepat
  state_code: '10'
  state_name: Selangor
  latitude: '2.65790000'
  longitude: '101.56290000'
- name: Cukai
  state_code: '11'
  state_name: Terengganu
  latitude: '4.25000000'
  longitude: '103.41667000'
- name: Jertih
  state_code: '11'
  state_name: Terengganu
  latitude: '5.73360000'
  longitude: '102.48970000'
- name: Kampung Kuala Besut
  state_code: '11'
  state_name: Terengganu
  latitude: '5.83297000'
  longitude: '102.55061000'
- name: Kertih
  state_code: '11'
  state_name: Terengganu
  latitude: '4.51410000'
  longitude: '103.44830000'
- name: Kuala Besut
  state_code: '11'
  state_name: Terengganu
  latitude: '5.83303000'
  longitude: '102.55514000'
- name: Kuala Terengganu
  state_code: '11'
  state_name: Terengganu
  latitude: '5.33020000'
  longitude: '103.14080000'
- name: Marang
  state_code: '11'
  state_name: Terengganu
  latitude: '5.20560000'
  longitude: '103.20590000'
- name: Paka
  state_code: '11'
  state_name: Terengganu
  latitude: '4.63740000'
  longitude: '103.43680000'
