---
- name: Bhaktapur
  state_code: '3'
  state_name: Bagmati
  latitude: '27.67743440'
  longitude: '85.40386700'
- name: Chitwan
  state_code: '3'
  state_name: Bagmati
  latitude: '27.61953620'
  longitude: '84.02793400'
- name: Dhading
  state_code: '3'
  state_name: Bagmati
  latitude: '28.00725840'
  longitude: '84.28464170'
- name: Dolakha
  state_code: '3'
  state_name: Bagmati
  latitude: '27.82371900'
  longitude: '85.55991890'
- name: Kathmandu
  state_code: '3'
  state_name: Bagmati
  latitude: '27.70903020'
  longitude: '85.28493270'
- name: Kavrepalanchok
  state_code: '3'
  state_name: Bagmati
  latitude: '27.54539810'
  longitude: '85.30416730'
- name: Lalitpur
  state_code: '3'
  state_name: Bagmati
  latitude: '27.54820230'
  longitude: '85.04201470'
- name: Makwanpur
  state_code: '3'
  state_name: Bagmati
  latitude: '27.43720820'
  longitude: '84.75780400'
- name: Nuwakot
  state_code: '3'
  state_name: Bagmati
  latitude: '27.92205490'
  longitude: '84.05968460'
- name: Ramechhap
  state_code: '3'
  state_name: Bagmati
  latitude: '27.53749850'
  longitude: '85.85535100'
- name: Rasuwa
  state_code: '3'
  state_name: Bagmati
  latitude: '28.17177410'
  longitude: '84.27823120'
- name: Sindhuli
  state_code: '3'
  state_name: Bagmati
  latitude: '27.18469330'
  longitude: '85.24437150'
- name: Sindhupalchok
  state_code: '3'
  state_name: Bagmati
  latitude: '27.90711960'
  longitude: '85.42360670'
- name: 'Baglung '
  state_code: '4'
  state_name: Gandaki
  latitude: '28.27711640'
  longitude: '83.54353530'
- name: 'Gorkha '
  state_code: '4'
  state_name: Gandaki
  latitude: '28.27346270'
  longitude: '84.14877700'
- name: Kaski
  state_code: '4'
  state_name: Gandaki
  latitude: '28.34572360'
  longitude: '83.65987310'
- name: 'Lamjung '
  state_code: '4'
  state_name: Gandaki
  latitude: '28.28305670'
  longitude: '84.11103120'
- name: 'Manang '
  state_code: '4'
  state_name: Gandaki
  latitude: '28.66872810'
  longitude: '82.99681360'
- name: 'Mustang '
  state_code: '4'
  state_name: Gandaki
  latitude: '28.94399870'
  longitude: '82.68067390'
- name: 'Myagdi '
  state_code: '4'
  state_name: Gandaki
  latitude: '28.54609860'
  longitude: '83.15597750'
- name: 'Nawalpur '
  state_code: '4'
  state_name: Gandaki
  latitude: '27.65319650'
  longitude: '83.72442870'
- name: 'Parbat '
  state_code: '4'
  state_name: Gandaki
  latitude: '28.20276430'
  longitude: '83.36121860'
- name: 'Syangja '
  state_code: '4'
  state_name: Gandaki
  latitude: '28.04509710'
  longitude: '83.40612700'
- name: 'Tanahun '
  state_code: '4'
  state_name: Gandaki
  latitude: '27.93565560'
  longitude: '83.91793110'
- name: 'Dailekh '
  state_code: '6'
  state_name: Karnali
  latitude: '28.88480530'
  longitude: '81.33871970'
- name: 'Dolpa '
  state_code: '6'
  state_name: Karnali
  latitude: '29.21372390'
  longitude: '82.37667750'
- name: 'Humla '
  state_code: '6'
  state_name: Karnali
  latitude: '30.02557030'
  longitude: '81.21732030'
- name: 'Jajarkot '
  state_code: '6'
  state_name: Karnali
  latitude: '28.86955260'
  longitude: '81.87033700'
- name: Jumla
  state_code: '6'
  state_name: Karnali
  latitude: '29.23886510'
  longitude: '81.88899740'
- name: 'Kalikot '
  state_code: '6'
  state_name: Karnali
  latitude: '29.21645520'
  longitude: '81.41396150'
- name: Mugu
  state_code: '6'
  state_name: Karnali
  latitude: '29.67782880'
  longitude: '81.63611370'
- name: 'Salyan '
  state_code: '6'
  state_name: Karnali
  latitude: '28.40693490'
  longitude: '81.76058940'
- name: 'Surkhet '
  state_code: '6'
  state_name: Karnali
  latitude: '28.65735870'
  longitude: '80.85115200'
- name: Western Rukum
  state_code: '6'
  state_name: Karnali
  latitude: '28.75665210'
  longitude: '82.11273090'
- name: Bhojpur
  state_code: '1'
  state_name: Koshi
  latitude: '27.16432030'
  longitude: '86.97399080'
- name: Dhankuta
  state_code: '1'
  state_name: Koshi
  latitude: '26.98445610'
  longitude: '87.24311290'
- name: Ilam
  state_code: '1'
  state_name: Koshi
  latitude: '26.89856010'
  longitude: '87.88160070'
- name: Jhapa
  state_code: '1'
  state_name: Koshi
  latitude: '26.58377460'
  longitude: '87.58265500'
- name: Khotang
  state_code: '1'
  state_name: Koshi
  latitude: '27.15640300'
  longitude: '86.37601470'
- name: Morang
  state_code: '1'
  state_name: Koshi
  latitude: '26.61072710'
  longitude: '87.13496260'
- name: Okhaldhunga
  state_code: '1'
  state_name: Koshi
  latitude: '27.33668120'
  longitude: '86.11507710'
- name: Panchthar
  state_code: '1'
  state_name: Koshi
  latitude: '27.14929510'
  longitude: '87.45396980'
- name: 'Sankhuwasabha '
  state_code: '1'
  state_name: Koshi
  latitude: '27.54665800'
  longitude: '86.64912720'
- name: Solukhumbu
  state_code: '1'
  state_name: Koshi
  latitude: '27.72514640'
  longitude: '86.02324040'
- name: Sunsari
  state_code: '1'
  state_name: Koshi
  latitude: '26.64116460'
  longitude: '86.79919520'
- name: Taplejung
  state_code: '1'
  state_name: Koshi
  latitude: '27.61014090'
  longitude: '87.16355390'
- name: Terhathum
  state_code: '1'
  state_name: Koshi
  latitude: '27.13268960'
  longitude: '87.40691430'
- name: Udayapur
  state_code: '1'
  state_name: Koshi
  latitude: '26.93274070'
  longitude: '86.00264640'
- name: 'Arghakhanchi '
  state_code: '5'
  state_name: Lumbini
  latitude: '27.93234540'
  longitude: '82.70966110'
- name: Banke
  state_code: '5'
  state_name: Lumbini
  latitude: '28.09593710'
  longitude: '81.51662830'
- name: 'Bardiya '
  state_code: '5'
  state_name: Lumbini
  latitude: '28.37201670'
  longitude: '81.08316830'
- name: 'Dang '
  state_code: '5'
  state_name: Lumbini
  latitude: '27.88865620'
  longitude: '79.29702080'
- name: Eastern Rukum
  state_code: '5'
  state_name: Lumbini
  latitude: '28.67248040'
  longitude: '82.48940030'
- name: 'Gulmi '
  state_code: '5'
  state_name: Lumbini
  latitude: '28.09597820'
  longitude: '82.98379720'
- name: 'Kapilvastu '
  state_code: '5'
  state_name: Lumbini
  latitude: '27.54506960'
  longitude: '82.97552520'
- name: Nawalparasi (West of Bardaghat Susta)
  state_code: '5'
  state_name: Lumbini
  latitude: '27.51977900'
  longitude: '83.40494810'
- name: 'Palpa '
  state_code: '5'
  state_name: Lumbini
  latitude: '27.81068740'
  longitude: '83.30000220'
- name: 'Pyuthan '
  state_code: '5'
  state_name: Lumbini
  latitude: '28.10805440'
  longitude: '82.78532440'
- name: 'Rolpa '
  state_code: '5'
  state_name: Lumbini
  latitude: '28.32573400'
  longitude: '82.32376150'
- name: 'Rupandehi '
  state_code: '5'
  state_name: Lumbini
  latitude: '27.54931420'
  longitude: '83.08930670'
- name: 'Bara '
  state_code: '2'
  state_name: Madhesh
  latitude: '27.10766310'
  longitude: '84.73878940'
- name: 'Dhanusha '
  state_code: '2'
  state_name: Madhesh
  latitude: '26.85112570'
  longitude: '85.72433070'
- name: 'Mahottari '
  state_code: '2'
  state_name: Madhesh
  latitude: '26.88439340'
  longitude: '85.21963240'
- name: 'Parsa '
  state_code: '2'
  state_name: Madhesh
  latitude: '27.21960860'
  longitude: '83.54541570'
- name: 'Rautahat '
  state_code: '2'
  state_name: Madhesh
  latitude: '26.98892410'
  longitude: '85.00379450'
- name: 'Saptari '
  state_code: '2'
  state_name: Madhesh
  latitude: '26.60706670'
  longitude: '86.42052270'
- name: 'Sarlahi '
  state_code: '2'
  state_name: Madhesh
  latitude: '26.96861190'
  longitude: '85.23906480'
- name: 'Siraha '
  state_code: '2'
  state_name: Madhesh
  latitude: '26.74287390'
  longitude: '86.01304490'
- name: 'Achham '
  state_code: '7'
  state_name: Sudurpashchim
  latitude: '29.06759620'
  longitude: '80.97452850'
- name: 'Baitadi '
  state_code: '7'
  state_name: Sudurpashchim
  latitude: '29.50832630'
  longitude: '80.24534200'
- name: 'Bajhang '
  state_code: '7'
  state_name: Sudurpashchim
  latitude: '29.72211100'
  longitude: '80.49591420'
- name: 'Bajura '
  state_code: '7'
  state_name: Sudurpashchim
  latitude: '29.61008120'
  longitude: '80.82948020'
- name: 'Dadeldhura '
  state_code: '7'
  state_name: Sudurpashchim
  latitude: '29.20934090'
  longitude: '80.15536460'
- name: 'Darchula '
  state_code: '7'
  state_name: Sudurpashchim
  latitude: '29.59606420'
  longitude: '80.05743430'
- name: 'Doti '
  state_code: '7'
  state_name: Sudurpashchim
  latitude: '29.18833610'
  longitude: '80.52682610'
- name: 'Kailali '
  state_code: '7'
  state_name: Sudurpashchim
  latitude: '28.73090610'
  longitude: '80.21847770'
- name: 'Kanchanpur '
  state_code: '7'
  state_name: Sudurpashchim
  latitude: '28.84471200'
  longitude: '79.97926950'
