---
- name: Bagua Grande
  state_code: AMA
  state_name: Amazonas
  latitude: "-5.75611000"
  longitude: "-78.44111000"
- name: Cajaruro
  state_code: AMA
  state_name: Amazonas
  latitude: "-5.73639000"
  longitude: "-78.42556000"
- name: Chachapoyas
  state_code: AMA
  state_name: Amazonas
  latitude: "-6.23169000"
  longitude: "-77.86903000"
- name: Condorcanqui
  state_code: AMA
  state_name: Amazonas
  latitude: "-4.16515000"
  longitude: "-78.03840000"
- name: La Peca
  state_code: AMA
  state_name: Amazonas
  latitude: "-5.61111000"
  longitude: "-78.43500000"
- name: Provincia de Bagua
  state_code: AMA
  state_name: Amazonas
  latitude: "-5.09006000"
  longitude: "-78.39972000"
- name: Provincia de Bongará
  state_code: AMA
  state_name: Amazonas
  latitude: "-5.68341000"
  longitude: "-77.87308000"
- name: Provincia de Chachapoyas
  state_code: AMA
  state_name: Amazonas
  latitude: "-6.27480000"
  longitude: "-77.81067000"
- name: Provincia de Luya
  state_code: AMA
  state_name: Amazonas
  latitude: "-6.41667000"
  longitude: "-78.00000000"
- name: Provincia de Rodríguez de Mendoza
  state_code: AMA
  state_name: Amazonas
  latitude: "-6.33333000"
  longitude: "-77.41667000"
- name: Utcubamba
  state_code: AMA
  state_name: Amazonas
  latitude: "-5.77031000"
  longitude: "-78.32850000"
- name: Asuncion
  state_code: ANC
  state_name: Áncash
  latitude: "-9.18987000"
  longitude: "-77.39878000"
- name: Carás
  state_code: ANC
  state_name: Áncash
  latitude: "-9.04692000"
  longitude: "-77.80901000"
- name: Carhuaz
  state_code: ANC
  state_name: Áncash
  latitude: "-9.28194000"
  longitude: "-77.64472000"
- name: Carlos Fermin Fitzcarrald
  state_code: ANC
  state_name: Áncash
  latitude: "-9.04415000"
  longitude: "-77.24168000"
- name: Chimbote
  state_code: ANC
  state_name: Áncash
  latitude: "-9.08528000"
  longitude: "-78.57833000"
- name: Coishco
  state_code: ANC
  state_name: Áncash
  latitude: "-9.02306000"
  longitude: "-78.61556000"
- name: Huaraz
  state_code: ANC
  state_name: Áncash
  latitude: "-9.52779000"
  longitude: "-77.52778000"
- name: Huarmey
  state_code: ANC
  state_name: Áncash
  latitude: "-10.06806000"
  longitude: "-78.15222000"
- name: Pomabamba
  state_code: ANC
  state_name: Áncash
  latitude: "-8.83333000"
  longitude: "-77.46667000"
- name: Provincia de Aija
  state_code: ANC
  state_name: Áncash
  latitude: "-9.83333000"
  longitude: "-77.66667000"
- name: Provincia de Antonio Raymondi
  state_code: ANC
  state_name: Áncash
  latitude: "-9.08333000"
  longitude: "-77.08333000"
- name: Provincia de Bolognesi
  state_code: ANC
  state_name: Áncash
  latitude: "-10.10723000"
  longitude: "-77.14804000"
- name: Provincia de Carhuaz
  state_code: ANC
  state_name: Áncash
  latitude: "-9.31700000"
  longitude: "-77.55100000"
- name: Provincia de Casma
  state_code: ANC
  state_name: Áncash
  latitude: "-9.47638000"
  longitude: "-78.24738000"
- name: Provincia de Corongo
  state_code: ANC
  state_name: Áncash
  latitude: "-8.58333000"
  longitude: "-77.91667000"
- name: Provincia de Huaraz
  state_code: ANC
  state_name: Áncash
  latitude: "-9.56109000"
  longitude: "-77.64605000"
- name: Provincia de Huari
  state_code: ANC
  state_name: Áncash
  latitude: "-9.33333000"
  longitude: "-77.16667000"
- name: Provincia de Huarmey
  state_code: ANC
  state_name: Áncash
  latitude: "-9.91667000"
  longitude: "-78.00000000"
- name: Provincia de Huaylas
  state_code: ANC
  state_name: Áncash
  latitude: "-8.91667000"
  longitude: "-77.83333000"
- name: Provincia de Mariscal Luzuriaga
  state_code: ANC
  state_name: Áncash
  latitude: "-8.83333000"
  longitude: "-77.25000000"
- name: Provincia de Pallasca
  state_code: ANC
  state_name: Áncash
  latitude: "-8.33333000"
  longitude: "-77.91667000"
- name: Provincia de Pomabamba
  state_code: ANC
  state_name: Áncash
  latitude: "-8.82311000"
  longitude: "-77.47559000"
- name: Provincia de Recuay
  state_code: ANC
  state_name: Áncash
  latitude: "-10.00000000"
  longitude: "-77.41667000"
- name: Provincia de Santa
  state_code: ANC
  state_name: Áncash
  latitude: "-9.00000000"
  longitude: "-78.25000000"
- name: Provincia de Sihuas
  state_code: ANC
  state_name: Áncash
  latitude: "-8.50000000"
  longitude: "-77.50000000"
- name: Provincia de Yungay
  state_code: ANC
  state_name: Áncash
  latitude: "-9.16667000"
  longitude: "-77.75000000"
- name: Puerto Santa
  state_code: ANC
  state_name: Áncash
  latitude: "-8.98772000"
  longitude: "-78.64727000"
- name: Yauya
  state_code: ANC
  state_name: Áncash
  latitude: "-8.98333000"
  longitude: "-77.30000000"
- name: Yungay
  state_code: ANC
  state_name: Áncash
  latitude: "-9.13833000"
  longitude: "-77.74361000"
- name: Abancay
  state_code: APU
  state_name: Apurímac
  latitude: "-13.63389000"
  longitude: "-72.88139000"
- name: Andahuaylas
  state_code: APU
  state_name: Apurímac
  latitude: "-13.65556000"
  longitude: "-73.38722000"
- name: Provincia de Abancay
  state_code: APU
  state_name: Apurímac
  latitude: "-13.66667000"
  longitude: "-72.91667000"
- name: Provincia de Andahuaylas
  state_code: APU
  state_name: Apurímac
  latitude: "-13.66667000"
  longitude: "-73.41667000"
- name: Provincia de Antabamba
  state_code: APU
  state_name: Apurímac
  latitude: "-14.41667000"
  longitude: "-72.75000000"
- name: Provincia de Aymaraes
  state_code: APU
  state_name: Apurímac
  latitude: "-14.41667000"
  longitude: "-73.25000000"
- name: Provincia de Cotabambas
  state_code: APU
  state_name: Apurímac
  latitude: "-14.00000000"
  longitude: "-72.20000000"
- name: Provincia de Grau
  state_code: APU
  state_name: Apurímac
  latitude: "-14.00000000"
  longitude: "-72.58333000"
- name: San Jerónimo
  state_code: APU
  state_name: Apurímac
  latitude: "-13.65138000"
  longitude: "-73.36388000"
- name: Talavera
  state_code: APU
  state_name: Apurímac
  latitude: "-13.65306000"
  longitude: "-73.42917000"
- name: Acarí
  state_code: ARE
  state_name: Arequipa
  latitude: "-15.42393000"
  longitude: "-74.61361000"
- name: Arequipa
  state_code: ARE
  state_name: Arequipa
  latitude: "-16.39889000"
  longitude: "-71.53500000"
- name: Camaná
  state_code: ARE
  state_name: Arequipa
  latitude: "-16.62375000"
  longitude: "-72.71055000"
- name: Ccolo
  state_code: ARE
  state_name: Arequipa
  latitude: "-15.50611000"
  longitude: "-71.49184000"
- name: Chivay
  state_code: ARE
  state_name: Arequipa
  latitude: "-15.63833000"
  longitude: "-71.60111000"
- name: Cocachacra
  state_code: ARE
  state_name: Arequipa
  latitude: "-17.08833000"
  longitude: "-71.75750000"
- name: Cotahuasi
  state_code: ARE
  state_name: Arequipa
  latitude: "-15.21306000"
  longitude: "-72.88861000"
- name: Huarancante
  state_code: ARE
  state_name: Arequipa
  latitude: "-15.76803000"
  longitude: "-71.45952000"
- name: Huarichancara
  state_code: ARE
  state_name: Arequipa
  latitude: "-15.63972000"
  longitude: "-71.06111000"
- name: Jatun Orcochiri
  state_code: ARE
  state_name: Arequipa
  latitude: "-15.75003000"
  longitude: "-71.34641000"
- name: Jayune
  state_code: ARE
  state_name: Arequipa
  latitude: "-15.56277000"
  longitude: "-71.30312000"
- name: Llongasora
  state_code: ARE
  state_name: Arequipa
  latitude: "-15.63951000"
  longitude: "-71.29921000"
- name: Lluta
  state_code: ARE
  state_name: Arequipa
  latitude: "-16.01472000"
  longitude: "-72.01417000"
- name: Mollendo
  state_code: ARE
  state_name: Arequipa
  latitude: "-17.02306000"
  longitude: "-72.01472000"
- name: Orcopampa
  state_code: ARE
  state_name: Arequipa
  latitude: "-15.26611000"
  longitude: "-72.34167000"
- name: Provincia de Arequipa
  state_code: ARE
  state_name: Arequipa
  latitude: "-16.33333000"
  longitude: "-71.50000000"
- name: Provincia de Camaná
  state_code: ARE
  state_name: Arequipa
  latitude: "-16.41667000"
  longitude: "-72.83333000"
- name: Provincia de Caravelí
  state_code: ARE
  state_name: Arequipa
  latitude: "-15.58333000"
  longitude: "-74.00000000"
- name: Provincia de Castilla
  state_code: ARE
  state_name: Arequipa
  latitude: "-15.58333000"
  longitude: "-72.41667000"
- name: Provincia de Caylloma
  state_code: ARE
  state_name: Arequipa
  latitude: "-15.66667000"
  longitude: "-71.58333000"
- name: Provincia de Condesuyos
  state_code: ARE
  state_name: Arequipa
  latitude: "-15.58333000"
  longitude: "-72.83333000"
- name: Provincia de Islay
  state_code: ARE
  state_name: Arequipa
  latitude: "-17.00000000"
  longitude: "-71.83333000"
- name: Provincia de La Unión
  state_code: ARE
  state_name: Arequipa
  latitude: "-15.00000000"
  longitude: "-72.83333000"
- name: Pucara
  state_code: ARE
  state_name: Arequipa
  latitude: "-15.97993000"
  longitude: "-71.45988000"
- name: Punta de Bombón
  state_code: ARE
  state_name: Arequipa
  latitude: "-17.17190000"
  longitude: "-71.79240000"
- name: Vizcachane
  state_code: ARE
  state_name: Arequipa
  latitude: "-15.80861000"
  longitude: "-71.20111000"
- name: Yura
  state_code: ARE
  state_name: Arequipa
  latitude: "-16.25223000"
  longitude: "-71.67969000"
- name: Ayacucho
  state_code: AYA
  state_name: Ayacucho
  latitude: "-13.15878000"
  longitude: "-74.22321000"
- name: Ayna
  state_code: AYA
  state_name: Ayacucho
  latitude: "-12.65000000"
  longitude: "-73.91667000"
- name: Coracora
  state_code: AYA
  state_name: Ayacucho
  latitude: "-15.03333000"
  longitude: "-73.78333000"
- name: Huanta
  state_code: AYA
  state_name: Ayacucho
  latitude: "-12.93333000"
  longitude: "-74.25000000"
- name: Paucar Del Sara Sara
  state_code: AYA
  state_name: Ayacucho
  latitude: "-15.12275000"
  longitude: "-73.26177000"
- name: Provincia de Cangallo
  state_code: AYA
  state_name: Ayacucho
  latitude: "-13.57300000"
  longitude: "-74.38900000"
- name: Provincia de Huamanga
  state_code: AYA
  state_name: Ayacucho
  latitude: "-13.20000000"
  longitude: "-74.25000000"
- name: Provincia de Huanca Sancos
  state_code: AYA
  state_name: Ayacucho
  latitude: "-14.07600000"
  longitude: "-74.42800000"
- name: Provincia de Huanta
  state_code: AYA
  state_name: Ayacucho
  latitude: "-12.50000000"
  longitude: "-74.16667000"
- name: Provincia de La Mar
  state_code: AYA
  state_name: Ayacucho
  latitude: "-12.91667000"
  longitude: "-73.83333000"
- name: Provincia de Lucanas
  state_code: AYA
  state_name: Ayacucho
  latitude: "-14.50000000"
  longitude: "-74.33333000"
- name: Provincia de Parinacochas
  state_code: AYA
  state_name: Ayacucho
  latitude: "-15.02965000"
  longitude: "-73.63487000"
- name: Provincia de Sucre
  state_code: AYA
  state_name: Ayacucho
  latitude: "-14.10300000"
  longitude: "-73.78600000"
- name: Provincia de Víctor Fajardo
  state_code: AYA
  state_name: Ayacucho
  latitude: "-13.75000000"
  longitude: "-74.33333000"
- name: Provincia de Vilcas Huamán
  state_code: AYA
  state_name: Ayacucho
  latitude: "-13.63200000"
  longitude: "-73.88800000"
- name: Puquio
  state_code: AYA
  state_name: Ayacucho
  latitude: "-14.70000000"
  longitude: "-74.13333000"
- name: San Miguel
  state_code: AYA
  state_name: Ayacucho
  latitude: "-13.01250000"
  longitude: "-73.98083000"
- name: Tambo
  state_code: AYA
  state_name: Ayacucho
  latitude: "-14.79847000"
  longitude: "-73.92438000"
- name: Bambamarca
  state_code: CAJ
  state_name: Cajamarca
  latitude: "-6.68333000"
  longitude: "-78.53333000"
- name: Bellavista
  state_code: CAJ
  state_name: Cajamarca
  latitude: "-5.66417000"
  longitude: "-78.67722000"
- name: Cajabamba
  state_code: CAJ
  state_name: Cajamarca
  latitude: "-7.61667000"
  longitude: "-78.05000000"
- name: Cajamarca
  state_code: CAJ
  state_name: Cajamarca
  latitude: "-7.16378000"
  longitude: "-78.50027000"
- name: Celendín
  state_code: CAJ
  state_name: Cajamarca
  latitude: "-6.86590000"
  longitude: "-78.14585000"
- name: Chota
  state_code: CAJ
  state_name: Cajamarca
  latitude: "-6.55000000"
  longitude: "-78.65000000"
- name: Jaén
  state_code: CAJ
  state_name: Cajamarca
  latitude: "-5.70729000"
  longitude: "-78.80785000"
- name: Provincia de Cajabamba
  state_code: CAJ
  state_name: Cajamarca
  latitude: "-7.50000000"
  longitude: "-78.16667000"
- name: Provincia de Cajamarca
  state_code: CAJ
  state_name: Cajamarca
  latitude: "-7.33333000"
  longitude: "-78.41667000"
- name: Provincia de Celendín
  state_code: CAJ
  state_name: Cajamarca
  latitude: "-6.83333000"
  longitude: "-78.25000000"
- name: Provincia de Chota
  state_code: CAJ
  state_name: Cajamarca
  latitude: "-6.38332000"
  longitude: "-79.18055000"
- name: Provincia de Contumazá
  state_code: CAJ
  state_name: Cajamarca
  latitude: "-7.33333000"
  longitude: "-78.91667000"
- name: Provincia de Cutervo
  state_code: CAJ
  state_name: Cajamarca
  latitude: "-6.36667000"
  longitude: "-78.85000000"
- name: Provincia de Hualgayoc
  state_code: CAJ
  state_name: Cajamarca
  latitude: "-6.68000000"
  longitude: "-78.53000000"
- name: Provincia de Jaén
  state_code: CAJ
  state_name: Cajamarca
  latitude: "-5.71074000"
  longitude: "-79.00438000"
- name: Provincia de San Ignacio
  state_code: CAJ
  state_name: Cajamarca
  latitude: "-5.08333000"
  longitude: "-79.00000000"
- name: Provincia de San Miguel
  state_code: CAJ
  state_name: Cajamarca
  latitude: "-7.00000000"
  longitude: "-79.00000000"
- name: Provincia de Santa Cruz
  state_code: CAJ
  state_name: Cajamarca
  latitude: "-6.83333000"
  longitude: "-79.00000000"
- name: San Ignacio
  state_code: CAJ
  state_name: Cajamarca
  latitude: "-5.14583000"
  longitude: "-79.00139000"
- name: Callao
  state_code: CAL
  state_name: Callao
  latitude: "-12.05659000"
  longitude: "-77.11814000"
- name: Anta
  state_code: CUS
  state_name: Cusco
  latitude: "-13.47056000"
  longitude: "-72.14833000"
- name: Cahuanuyo
  state_code: CUS
  state_name: Cusco
  latitude: "-14.34147000"
  longitude: "-71.46311000"
- name: Calca
  state_code: CUS
  state_name: Cusco
  latitude: "-13.33333000"
  longitude: "-71.95000000"
- name: Callanca
  state_code: CUS
  state_name: Cusco
  latitude: "-14.18137000"
  longitude: "-71.14070000"
- name: Ccaquiracunca
  state_code: CUS
  state_name: Cusco
  latitude: "-14.27683000"
  longitude: "-71.45026000"
- name: Ccuntuma
  state_code: CUS
  state_name: Cusco
  latitude: "-14.12540000"
  longitude: "-71.41216000"
- name: Checacupe
  state_code: CUS
  state_name: Cusco
  latitude: "-14.02694000"
  longitude: "-71.45278000"
- name: Checca
  state_code: CUS
  state_name: Cusco
  latitude: "-14.47278000"
  longitude: "-71.39389000"
- name: Chignayhua
  state_code: CUS
  state_name: Cusco
  latitude: "-14.24610000"
  longitude: "-71.44442000"
- name: Chinchero
  state_code: CUS
  state_name: Cusco
  latitude: "-13.39222000"
  longitude: "-72.04778000"
- name: Combapata
  state_code: CUS
  state_name: Cusco
  latitude: "-14.10111000"
  longitude: "-71.42944000"
- name: Conchopata
  state_code: CUS
  state_name: Cusco
  latitude: "-14.46968000"
  longitude: "-71.19843000"
- name: Cullcuyre
  state_code: CUS
  state_name: Cusco
  latitude: "-14.09272000"
  longitude: "-71.33119000"
- name: Cusco
  state_code: CUS
  state_name: Cusco
  latitude: "-13.52264000"
  longitude: "-71.96734000"
- name: Huayna Alcalde
  state_code: CUS
  state_name: Cusco
  latitude: "-14.26989000"
  longitude: "-71.09599000"
- name: Jayobamba
  state_code: CUS
  state_name: Cusco
  latitude: "-14.09425000"
  longitude: "-71.33922000"
- name: Langui
  state_code: CUS
  state_name: Cusco
  latitude: "-14.43194000"
  longitude: "-71.27306000"
- name: Layo
  state_code: CUS
  state_name: Cusco
  latitude: "-14.49361000"
  longitude: "-71.15500000"
- name: Lima Pampa
  state_code: CUS
  state_name: Cusco
  latitude: "-14.08976000"
  longitude: "-71.33664000"
- name: Maranganí
  state_code: CUS
  state_name: Cusco
  latitude: "-14.35672000"
  longitude: "-71.16924000"
- name: Maras
  state_code: CUS
  state_name: Cusco
  latitude: "-13.33500000"
  longitude: "-72.15667000"
- name: Mosoc Cancha
  state_code: CUS
  state_name: Cusco
  latitude: "-14.28514000"
  longitude: "-71.08773000"
- name: Mosoc Llacta
  state_code: CUS
  state_name: Cusco
  latitude: "-14.12000000"
  longitude: "-71.47278000"
- name: Ollantaytambo
  state_code: CUS
  state_name: Cusco
  latitude: "-13.25722000"
  longitude: "-72.26306000"
- name: Oropesa
  state_code: CUS
  state_name: Cusco
  latitude: "-13.59278000"
  longitude: "-71.77194000"
- name: Pampamarca
  state_code: CUS
  state_name: Cusco
  latitude: "-14.14639000"
  longitude: "-71.45944000"
- name: Pangoa
  state_code: CUS
  state_name: Cusco
  latitude: "-12.11667000"
  longitude: "-73.00000000"
- name: Paucartambo
  state_code: CUS
  state_name: Cusco
  latitude: "-13.31522000"
  longitude: "-71.59364000"
- name: Pisac
  state_code: CUS
  state_name: Cusco
  latitude: "-13.42250000"
  longitude: "-71.84667000"
- name: Provincia de Acomayo
  state_code: CUS
  state_name: Cusco
  latitude: "-13.91667000"
  longitude: "-71.66667000"
- name: Provincia de Anta
  state_code: CUS
  state_name: Cusco
  latitude: "-13.50000000"
  longitude: "-72.33333000"
- name: Provincia de Calca
  state_code: CUS
  state_name: Cusco
  latitude: "-13.00000000"
  longitude: "-72.16667000"
- name: Provincia de Canas
  state_code: CUS
  state_name: Cusco
  latitude: "-14.41083000"
  longitude: "-71.33694000"
- name: Provincia de Canchis
  state_code: CUS
  state_name: Cusco
  latitude: "-14.08194000"
  longitude: "-71.18556000"
- name: Provincia de Chumbivilcas
  state_code: CUS
  state_name: Cusco
  latitude: "-14.41667000"
  longitude: "-72.00000000"
- name: Provincia de Cusco
  state_code: CUS
  state_name: Cusco
  latitude: "-13.50000000"
  longitude: "-72.00000000"
- name: Provincia de Espinar
  state_code: CUS
  state_name: Cusco
  latitude: "-14.75000000"
  longitude: "-71.41667000"
- name: Provincia de La Convención
  state_code: CUS
  state_name: Cusco
  latitude: "-12.00000000"
  longitude: "-73.00000000"
- name: Provincia de Paruro
  state_code: CUS
  state_name: Cusco
  latitude: "-13.91667000"
  longitude: "-71.91667000"
- name: Provincia de Paucartambo
  state_code: CUS
  state_name: Cusco
  latitude: "-13.16667000"
  longitude: "-71.41667000"
- name: Provincia de Quispicanchis
  state_code: CUS
  state_name: Cusco
  latitude: "-13.41667000"
  longitude: "-71.00000000"
- name: Provincia de Urubamba
  state_code: CUS
  state_name: Cusco
  latitude: "-13.25000000"
  longitude: "-72.33333000"
- name: Qquea
  state_code: CUS
  state_name: Cusco
  latitude: "-14.05417000"
  longitude: "-71.38583000"
- name: Queromarca
  state_code: CUS
  state_name: Cusco
  latitude: "-14.18391000"
  longitude: "-71.38343000"
- name: San Pablo
  state_code: CUS
  state_name: Cusco
  latitude: "-14.20278000"
  longitude: "-71.31556000"
- name: Santa Ana
  state_code: CUS
  state_name: Cusco
  latitude: "-12.86667000"
  longitude: "-72.71667000"
- name: Santo Tomas
  state_code: CUS
  state_name: Cusco
  latitude: "-14.44556000"
  longitude: "-72.08417000"
- name: Sicuani
  state_code: CUS
  state_name: Cusco
  latitude: "-14.26944000"
  longitude: "-71.22611000"
- name: Tinta
  state_code: CUS
  state_name: Cusco
  latitude: "-14.14500000"
  longitude: "-71.40694000"
- name: Tungasuca
  state_code: CUS
  state_name: Cusco
  latitude: "-14.16389000"
  longitude: "-71.47667000"
- name: Urcos
  state_code: CUS
  state_name: Cusco
  latitude: "-13.68611000"
  longitude: "-71.62278000"
- name: Urubamba
  state_code: CUS
  state_name: Cusco
  latitude: "-13.30472000"
  longitude: "-72.11583000"
- name: Yanaoca
  state_code: CUS
  state_name: Cusco
  latitude: "-14.21806000"
  longitude: "-71.43167000"
- name: Huancavelica
  state_code: HUV
  state_name: Huancavelica
  latitude: "-12.78261000"
  longitude: "-74.97266000"
- name: Huaytara
  state_code: HUV
  state_name: Huancavelica
  latitude: "-13.65616000"
  longitude: "-75.09234000"
- name: Pampas
  state_code: HUV
  state_name: Huancavelica
  latitude: "-12.39490000"
  longitude: "-74.86687000"
- name: Provincia de Acobamba
  state_code: HUV
  state_name: Huancavelica
  latitude: "-12.75000000"
  longitude: "-74.66667000"
- name: Provincia de Angaraes
  state_code: HUV
  state_name: Huancavelica
  latitude: "-13.00000000"
  longitude: "-74.75000000"
- name: Provincia de Castrovirreyna
  state_code: HUV
  state_name: Huancavelica
  latitude: "-13.14535000"
  longitude: "-75.40598000"
- name: Provincia de Churcampa
  state_code: HUV
  state_name: Huancavelica
  latitude: "-12.60000000"
  longitude: "-74.52000000"
- name: Provincia de Huancavelica
  state_code: HUV
  state_name: Huancavelica
  latitude: "-12.66667000"
  longitude: "-75.25000000"
- name: Provincia de Tayacaja
  state_code: HUV
  state_name: Huancavelica
  latitude: "-12.25000000"
  longitude: "-74.75000000"
- name: Ambo
  state_code: HUC
  state_name: Huanuco
  latitude: "-10.13083000"
  longitude: "-76.20472000"
- name: Huacaybamba
  state_code: HUC
  state_name: Huanuco
  latitude: "-8.99480000"
  longitude: "-76.81027000"
- name: Huánuco
  state_code: HUC
  state_name: Huanuco
  latitude: "-9.93062000"
  longitude: "-76.24223000"
- name: La Unión
  state_code: HUC
  state_name: Huanuco
  latitude: "-9.82702000"
  longitude: "-76.80199000"
- name: Lauricocha
  state_code: HUC
  state_name: Huanuco
  latitude: "-10.20055000"
  longitude: "-76.70359000"
- name: Llata
  state_code: HUC
  state_name: Huanuco
  latitude: "-9.41667000"
  longitude: "-76.78333000"
- name: Provincia de Ambo
  state_code: HUC
  state_name: Huanuco
  latitude: "-10.16667000"
  longitude: "-76.16667000"
- name: Provincia de Dos de Mayo
  state_code: HUC
  state_name: Huanuco
  latitude: "-9.91667000"
  longitude: "-76.75000000"
- name: Provincia de Huamalíes
  state_code: HUC
  state_name: Huanuco
  latitude: "-9.25000000"
  longitude: "-76.50000000"
- name: Provincia de Huánuco
  state_code: HUC
  state_name: Huanuco
  latitude: "-9.66667000"
  longitude: "-76.08333000"
- name: Provincia de Leoncio Prado
  state_code: HUC
  state_name: Huanuco
  latitude: "-9.16667000"
  longitude: "-76.00000000"
- name: Provincia de Marañón
  state_code: HUC
  state_name: Huanuco
  latitude: "-8.75000000"
  longitude: "-76.66667000"
- name: Provincia de Pachitea
  state_code: HUC
  state_name: Huanuco
  latitude: "-9.95262000"
  longitude: "-75.81390000"
- name: Puerto Inca
  state_code: HUC
  state_name: Huanuco
  latitude: "-9.36696000"
  longitude: "-75.08958000"
- name: San Miguel de Cauri
  state_code: HUC
  state_name: Huanuco
  latitude: "-10.13818000"
  longitude: "-76.62288000"
- name: Tingo María
  state_code: HUC
  state_name: Huanuco
  latitude: "-9.29532000"
  longitude: "-75.99574000"
- name: Yanacancha
  state_code: HUC
  state_name: Huanuco
  latitude: "-10.24111000"
  longitude: "-76.64556000"
- name: Yarowilca
  state_code: HUC
  state_name: Huanuco
  latitude: "-9.80263000"
  longitude: "-76.59516000"
- name: Chincha Alta
  state_code: ICA
  state_name: Ica
  latitude: "-13.40985000"
  longitude: "-76.13235000"
- name: Ica
  state_code: ICA
  state_name: Ica
  latitude: "-14.06777000"
  longitude: "-75.72861000"
- name: Los Aquijes
  state_code: ICA
  state_name: Ica
  latitude: "-14.09667000"
  longitude: "-75.69083000"
- name: Minas de Marcona
  state_code: ICA
  state_name: Ica
  latitude: "-15.21194000"
  longitude: "-75.11028000"
- name: Nazca
  state_code: ICA
  state_name: Ica
  latitude: "-14.83098000"
  longitude: "-74.93895000"
- name: Palpa
  state_code: ICA
  state_name: Ica
  latitude: "-14.53361000"
  longitude: "-75.18556000"
- name: Paracas
  state_code: ICA
  state_name: Ica
  latitude: "-13.86667000"
  longitude: "-76.26667000"
- name: Pisco
  state_code: ICA
  state_name: Ica
  latitude: "-13.71029000"
  longitude: "-76.20538000"
- name: Provincia de Chincha
  state_code: ICA
  state_name: Ica
  latitude: "-13.31791000"
  longitude: "-75.93930000"
- name: Provincia de Ica
  state_code: ICA
  state_name: Ica
  latitude: "-14.33861000"
  longitude: "-75.64833000"
- name: Provincia de Nazca
  state_code: ICA
  state_name: Ica
  latitude: "-15.00000000"
  longitude: "-75.08333000"
- name: Provincia de Palpa
  state_code: ICA
  state_name: Ica
  latitude: "-14.41667000"
  longitude: "-75.16667000"
- name: Provincia de Pisco
  state_code: ICA
  state_name: Ica
  latitude: "-13.80377000"
  longitude: "-75.94264000"
- name: Río Grande
  state_code: ICA
  state_name: Ica
  latitude: "-14.51600000"
  longitude: "-75.19933000"
- name: San Clemente
  state_code: ICA
  state_name: Ica
  latitude: "-13.66667000"
  longitude: "-76.15000000"
- name: San Juan Bautista
  state_code: ICA
  state_name: Ica
  latitude: "-14.01083000"
  longitude: "-75.73583000"
- name: Santiago
  state_code: ICA
  state_name: Ica
  latitude: "-14.18469000"
  longitude: "-75.71124000"
- name: Subtanjalla
  state_code: ICA
  state_name: Ica
  latitude: "-14.01889000"
  longitude: "-75.75806000"
- name: Villa Tupac Amaru
  state_code: ICA
  state_name: Ica
  latitude: "-13.71135000"
  longitude: "-76.14980000"
- name: Acolla
  state_code: JUN
  state_name: Junín
  latitude: "-11.73193000"
  longitude: "-75.54634000"
- name: Carhuamayo
  state_code: JUN
  state_name: Junín
  latitude: "-10.91667000"
  longitude: "-76.03333000"
- name: Chanchamayo
  state_code: JUN
  state_name: Junín
  latitude: "-11.05000000"
  longitude: "-75.31667000"
- name: Chupaca
  state_code: JUN
  state_name: Junín
  latitude: "-12.06667000"
  longitude: "-75.28333000"
- name: Concepción
  state_code: JUN
  state_name: Junín
  latitude: "-11.91762000"
  longitude: "-75.31401000"
- name: Huancayo
  state_code: JUN
  state_name: Junín
  latitude: "-12.06513000"
  longitude: "-75.20486000"
- name: Huasahuasi
  state_code: JUN
  state_name: Junín
  latitude: "-11.26527000"
  longitude: "-75.64722000"
- name: Huayucachi
  state_code: JUN
  state_name: Junín
  latitude: "-12.13333000"
  longitude: "-75.23333000"
- name: Jauja
  state_code: JUN
  state_name: Junín
  latitude: "-11.77584000"
  longitude: "-75.49656000"
- name: Junín
  state_code: JUN
  state_name: Junín
  latitude: "-11.15895000"
  longitude: "-75.99304000"
- name: La Oroya
  state_code: JUN
  state_name: Junín
  latitude: "-11.51893000"
  longitude: "-75.89935000"
- name: Mazamari
  state_code: JUN
  state_name: Junín
  latitude: "-11.32583000"
  longitude: "-74.53083000"
- name: Morococha
  state_code: JUN
  state_name: Junín
  latitude: "-11.59972000"
  longitude: "-76.14111000"
- name: Orcotuna
  state_code: JUN
  state_name: Junín
  latitude: "-11.96886000"
  longitude: "-75.30780000"
- name: Perené
  state_code: JUN
  state_name: Junín
  latitude: "-10.94510000"
  longitude: "-75.22394000"
- name: Pilcomay
  state_code: JUN
  state_name: Junín
  latitude: "-12.04722000"
  longitude: "-75.24931000"
- name: Provincia de Chupaca
  state_code: JUN
  state_name: Junín
  latitude: "-12.30000000"
  longitude: "-75.43300000"
- name: Provincia de Concepción
  state_code: JUN
  state_name: Junín
  latitude: "-11.75000000"
  longitude: "-75.00000000"
- name: Provincia de Huancayo
  state_code: JUN
  state_name: Junín
  latitude: "-12.17319000"
  longitude: "-75.16169000"
- name: Provincia de Jauja
  state_code: JUN
  state_name: Junín
  latitude: "-11.72600000"
  longitude: "-75.54700000"
- name: Provincia de Junín
  state_code: JUN
  state_name: Junín
  latitude: "-11.08333000"
  longitude: "-76.00000000"
- name: Provincia de Satipo
  state_code: JUN
  state_name: Junín
  latitude: "-11.50000000"
  longitude: "-74.25000000"
- name: Provincia de Tarma
  state_code: JUN
  state_name: Junín
  latitude: "-11.40562000"
  longitude: "-75.69129000"
- name: Provincia de Yauli
  state_code: JUN
  state_name: Junín
  latitude: "-11.66667000"
  longitude: "-76.16667000"
- name: San Agustin
  state_code: JUN
  state_name: Junín
  latitude: "-11.97195000"
  longitude: "-75.25562000"
- name: San Jerónimo
  state_code: JUN
  state_name: Junín
  latitude: "-11.95591000"
  longitude: "-75.28411000"
- name: San Pedro de Cajas
  state_code: JUN
  state_name: Junín
  latitude: "-11.25061000"
  longitude: "-75.86116000"
- name: San Ramón
  state_code: JUN
  state_name: Junín
  latitude: "-11.12417000"
  longitude: "-75.35733000"
- name: Satipo
  state_code: JUN
  state_name: Junín
  latitude: "-11.25222000"
  longitude: "-74.63861000"
- name: Sicaya
  state_code: JUN
  state_name: Junín
  latitude: "-12.03333000"
  longitude: "-75.28333000"
- name: Tarma
  state_code: JUN
  state_name: Junín
  latitude: "-11.41899000"
  longitude: "-75.68992000"
- name: Ascope
  state_code: LAL
  state_name: La Libertad
  latitude: "-7.71444000"
  longitude: "-79.10778000"
- name: Cascas
  state_code: LAL
  state_name: La Libertad
  latitude: "-7.48333000"
  longitude: "-78.81667000"
- name: Chepen
  state_code: LAL
  state_name: La Libertad
  latitude: "-7.14367000"
  longitude: "-79.45674000"
- name: Chicama
  state_code: LAL
  state_name: La Libertad
  latitude: "-7.84472000"
  longitude: "-79.14694000"
- name: Chocope
  state_code: LAL
  state_name: La Libertad
  latitude: "-7.79139000"
  longitude: "-79.22167000"
- name: Gran Chimu
  state_code: LAL
  state_name: La Libertad
  latitude: "-7.57976000"
  longitude: "-78.64718000"
- name: Guadalupe
  state_code: LAL
  state_name: La Libertad
  latitude: "-7.25000000"
  longitude: "-79.48333000"
- name: Huamachuco
  state_code: LAL
  state_name: La Libertad
  latitude: "-7.80000000"
  longitude: "-78.06667000"
- name: Julcan
  state_code: LAL
  state_name: La Libertad
  latitude: "-8.17238000"
  longitude: "-78.46356000"
- name: Laredo
  state_code: LAL
  state_name: La Libertad
  latitude: "-8.08965000"
  longitude: "-78.96020000"
- name: Moche
  state_code: LAL
  state_name: La Libertad
  latitude: "-8.17111000"
  longitude: "-79.00917000"
- name: Otuzco
  state_code: LAL
  state_name: La Libertad
  latitude: "-7.90000000"
  longitude: "-78.58333000"
- name: Pacanga
  state_code: LAL
  state_name: La Libertad
  latitude: "-7.16667000"
  longitude: "-79.50000000"
- name: Pacasmayo
  state_code: LAL
  state_name: La Libertad
  latitude: "-7.40056000"
  longitude: "-79.57139000"
- name: Paiján
  state_code: LAL
  state_name: La Libertad
  latitude: "-7.73291000"
  longitude: "-79.30150000"
- name: Provincia de Bolívar
  state_code: LAL
  state_name: La Libertad
  latitude: "-7.33333000"
  longitude: "-77.75000000"
- name: Provincia de Otuzco
  state_code: LAL
  state_name: La Libertad
  latitude: "-7.90457000"
  longitude: "-78.56362000"
- name: Provincia de Pacasmayo
  state_code: LAL
  state_name: La Libertad
  latitude: "-7.25000000"
  longitude: "-79.50000000"
- name: Provincia de Pataz
  state_code: LAL
  state_name: La Libertad
  latitude: "-8.25000000"
  longitude: "-77.33333000"
- name: Provincia de Santiago de Chuco
  state_code: LAL
  state_name: La Libertad
  latitude: "-8.33333000"
  longitude: "-78.25000000"
- name: Provincia de Trujillo
  state_code: LAL
  state_name: La Libertad
  latitude: "-8.08333000"
  longitude: "-78.91667000"
- name: Pueblo Nuevo
  state_code: LAL
  state_name: La Libertad
  latitude: "-7.18806000"
  longitude: "-79.51528000"
- name: Quiruvilca
  state_code: LAL
  state_name: La Libertad
  latitude: "-7.96667000"
  longitude: "-78.20000000"
- name: Salaverry
  state_code: LAL
  state_name: La Libertad
  latitude: "-8.22100000"
  longitude: "-78.97698000"
- name: San Pedro de Lloc
  state_code: LAL
  state_name: La Libertad
  latitude: "-7.42890000"
  longitude: "-79.50416000"
- name: Sanchez Carrion
  state_code: LAL
  state_name: La Libertad
  latitude: "-7.78538000"
  longitude: "-77.92586000"
- name: Santiago de Cao
  state_code: LAL
  state_name: La Libertad
  latitude: "-7.95889000"
  longitude: "-79.23917000"
- name: Santiago de Chuco
  state_code: LAL
  state_name: La Libertad
  latitude: "-8.14099000"
  longitude: "-78.17329000"
- name: Trujillo
  state_code: LAL
  state_name: La Libertad
  latitude: "-8.11599000"
  longitude: "-79.02998000"
- name: Viru
  state_code: LAL
  state_name: La Libertad
  latitude: "-8.52199000"
  longitude: "-78.60355000"
- name: Chiclayo
  state_code: LAM
  state_name: Lambayeque
  latitude: "-6.77137000"
  longitude: "-79.84088000"
- name: Chongoyape
  state_code: LAM
  state_name: Lambayeque
  latitude: "-6.64056000"
  longitude: "-79.38917000"
- name: Eten
  state_code: LAM
  state_name: Lambayeque
  latitude: "-6.90806000"
  longitude: "-79.86417000"
- name: Ferreñafe
  state_code: LAM
  state_name: Lambayeque
  latitude: "-6.63889000"
  longitude: "-79.78889000"
- name: Jayanca
  state_code: LAM
  state_name: Lambayeque
  latitude: "-6.39083000"
  longitude: "-79.82194000"
- name: Lambayeque
  state_code: LAM
  state_name: Lambayeque
  latitude: "-6.70111000"
  longitude: "-79.90611000"
- name: Mochumí
  state_code: LAM
  state_name: Lambayeque
  latitude: "-6.54364000"
  longitude: "-79.86217000"
- name: Monsefú
  state_code: LAM
  state_name: Lambayeque
  latitude: "-6.87431000"
  longitude: "-79.86871000"
- name: Mórrope
  state_code: LAM
  state_name: Lambayeque
  latitude: "-6.53536000"
  longitude: "-80.01104000"
- name: Motupe
  state_code: LAM
  state_name: Lambayeque
  latitude: "-6.15194000"
  longitude: "-79.71417000"
- name: Olmos
  state_code: LAM
  state_name: Lambayeque
  latitude: "-5.98472000"
  longitude: "-79.74528000"
- name: Oyotún
  state_code: LAM
  state_name: Lambayeque
  latitude: "-6.84438000"
  longitude: "-79.30093000"
- name: Picsi
  state_code: LAM
  state_name: Lambayeque
  latitude: "-6.71778000"
  longitude: "-79.76972000"
- name: Pimentel
  state_code: LAM
  state_name: Lambayeque
  latitude: "-6.83667000"
  longitude: "-79.93417000"
- name: Provincia de Chiclayo
  state_code: LAM
  state_name: Lambayeque
  latitude: "-6.76667000"
  longitude: "-79.85000000"
- name: Provincia de Ferreñafe
  state_code: LAM
  state_name: Lambayeque
  latitude: "-6.33333000"
  longitude: "-79.50000000"
- name: Provincia de Lambayeque
  state_code: LAM
  state_name: Lambayeque
  latitude: "-6.08333000"
  longitude: "-80.08333000"
- name: Pueblo Nuevo
  state_code: LAM
  state_name: Lambayeque
  latitude: "-5.71667000"
  longitude: "-79.88333000"
- name: Reque
  state_code: LAM
  state_name: Lambayeque
  latitude: "-6.86556000"
  longitude: "-79.81778000"
- name: San José
  state_code: LAM
  state_name: Lambayeque
  latitude: "-6.73813000"
  longitude: "-79.82750000"
- name: Saña
  state_code: LAM
  state_name: Lambayeque
  latitude: "-6.91888000"
  longitude: "-79.58200000"
- name: Santa Rosa
  state_code: LAM
  state_name: Lambayeque
  latitude: "-6.75772000"
  longitude: "-79.82747000"
- name: Túcume
  state_code: LAM
  state_name: Lambayeque
  latitude: "-6.50637000"
  longitude: "-79.85725000"
- name: Asentamiento Humano Nicolas de Pierola
  state_code: LIM
  state_name: Lima
  latitude: "-11.93573000"
  longitude: "-76.70611000"
- name: Barranca
  state_code: LIM
  state_name: Lima
  latitude: "-10.75000000"
  longitude: "-77.76667000"
- name: Caleta de Carquín
  state_code: LIM
  state_name: Lima
  latitude: "-11.09250000"
  longitude: "-77.62667000"
- name: Chancay
  state_code: LIM
  state_name: Lima
  latitude: "-11.57139000"
  longitude: "-77.26722000"
- name: Chilca
  state_code: LIM
  state_name: Lima
  latitude: "-12.52111000"
  longitude: "-76.73722000"
- name: Chosica
  state_code: LIM
  state_name: Lima
  latitude: "-11.94306000"
  longitude: "-76.70944000"
- name: Huacho
  state_code: LIM
  state_name: Lima
  latitude: "-11.10667000"
  longitude: "-77.60500000"
- name: Hualmay
  state_code: LIM
  state_name: Lima
  latitude: "-11.09639000"
  longitude: "-77.61389000"
- name: Huaral
  state_code: LIM
  state_name: Lima
  latitude: "-11.49500000"
  longitude: "-77.20778000"
- name: Huaura
  state_code: LIM
  state_name: Lima
  latitude: "-11.07000000"
  longitude: "-77.59944000"
- name: Imperial
  state_code: LIM
  state_name: Lima
  latitude: "-13.05927000"
  longitude: "-76.35269000"
- name: Independencia
  state_code: LIM
  state_name: Lima
  latitude: "-11.99000000"
  longitude: "-77.04583000"
- name: Lima
  state_code: LIM
  state_name: Lima
  latitude: "-12.04318000"
  longitude: "-77.02824000"
- name: Mala
  state_code: LIM
  state_name: Lima
  latitude: "-12.65806000"
  longitude: "-76.63083000"
- name: Matucana
  state_code: LIM
  state_name: Lima
  latitude: "-11.85000000"
  longitude: "-76.40000000"
- name: Nuevo Imperial
  state_code: LIM
  state_name: Lima
  latitude: "-13.07541000"
  longitude: "-76.31719000"
- name: Oyon
  state_code: LIM
  state_name: Lima
  latitude: "-10.75869000"
  longitude: "-76.87634000"
- name: Paramonga
  state_code: LIM
  state_name: Lima
  latitude: "-10.66667000"
  longitude: "-77.83333000"
- name: Pativilca
  state_code: LIM
  state_name: Lima
  latitude: "-10.70000000"
  longitude: "-77.78333000"
- name: Provincia de Cajatambo
  state_code: LIM
  state_name: Lima
  latitude: "-10.66667000"
  longitude: "-77.00000000"
- name: Provincia de Cañete
  state_code: LIM
  state_name: Lima
  latitude: "-12.75000000"
  longitude: "-76.33333000"
- name: Provincia de Canta
  state_code: LIM
  state_name: Lima
  latitude: "-11.46667000"
  longitude: "-76.61667000"
- name: Provincia de Huaral
  state_code: LIM
  state_name: Lima
  latitude: "-11.25000000"
  longitude: "-76.91667000"
- name: Provincia de Huarochirí
  state_code: LIM
  state_name: Lima
  latitude: "-11.91667000"
  longitude: "-76.41667000"
- name: Provincia de Yauyos
  state_code: LIM
  state_name: Lima
  latitude: "-12.41667000"
  longitude: "-76.00000000"
- name: Puerto Supe
  state_code: LIM
  state_name: Lima
  latitude: "-10.80135000"
  longitude: "-77.74333000"
- name: Quilmaná
  state_code: LIM
  state_name: Lima
  latitude: "-12.94860000"
  longitude: "-76.38112000"
- name: Ricardo Palma
  state_code: LIM
  state_name: Lima
  latitude: "-11.91978000"
  longitude: "-76.65610000"
- name: San Bartolo
  state_code: LIM
  state_name: Lima
  latitude: "-12.38333000"
  longitude: "-76.78333000"
- name: San Isidro
  state_code: LIM
  state_name: Lima
  latitude: "-12.11667000"
  longitude: "-77.05000000"
- name: San Luis
  state_code: LIM
  state_name: Lima
  latitude: "-12.07674000"
  longitude: "-76.99435000"
- name: San Vicente de Cañete
  state_code: LIM
  state_name: Lima
  latitude: "-13.07556000"
  longitude: "-76.38528000"
- name: Santa María
  state_code: LIM
  state_name: Lima
  latitude: "-12.00538000"
  longitude: "-76.89329000"
- name: Santiago de Surco
  state_code: LIM
  state_name: Lima
  latitude: "-12.13588000"
  longitude: "-77.00742000"
- name: Sayán
  state_code: LIM
  state_name: Lima
  latitude: "-11.13333000"
  longitude: "-77.19460000"
- name: Supe
  state_code: LIM
  state_name: Lima
  latitude: "-10.79750000"
  longitude: "-77.71306000"
- name: Urb. Santo Domingo
  state_code: LIM
  state_name: Lima
  latitude: "-11.87655000"
  longitude: "-77.03345000"
- name: Végueta
  state_code: LIM
  state_name: Lima
  latitude: "-11.02253000"
  longitude: "-77.64378000"
- name: Andoas
  state_code: LOR
  state_name: Loreto
  latitude: "-2.90250000"
  longitude: "-76.40250000"
- name: Borja
  state_code: LOR
  state_name: Loreto
  latitude: "-4.43333333"
  longitude: "-77.55000000"
- name: Caballococha
  state_code: LOR
  state_name: Loreto
  latitude: "-3.90583333"
  longitude: "-70.51638889"
- name: Cape Pantoja
  state_code: LOR
  state_name: Loreto
  latitude: "-0.96435000"
  longitude: "-75.18144000"
- name: Indiana
  state_code: LOR
  state_name: Loreto
  latitude: "-3.50142700"
  longitude: "-73.04809600"
- name: Iquitos
  state_code: LOR
  state_name: Loreto
  latitude: "-3.73333333"
  longitude: "-73.25000000"
- name: Jeberos
  state_code: LOR
  state_name: Loreto
  latitude: "-5.28333000"
  longitude: "-76.28333000"
- name: Jenaro Herrera
  state_code: LOR
  state_name: Loreto
  latitude: "-4.90741000"
  longitude: "-73.66779000"
- name: Lagunas
  state_code: LOR
  state_name: Loreto
  latitude: "-5.22694000"
  longitude: "-75.67528000"
- name: Nauta
  state_code: LOR
  state_name: Loreto
  latitude: "-4.50833333"
  longitude: "-73.58333333"
- name: Punchana
  state_code: LOR
  state_name: Loreto
  latitude: "-3.71666667"
  longitude: "-73.23333333"
- name: Requena
  state_code: LOR
  state_name: Loreto
  latitude: "-6.74797000"
  longitude: "-75.05491000"
- name: San Antonio del Estrecho
  state_code: LOR
  state_name: Loreto
  latitude: "-2.45012000"
  longitude: "-72.66896000"
- name: San Lorenzo
  state_code: LOR
  state_name: Loreto
  latitude: "-4.81667000"
  longitude: "-76.60000000"
- name: San Pablo
  state_code: LOR
  state_name: Loreto
  latitude: "-4.01922000"
  longitude: "-71.10281000"
- name: Tamshiyacu
  state_code: LOR
  state_name: Loreto
  latitude: "-4.00320000"
  longitude: "-73.15850000"
- name: Yurimaguas
  state_code: LOR
  state_name: Loreto
  latitude: "-5.90000000"
  longitude: "-76.08333333"
- name: Iberia
  state_code: MDD
  state_name: Madre de Dios
  latitude: "-11.35000000"
  longitude: "-69.58333000"
- name: Provincia de Manú
  state_code: MDD
  state_name: Madre de Dios
  latitude: "-12.25000000"
  longitude: "-71.00000000"
- name: Provincia de Tahuamanú
  state_code: MDD
  state_name: Madre de Dios
  latitude: "-11.25000000"
  longitude: "-70.50000000"
- name: Provincia de Tambopata
  state_code: MDD
  state_name: Madre de Dios
  latitude: "-12.19948000"
  longitude: "-70.05006000"
- name: Puerto Maldonado
  state_code: MDD
  state_name: Madre de Dios
  latitude: "-12.59331000"
  longitude: "-69.18913000"
- name: Salvación
  state_code: MDD
  state_name: Madre de Dios
  latitude: "-12.83605000"
  longitude: "-71.36490000"
- name: Tambopata
  state_code: MDD
  state_name: Madre de Dios
  latitude: "-12.67191000"
  longitude: "-69.35547000"
- name: Ilo
  state_code: MOQ
  state_name: Moquegua
  latitude: "-17.63185000"
  longitude: "-71.34108000"
- name: Moquegua
  state_code: MOQ
  state_name: Moquegua
  latitude: "-17.19832000"
  longitude: "-70.93567000"
- name: Pacocha
  state_code: MOQ
  state_name: Moquegua
  latitude: "-17.64604000"
  longitude: "-71.34481000"
- name: Provincia de General Sánchez Cerro
  state_code: MOQ
  state_name: Moquegua
  latitude: "-16.50000000"
  longitude: "-70.66667000"
- name: Provincia de Ilo
  state_code: MOQ
  state_name: Moquegua
  latitude: "-17.49694000"
  longitude: "-71.16722000"
- name: Provincia de Mariscal Nieto
  state_code: MOQ
  state_name: Moquegua
  latitude: "-17.08361000"
  longitude: "-71.00333000"
- name: Torata
  state_code: MOQ
  state_name: Moquegua
  latitude: "-17.07694000"
  longitude: "-70.84333000"
- name: Cerro de Pasco
  state_code: PAS
  state_name: Pasco
  latitude: "-10.66748000"
  longitude: "-76.25668000"
- name: Chaupimarca
  state_code: PAS
  state_name: Pasco
  latitude: "-10.40696000"
  longitude: "-76.46168000"
- name: Oxapampa
  state_code: PAS
  state_name: Pasco
  latitude: "-10.57750000"
  longitude: "-75.40167000"
- name: Paucartambo
  state_code: PAS
  state_name: Pasco
  latitude: "-10.77326000"
  longitude: "-75.81109000"
- name: Provincia de Daniel Carrión
  state_code: PAS
  state_name: Pasco
  latitude: "-10.50000000"
  longitude: "-76.50000000"
- name: Provincia de Oxapampa
  state_code: PAS
  state_name: Pasco
  latitude: "-10.33333000"
  longitude: "-75.08333000"
- name: Provincia de Pasco
  state_code: PAS
  state_name: Pasco
  latitude: "-10.66667000"
  longitude: "-76.08333000"
- name: Tinyahuarco
  state_code: PAS
  state_name: Pasco
  latitude: "-10.76771000"
  longitude: "-76.27523000"
- name: Villa Rica
  state_code: PAS
  state_name: Pasco
  latitude: "-10.73944000"
  longitude: "-75.26972000"
- name: Ayabaca
  state_code: PIU
  state_name: Piura
  latitude: "-4.63983000"
  longitude: "-79.71491000"
- name: Bernal
  state_code: PIU
  state_name: Piura
  latitude: "-5.45000000"
  longitude: "-80.75000000"
- name: Buenos Aires
  state_code: PIU
  state_name: Piura
  latitude: "-5.26083000"
  longitude: "-79.96417000"
- name: Catacaos
  state_code: PIU
  state_name: Piura
  latitude: "-5.26667000"
  longitude: "-80.68333000"
- name: Chulucanas
  state_code: PIU
  state_name: Piura
  latitude: "-5.09250000"
  longitude: "-80.16250000"
- name: El Alto
  state_code: PIU
  state_name: Piura
  latitude: "-4.26851000"
  longitude: "-81.21719000"
- name: Huancabamba
  state_code: PIU
  state_name: Piura
  latitude: "-5.23861000"
  longitude: "-79.45056000"
- name: La Breita
  state_code: PIU
  state_name: Piura
  latitude: "-4.25691000"
  longitude: "-80.88599000"
- name: La Huaca
  state_code: PIU
  state_name: Piura
  latitude: "-4.91167000"
  longitude: "-80.96000000"
- name: La Unión
  state_code: PIU
  state_name: Piura
  latitude: "-5.40232000"
  longitude: "-80.74224000"
- name: Las Lomas
  state_code: PIU
  state_name: Piura
  latitude: "-4.65333000"
  longitude: "-80.24667000"
- name: Máncora
  state_code: PIU
  state_name: Piura
  latitude: "-4.10778000"
  longitude: "-81.04750000"
- name: Marcavelica
  state_code: PIU
  state_name: Piura
  latitude: "-4.87778000"
  longitude: "-80.70528000"
- name: Morropon
  state_code: PIU
  state_name: Piura
  latitude: "-5.25000000"
  longitude: "-80.00000000"
- name: Paita
  state_code: PIU
  state_name: Piura
  latitude: "-5.08917000"
  longitude: "-81.11444000"
- name: Piura
  state_code: PIU
  state_name: Piura
  latitude: "-5.19449000"
  longitude: "-80.63282000"
- name: Provincia de Ayabaca
  state_code: PIU
  state_name: Piura
  latitude: "-4.75000000"
  longitude: "-79.83333000"
- name: Provincia de Huancabamba
  state_code: PIU
  state_name: Piura
  latitude: "-5.50000000"
  longitude: "-79.58333000"
- name: Provincia de Paita
  state_code: PIU
  state_name: Piura
  latitude: "-5.10189000"
  longitude: "-81.09695000"
- name: Provincia de Piura
  state_code: PIU
  state_name: Piura
  latitude: "-5.21416000"
  longitude: "-80.40617000"
- name: Provincia de Sullana
  state_code: PIU
  state_name: Piura
  latitude: "-4.50000000"
  longitude: "-80.66667000"
- name: Provincia de Talara
  state_code: PIU
  state_name: Piura
  latitude: "-4.41667000"
  longitude: "-81.08333000"
- name: Querecotillo
  state_code: PIU
  state_name: Piura
  latitude: "-4.83778000"
  longitude: "-80.64556000"
- name: Salinera Colán
  state_code: PIU
  state_name: Piura
  latitude: "-5.03333000"
  longitude: "-81.06667000"
- name: Salitral
  state_code: PIU
  state_name: Piura
  latitude: "-4.85722000"
  longitude: "-80.68111000"
- name: Sechura
  state_code: PIU
  state_name: Piura
  latitude: "-5.55694000"
  longitude: "-80.82222000"
- name: Sullana
  state_code: PIU
  state_name: Piura
  latitude: "-4.90389000"
  longitude: "-80.68528000"
- name: Talara
  state_code: PIU
  state_name: Piura
  latitude: "-4.57722000"
  longitude: "-81.27194000"
- name: Tambo Grande
  state_code: PIU
  state_name: Piura
  latitude: "-4.92694000"
  longitude: "-80.34472000"
- name: Vice
  state_code: PIU
  state_name: Piura
  latitude: "-5.41667000"
  longitude: "-80.78333000"
- name: Atuncolla
  state_code: PUN
  state_name: Puno
  latitude: "-15.68333000"
  longitude: "-70.15000000"
- name: Ayaviri
  state_code: PUN
  state_name: Puno
  latitude: "-14.88639000"
  longitude: "-70.58889000"
- name: Azángaro
  state_code: PUN
  state_name: Puno
  latitude: "-14.90843000"
  longitude: "-70.19616000"
- name: Desaguadero
  state_code: PUN
  state_name: Puno
  latitude: "-16.56556000"
  longitude: "-69.04167000"
- name: El Collao
  state_code: PUN
  state_name: Puno
  latitude: "-16.72641000"
  longitude: "-69.75515000"
- name: Hacienda Huancane
  state_code: PUN
  state_name: Puno
  latitude: "-15.82327000"
  longitude: "-70.88540000"
- name: Ilave
  state_code: PUN
  state_name: Puno
  latitude: "-16.08333000"
  longitude: "-69.66667000"
- name: Juli
  state_code: PUN
  state_name: Puno
  latitude: "-16.21667000"
  longitude: "-69.45000000"
- name: Juliaca
  state_code: PUN
  state_name: Puno
  latitude: "-15.50000000"
  longitude: "-70.13333000"
- name: La Rinconada
  state_code: PUN
  state_name: Puno
  latitude: "-14.63126000"
  longitude: "-69.44638000"
- name: Lampa
  state_code: PUN
  state_name: Puno
  latitude: "-15.35000000"
  longitude: "-70.36667000"
- name: Macusani
  state_code: PUN
  state_name: Puno
  latitude: "-14.08333000"
  longitude: "-70.43333000"
- name: Ñuñoa
  state_code: PUN
  state_name: Puno
  latitude: "-14.47788000"
  longitude: "-70.63583000"
- name: Provincia de Azángaro
  state_code: PUN
  state_name: Puno
  latitude: "-14.83333000"
  longitude: "-70.16667000"
- name: Provincia de Carabaya
  state_code: PUN
  state_name: Puno
  latitude: "-13.83333000"
  longitude: "-70.25000000"
- name: Provincia de Chucuito
  state_code: PUN
  state_name: Puno
  latitude: "-16.60545000"
  longitude: "-69.35761000"
- name: Provincia de Huancané
  state_code: PUN
  state_name: Puno
  latitude: "-15.16667000"
  longitude: "-69.58333000"
- name: Provincia de Lampa
  state_code: PUN
  state_name: Puno
  latitude: "-15.41667000"
  longitude: "-70.58333000"
- name: Provincia de Melgar
  state_code: PUN
  state_name: Puno
  latitude: "-14.75000000"
  longitude: "-70.75000000"
- name: Provincia de Puno
  state_code: PUN
  state_name: Puno
  latitude: "-16.00000000"
  longitude: "-70.00000000"
- name: Provincia de Sandia
  state_code: PUN
  state_name: Puno
  latitude: "-13.83333000"
  longitude: "-69.33333000"
- name: Puno
  state_code: PUN
  state_name: Puno
  latitude: "-15.84220000"
  longitude: "-70.01990000"
- name: San Antonio De Putina
  state_code: PUN
  state_name: Puno
  latitude: "-14.71175000"
  longitude: "-69.61559000"
- name: San Roman
  state_code: PUN
  state_name: Puno
  latitude: "-15.83333000"
  longitude: "-70.50000000"
- name: Santa Lucía
  state_code: PUN
  state_name: Puno
  latitude: "-15.69788000"
  longitude: "-70.60610000"
- name: Taquile
  state_code: PUN
  state_name: Puno
  latitude: "-15.76667000"
  longitude: "-69.68333000"
- name: Yunguyo
  state_code: PUN
  state_name: Puno
  latitude: "-16.25000000"
  longitude: "-69.08333000"
- name: Bellavista
  state_code: SAM
  state_name: San Martín
  latitude: "-7.05614000"
  longitude: "-76.59110000"
- name: Chazuta
  state_code: SAM
  state_name: San Martín
  latitude: "-6.57087000"
  longitude: "-76.13753000"
- name: El Dorado
  state_code: SAM
  state_name: San Martín
  latitude: "-6.56298000"
  longitude: "-76.74130000"
- name: Huicungo
  state_code: SAM
  state_name: San Martín
  latitude: "-7.31860000"
  longitude: "-76.77556000"
- name: Jepelacio
  state_code: SAM
  state_name: San Martín
  latitude: "-6.11667000"
  longitude: "-76.95000000"
- name: Juanjuí
  state_code: SAM
  state_name: San Martín
  latitude: "-7.17697000"
  longitude: "-76.72774000"
- name: Lamas
  state_code: SAM
  state_name: San Martín
  latitude: "-6.41667000"
  longitude: "-76.53333000"
- name: Moyobamba
  state_code: SAM
  state_name: San Martín
  latitude: "-6.03416000"
  longitude: "-76.97168000"
- name: Picota
  state_code: SAM
  state_name: San Martín
  latitude: "-6.92033000"
  longitude: "-76.33142000"
- name: Provincia de Huallaga
  state_code: SAM
  state_name: San Martín
  latitude: "-6.75664000"
  longitude: "-76.90143000"
- name: Provincia de Lamas
  state_code: SAM
  state_name: San Martín
  latitude: "-6.33333000"
  longitude: "-76.66667000"
- name: Provincia de Mariscal Cáceres
  state_code: SAM
  state_name: San Martín
  latitude: "-7.27390000"
  longitude: "-77.18216000"
- name: Provincia de Moyobamba
  state_code: SAM
  state_name: San Martín
  latitude: "-5.75000000"
  longitude: "-77.25000000"
- name: Provincia de Rioja
  state_code: SAM
  state_name: San Martín
  latitude: "-6.00000000"
  longitude: "-77.41667000"
- name: Provincia de San Martín
  state_code: SAM
  state_name: San Martín
  latitude: "-6.58333000"
  longitude: "-76.16667000"
- name: Rioja
  state_code: SAM
  state_name: San Martín
  latitude: "-6.05675000"
  longitude: "-77.16651000"
- name: Saposoa
  state_code: SAM
  state_name: San Martín
  latitude: "-6.93395000"
  longitude: "-76.77158000"
- name: Sisa
  state_code: SAM
  state_name: San Martín
  latitude: "-6.61085000"
  longitude: "-76.69302000"
- name: Soritor
  state_code: SAM
  state_name: San Martín
  latitude: "-6.13917000"
  longitude: "-77.10389000"
- name: Tabalosos
  state_code: SAM
  state_name: San Martín
  latitude: "-6.35000000"
  longitude: "-76.68333000"
- name: Tarapoto
  state_code: SAM
  state_name: San Martín
  latitude: "-6.50139000"
  longitude: "-76.36556000"
- name: Tocache
  state_code: SAM
  state_name: San Martín
  latitude: "-8.18770000"
  longitude: "-76.52046000"
- name: Uchiza
  state_code: SAM
  state_name: San Martín
  latitude: "-8.45917000"
  longitude: "-76.46333000"
- name: Calana
  state_code: TAC
  state_name: Tacna
  latitude: "-17.94167000"
  longitude: "-70.18694000"
- name: Candarave
  state_code: TAC
  state_name: Tacna
  latitude: "-17.26778000"
  longitude: "-70.24944000"
- name: Chipispaya
  state_code: TAC
  state_name: Tacna
  latitude: "-17.49790000"
  longitude: "-70.21714000"
- name: Chuquitira
  state_code: TAC
  state_name: Tacna
  latitude: "-17.28891000"
  longitude: "-70.04363000"
- name: Ilabaya
  state_code: TAC
  state_name: Tacna
  latitude: "-17.42083000"
  longitude: "-70.51333000"
- name: Jorge Basadre
  state_code: TAC
  state_name: Tacna
  latitude: "-17.57919000"
  longitude: "-70.73083000"
- name: Provincia de Tacna
  state_code: TAC
  state_name: Tacna
  latitude: "-17.83333000"
  longitude: "-70.50000000"
- name: Provincia de Tarata
  state_code: TAC
  state_name: Tacna
  latitude: "-17.41667000"
  longitude: "-70.08333000"
- name: Pujocucho
  state_code: TAC
  state_name: Tacna
  latitude: "-17.15778000"
  longitude: "-70.35222000"
- name: Quilahuani
  state_code: TAC
  state_name: Tacna
  latitude: "-17.31778000"
  longitude: "-70.25806000"
- name: Tacna
  state_code: TAC
  state_name: Tacna
  latitude: "-18.01465000"
  longitude: "-70.25362000"
- name: Tarata
  state_code: TAC
  state_name: Tacna
  latitude: "-17.47444000"
  longitude: "-70.03278000"
- name: Totoral
  state_code: TAC
  state_name: Tacna
  latitude: "-17.40620000"
  longitude: "-70.36464000"
- name: Aguas Verdes
  state_code: TUM
  state_name: Tumbes
  latitude: "-3.48139000"
  longitude: "-80.24500000"
- name: Papayal
  state_code: TUM
  state_name: Tumbes
  latitude: "-4.07771000"
  longitude: "-80.73690000"
- name: Provincia de Contralmirante Villar
  state_code: TUM
  state_name: Tumbes
  latitude: "-4.00000000"
  longitude: "-80.75000000"
- name: Provincia de Tumbes
  state_code: TUM
  state_name: Tumbes
  latitude: "-3.75000000"
  longitude: "-80.41667000"
- name: Provincia de Zarumilla
  state_code: TUM
  state_name: Tumbes
  latitude: "-3.66667000"
  longitude: "-80.25000000"
- name: Tumbes
  state_code: TUM
  state_name: Tumbes
  latitude: "-3.56694000"
  longitude: "-80.45153000"
- name: Zarumilla
  state_code: TUM
  state_name: Tumbes
  latitude: "-3.50306000"
  longitude: "-80.27306000"
- name: Zorritos
  state_code: TUM
  state_name: Tumbes
  latitude: "-3.68046000"
  longitude: "-80.67819000"
- name: Atalaya
  state_code: UCA
  state_name: Ucayali
  latitude: "-10.38980000"
  longitude: "-73.21977000"
- name: Campoverde
  state_code: UCA
  state_name: Ucayali
  latitude: "-8.47533000"
  longitude: "-74.80709000"
- name: Padre Abad
  state_code: UCA
  state_name: Ucayali
  latitude: "-8.79680000"
  longitude: "-75.42850000"
- name: Provincia de Coronel Portillo
  state_code: UCA
  state_name: Ucayali
  latitude: "-9.50000000"
  longitude: "-73.33333000"
- name: Pucallpa
  state_code: UCA
  state_name: Ucayali
  latitude: "-8.37915000"
  longitude: "-74.55387000"
- name: Purus
  state_code: UCA
  state_name: Ucayali
  latitude: "-10.37331000"
  longitude: "-71.58231000"
