---
- name: Bräkne-Hoby
  state_code: K
  state_name: Blekinge
  latitude: '56.23333000'
  longitude: '15.11667000'
- name: Hällevik
  state_code: K
  state_name: Blekinge
  latitude: '56.01667000'
  longitude: '14.70000000'
- name: Hasslö
  state_code: K
  state_name: Blekinge
  latitude: '56.11667000'
  longitude: '15.48333000'
- name: Jämjö
  state_code: K
  state_name: Blekinge
  latitude: '56.19187000'
  longitude: '15.84115000'
- name: Jämshög
  state_code: K
  state_name: Blekinge
  latitude: '56.23333000'
  longitude: '14.51667000'
- name: Kallinge
  state_code: K
  state_name: Blekinge
  latitude: '56.24841000'
  longitude: '15.28721000'
- name: Karlshamn
  state_code: K
  state_name: Blekinge
  latitude: '56.17060000'
  longitude: '14.86188000'
- name: Karlskrona
  state_code: K
  state_name: Blekinge
  latitude: '56.16156000'
  longitude: '15.58661000'
- name: Mjällby
  state_code: K
  state_name: Blekinge
  latitude: '56.05000000'
  longitude: '14.68333000'
- name: Mörrum
  state_code: K
  state_name: Blekinge
  latitude: '56.19281000'
  longitude: '14.74739000'
- name: Nättraby
  state_code: K
  state_name: Blekinge
  latitude: '56.20000000'
  longitude: '15.51667000'
- name: Olofström
  state_code: K
  state_name: Blekinge
  latitude: '56.27730000'
  longitude: '14.53402000'
- name: Rödeby
  state_code: K
  state_name: Blekinge
  latitude: '56.26078000'
  longitude: '15.62143000'
- name: Ronneby
  state_code: K
  state_name: Blekinge
  latitude: '56.20999000'
  longitude: '15.27602000'
- name: Sölvesborg
  state_code: K
  state_name: Blekinge
  latitude: '56.05205000'
  longitude: '14.57525000'
- name: Sturkö
  state_code: K
  state_name: Blekinge
  latitude: '56.08333000'
  longitude: '15.70000000'
- name: Svängsta
  state_code: K
  state_name: Blekinge
  latitude: '56.26667000'
  longitude: '14.76667000'
- name: Abborrberget
  state_code: W
  state_name: Dalarna
  latitude: '60.15000000'
  longitude: '14.80000000'
- name: Älvdalen
  state_code: W
  state_name: Dalarna
  latitude: '61.22774000'
  longitude: '14.03935000'
- name: Avesta
  state_code: W
  state_name: Dalarna
  latitude: '60.14274000'
  longitude: '16.16295000'
- name: Bjursås
  state_code: W
  state_name: Dalarna
  latitude: '60.73726000'
  longitude: '15.45291000'
- name: Borlänge
  state_code: W
  state_name: Dalarna
  latitude: '60.48580000'
  longitude: '15.43714000'
- name: Brunna
  state_code: W
  state_name: Dalarna
  latitude: '60.26255000'
  longitude: '16.01034000'
- name: Djurås
  state_code: W
  state_name: Dalarna
  latitude: '60.56061000'
  longitude: '15.13281000'
- name: Enbacka
  state_code: W
  state_name: Dalarna
  latitude: '60.40993000'
  longitude: '15.59575000'
- name: Falun
  state_code: W
  state_name: Dalarna
  latitude: '60.60357000'
  longitude: '15.62597000'
- name: Gagnef
  state_code: W
  state_name: Dalarna
  latitude: '60.59856000'
  longitude: '15.07745000'
- name: Grängesberg
  state_code: W
  state_name: Dalarna
  latitude: '60.07465000'
  longitude: '15.00784000'
- name: Grycksbo
  state_code: W
  state_name: Dalarna
  latitude: '60.68751000'
  longitude: '15.48507000'
- name: Hedemora
  state_code: W
  state_name: Dalarna
  latitude: '60.27973000'
  longitude: '15.98855000'
- name: Horndal
  state_code: W
  state_name: Dalarna
  latitude: '60.30000000'
  longitude: '16.41667000'
- name: Insjön
  state_code: W
  state_name: Dalarna
  latitude: '60.67688000'
  longitude: '15.09487000'
- name: Järna
  state_code: W
  state_name: Dalarna
  latitude: '60.53333000'
  longitude: '14.36667000'
- name: Krylbo
  state_code: W
  state_name: Dalarna
  latitude: '60.13333000'
  longitude: '16.21667000'
- name: Långshyttan
  state_code: W
  state_name: Dalarna
  latitude: '60.45238000'
  longitude: '16.03831000'
- name: Leksand
  state_code: W
  state_name: Dalarna
  latitude: '60.73030000'
  longitude: '14.99994000'
- name: Ludvika
  state_code: W
  state_name: Dalarna
  latitude: '60.14959000'
  longitude: '15.18776000'
- name: Malung
  state_code: W
  state_name: Dalarna
  latitude: '60.68329000'
  longitude: '13.71542000'
- name: Mockfjärd
  state_code: W
  state_name: Dalarna
  latitude: '60.50000000'
  longitude: '14.96667000'
- name: Mora
  state_code: W
  state_name: Dalarna
  latitude: '61.00704000'
  longitude: '14.54316000'
- name: Nyhammar
  state_code: W
  state_name: Dalarna
  latitude: '60.28333000'
  longitude: '14.96667000'
- name: Ornäs
  state_code: W
  state_name: Dalarna
  latitude: '60.50944000'
  longitude: '15.54128000'
- name: Orsa
  state_code: W
  state_name: Dalarna
  latitude: '61.12034000'
  longitude: '14.61550000'
- name: Rättvik
  state_code: W
  state_name: Dalarna
  latitude: '60.88632000'
  longitude: '15.11787000'
- name: Romme
  state_code: W
  state_name: Dalarna
  latitude: '60.43333000'
  longitude: '15.50000000'
- name: Säter
  state_code: W
  state_name: Dalarna
  latitude: '60.34778000'
  longitude: '15.75051000'
- name: Siljansnäs
  state_code: W
  state_name: Dalarna
  latitude: '60.78333000'
  longitude: '14.85000000'
- name: Smedby
  state_code: W
  state_name: Dalarna
  latitude: '60.70000000'
  longitude: '15.05000000'
- name: Smedjebacken
  state_code: W
  state_name: Dalarna
  latitude: '60.14181000'
  longitude: '15.41416000'
- name: Svärdsjö
  state_code: W
  state_name: Dalarna
  latitude: '60.74022000'
  longitude: '15.90173000'
- name: Vansbro
  state_code: W
  state_name: Dalarna
  latitude: '60.50893000'
  longitude: '14.22458000'
- name: Vikarbyn
  state_code: W
  state_name: Dalarna
  latitude: '60.91667000'
  longitude: '15.01667000'
- name: Alfta
  state_code: X
  state_name: Gävleborg
  latitude: '61.34675000'
  longitude: '16.07499000'
- name: Arbrå
  state_code: X
  state_name: Gävleborg
  latitude: '61.46667000'
  longitude: '16.38333000'
- name: Årsunda
  state_code: X
  state_name: Gävleborg
  latitude: '60.51644000'
  longitude: '16.73436000'
- name: Bergby
  state_code: X
  state_name: Gävleborg
  latitude: '60.92931000'
  longitude: '17.04194000'
- name: Bergsjö
  state_code: X
  state_name: Gävleborg
  latitude: '61.98253000'
  longitude: '17.06368000'
- name: Bollnäs
  state_code: X
  state_name: Gävleborg
  latitude: '61.34817000'
  longitude: '16.39464000'
- name: Delsbo
  state_code: X
  state_name: Gävleborg
  latitude: '61.80104000'
  longitude: '16.55571000'
- name: Edsbyn
  state_code: X
  state_name: Gävleborg
  latitude: '61.37692000'
  longitude: '15.81747000'
- name: Färila
  state_code: X
  state_name: Gävleborg
  latitude: '61.80011000'
  longitude: '15.84422000'
- name: Forsbacka
  state_code: X
  state_name: Gävleborg
  latitude: '60.61667000'
  longitude: '16.88333000'
- name: Gävle
  state_code: X
  state_name: Gävleborg
  latitude: '60.67452000'
  longitude: '17.14174000'
- name: Gnarp
  state_code: X
  state_name: Gävleborg
  latitude: '62.04874000'
  longitude: '17.25858000'
- name: Hedesunda
  state_code: X
  state_name: Gävleborg
  latitude: '60.40000000'
  longitude: '17.00000000'
- name: Hofors
  state_code: X
  state_name: Gävleborg
  latitude: '60.54573000'
  longitude: '16.28668000'
- name: Hudiksvall
  state_code: X
  state_name: Gävleborg
  latitude: '61.72744000'
  longitude: '17.10558000'
- name: Iggesund
  state_code: X
  state_name: Gävleborg
  latitude: '61.64219000'
  longitude: '17.07477000'
- name: Järbo
  state_code: X
  state_name: Gävleborg
  latitude: '60.71667000'
  longitude: '16.60000000'
- name: Järvsö
  state_code: X
  state_name: Gävleborg
  latitude: '61.71667000'
  longitude: '16.16667000'
- name: Kilafors
  state_code: X
  state_name: Gävleborg
  latitude: '61.23333000'
  longitude: '16.56667000'
- name: Ljusdal
  state_code: X
  state_name: Gävleborg
  latitude: '61.82883000'
  longitude: '16.09126000'
- name: Ljusne
  state_code: X
  state_name: Gävleborg
  latitude: '61.21170000'
  longitude: '17.12790000'
- name: Ockelbo
  state_code: X
  state_name: Gävleborg
  latitude: '60.89120000'
  longitude: '16.71846000'
- name: Sandarne
  state_code: X
  state_name: Gävleborg
  latitude: '61.25893000'
  longitude: '17.15284000'
- name: Sandviken
  state_code: X
  state_name: Gävleborg
  latitude: '60.61667000'
  longitude: '16.76667000'
- name: Söderhamn
  state_code: X
  state_name: Gävleborg
  latitude: '61.30373000'
  longitude: '17.05921000'
- name: Sörforsa
  state_code: X
  state_name: Gävleborg
  latitude: '61.73333000'
  longitude: '16.98333000'
- name: Storvik
  state_code: X
  state_name: Gävleborg
  latitude: '60.58333000'
  longitude: '16.53333000'
- name: Valbo
  state_code: X
  state_name: Gävleborg
  latitude: '60.65000000'
  longitude: '17.03333000'
- name: Gotland
  state_code: I
  state_name: Gotland
  latitude: '57.50000000'
  longitude: '18.50000000'
- name: Hemse
  state_code: I
  state_name: Gotland
  latitude: '57.23788000'
  longitude: '18.37443000'
- name: Klintehamn
  state_code: I
  state_name: Gotland
  latitude: '57.38667000'
  longitude: '18.20371000'
- name: Vibble
  state_code: I
  state_name: Gotland
  latitude: '57.60452000'
  longitude: '18.25601000'
- name: Visby
  state_code: I
  state_name: Gotland
  latitude: '57.64089000'
  longitude: '18.29602000'
- name: Åled
  state_code: "N"
  state_name: Halland
  latitude: '56.75000000'
  longitude: '12.93333000'
- name: Åsa
  state_code: "N"
  state_name: Halland
  latitude: '57.35000000'
  longitude: '12.11667000'
- name: Bua
  state_code: "N"
  state_name: Halland
  latitude: '57.23780000'
  longitude: '12.12187000'
- name: Falkenberg
  state_code: "N"
  state_name: Halland
  latitude: '56.90552000'
  longitude: '12.49118000'
- name: Fjärås kyrkby
  state_code: "N"
  state_name: Halland
  latitude: '57.45913000'
  longitude: '12.17508000'
- name: Frillesås
  state_code: "N"
  state_name: Halland
  latitude: '57.31667000'
  longitude: '12.16667000'
- name: Frösakull
  state_code: "N"
  state_name: Halland
  latitude: '56.68333000'
  longitude: '12.73333000'
- name: Fyllinge
  state_code: "N"
  state_name: Halland
  latitude: '56.65000000'
  longitude: '12.91667000'
- name: Getinge
  state_code: "N"
  state_name: Halland
  latitude: '56.81667000'
  longitude: '12.73333000'
- name: Glommen
  state_code: "N"
  state_name: Halland
  latitude: '56.93333000'
  longitude: '12.35000000'
- name: Gullbrandstorp
  state_code: "N"
  state_name: Halland
  latitude: '56.70000000'
  longitude: '12.73333000'
- name: Halmstad
  state_code: "N"
  state_name: Halland
  latitude: '56.67446000'
  longitude: '12.85676000'
- name: Harplinge
  state_code: "N"
  state_name: Halland
  latitude: '56.74491000'
  longitude: '12.72758000'
- name: Haverdal
  state_code: "N"
  state_name: Halland
  latitude: '56.72222000'
  longitude: '12.67194000'
- name: Hyltebruk
  state_code: "N"
  state_name: Halland
  latitude: '56.99892000'
  longitude: '13.23958000'
- name: Knäred
  state_code: "N"
  state_name: Halland
  latitude: '56.51861000'
  longitude: '13.32423000'
- name: Kungsbacka
  state_code: "N"
  state_name: Halland
  latitude: '57.48719000'
  longitude: '12.07612000'
- name: Laholm
  state_code: "N"
  state_name: Halland
  latitude: '56.51207000'
  longitude: '13.04371000'
- name: Mellbystrand
  state_code: "N"
  state_name: Halland
  latitude: '56.48561000'
  longitude: '12.93958000'
- name: Mjällby
  state_code: "N"
  state_name: Halland
  latitude: '56.68333000'
  longitude: '12.76667000'
- name: Onsala
  state_code: "N"
  state_name: Halland
  latitude: '57.42531000'
  longitude: '12.02903000'
- name: Oskarström
  state_code: "N"
  state_name: Halland
  latitude: '56.80000000'
  longitude: '12.96667000'
- name: Särö
  state_code: "N"
  state_name: Halland
  latitude: '57.50577000'
  longitude: '11.93210000'
- name: Skrea
  state_code: "N"
  state_name: Halland
  latitude: '56.88333000'
  longitude: '12.56667000'
- name: Steninge
  state_code: "N"
  state_name: Halland
  latitude: '56.76900000'
  longitude: '12.63034000'
- name: Torup
  state_code: "N"
  state_name: Halland
  latitude: '56.95663000'
  longitude: '13.07725000'
- name: Träslövsläge
  state_code: "N"
  state_name: Halland
  latitude: '57.05417000'
  longitude: '12.27899000'
- name: Trönninge
  state_code: "N"
  state_name: Halland
  latitude: '56.61667000'
  longitude: '12.93333000'
- name: Tvååker
  state_code: "N"
  state_name: Halland
  latitude: '57.04147000'
  longitude: '12.39950000'
- name: Vallda
  state_code: "N"
  state_name: Halland
  latitude: '57.47750000'
  longitude: '12.00139000'
- name: Varberg
  state_code: "N"
  state_name: Halland
  latitude: '57.10557000'
  longitude: '12.25078000'
- name: Västra Hagen
  state_code: "N"
  state_name: Halland
  latitude: '57.42444000'
  longitude: '11.93583000'
- name: Veddige
  state_code: "N"
  state_name: Halland
  latitude: '57.26591000'
  longitude: '12.33220000'
- name: Veinge
  state_code: "N"
  state_name: Halland
  latitude: '56.55000000'
  longitude: '13.06667000'
- name: Anderstorp
  state_code: F
  state_name: Jönköping
  latitude: '57.28333000'
  longitude: '13.63333000'
- name: Aneby
  state_code: F
  state_name: Jönköping
  latitude: '57.83895000'
  longitude: '14.81016000'
- name: Bankeryd
  state_code: F
  state_name: Jönköping
  latitude: '57.86021000'
  longitude: '14.12400000'
- name: Bodafors
  state_code: F
  state_name: Jönköping
  latitude: '57.50000000'
  longitude: '14.70000000'
- name: Bor
  state_code: F
  state_name: Jönköping
  latitude: '57.11667000'
  longitude: '14.16667000'
- name: Bredaryd
  state_code: F
  state_name: Jönköping
  latitude: '57.17343000'
  longitude: '13.73789000'
- name: Ekenässjön
  state_code: F
  state_name: Jönköping
  latitude: '57.49175000'
  longitude: '15.02226000'
- name: Eksjö
  state_code: F
  state_name: Jönköping
  latitude: '57.66643000'
  longitude: '14.97205000'
- name: Forserum
  state_code: F
  state_name: Jönköping
  latitude: '57.70000000'
  longitude: '14.46667000'
- name: Forsheda
  state_code: F
  state_name: Jönköping
  latitude: '57.16415000'
  longitude: '13.83016000'
- name: Gislaved
  state_code: F
  state_name: Jönköping
  latitude: '57.30440000'
  longitude: '13.54078000'
- name: Gnosjö
  state_code: F
  state_name: Jönköping
  latitude: '57.35850000'
  longitude: '13.73686000'
- name: Gränna
  state_code: F
  state_name: Jönköping
  latitude: '58.01667000'
  longitude: '14.46667000'
- name: Habo
  state_code: F
  state_name: Jönköping
  latitude: '57.91185000'
  longitude: '14.07444000'
- name: Hestra
  state_code: F
  state_name: Jönköping
  latitude: '57.44232000'
  longitude: '13.59575000'
- name: Hillerstorp
  state_code: F
  state_name: Jönköping
  latitude: '57.31293000'
  longitude: '13.88437000'
- name: Huskvarna
  state_code: F
  state_name: Jönköping
  latitude: '57.78596000'
  longitude: '14.30214000'
- name: Jönköping
  state_code: F
  state_name: Jönköping
  latitude: '57.78145000'
  longitude: '14.15618000'
- name: Kaxholmen
  state_code: F
  state_name: Jönköping
  latitude: '57.85345000'
  longitude: '14.30457000'
- name: Landsbro
  state_code: F
  state_name: Jönköping
  latitude: '57.36667000'
  longitude: '14.90000000'
- name: Malmbäck
  state_code: F
  state_name: Jönköping
  latitude: '57.57667000'
  longitude: '14.46170000'
- name: Mariannelund
  state_code: F
  state_name: Jönköping
  latitude: '57.61667000'
  longitude: '15.56667000'
- name: Marieholm
  state_code: F
  state_name: Jönköping
  latitude: '57.38333000'
  longitude: '13.85000000'
- name: Mullsjö
  state_code: F
  state_name: Jönköping
  latitude: '57.91710000'
  longitude: '13.87831000'
- name: Nässjö
  state_code: F
  state_name: Jönköping
  latitude: '57.65307000'
  longitude: '14.69676000'
- name: Odensjö
  state_code: F
  state_name: Jönköping
  latitude: '57.71667000'
  longitude: '14.16667000'
- name: Reftele
  state_code: F
  state_name: Jönköping
  latitude: '57.17467000'
  longitude: '13.59498000'
- name: Rydaholm
  state_code: F
  state_name: Jönköping
  latitude: '56.98388000'
  longitude: '14.30849000'
- name: Sävsjö
  state_code: F
  state_name: Jönköping
  latitude: '57.40327000'
  longitude: '14.66244000'
- name: Skillingaryd
  state_code: F
  state_name: Jönköping
  latitude: '57.43044000'
  longitude: '14.09383000'
- name: Smålandsstenar
  state_code: F
  state_name: Jönköping
  latitude: '57.16241000'
  longitude: '13.41212000'
- name: Stockaryd
  state_code: F
  state_name: Jönköping
  latitude: '57.31737000'
  longitude: '14.59341000'
- name: Taberg
  state_code: F
  state_name: Jönköping
  latitude: '57.67722000'
  longitude: '14.08876000'
- name: Tenhult
  state_code: F
  state_name: Jönköping
  latitude: '57.70761000'
  longitude: '14.32205000'
- name: Tranås
  state_code: F
  state_name: Jönköping
  latitude: '58.03717000'
  longitude: '14.97820000'
- name: Vaggeryd
  state_code: F
  state_name: Jönköping
  latitude: '57.49807000'
  longitude: '14.14842000'
- name: Värnamo
  state_code: F
  state_name: Jönköping
  latitude: '57.18604000'
  longitude: '14.04001000'
- name: Vetlanda
  state_code: F
  state_name: Jönköping
  latitude: '57.42887000'
  longitude: '15.07762000'
- name: Vrigstad
  state_code: F
  state_name: Jönköping
  latitude: '57.35000000'
  longitude: '14.46667000'
- name: Ankarsrum
  state_code: H
  state_name: Kalmar
  latitude: '57.69896000'
  longitude: '16.33407000'
- name: Bergkvara
  state_code: H
  state_name: Kalmar
  latitude: '56.39063000'
  longitude: '16.07274000'
- name: Blomstermåla
  state_code: H
  state_name: Kalmar
  latitude: '56.98333000'
  longitude: '16.33333000'
- name: Borgholm
  state_code: H
  state_name: Kalmar
  latitude: '56.87930000'
  longitude: '16.65634000'
- name: Emmaboda
  state_code: H
  state_name: Kalmar
  latitude: '56.63268000'
  longitude: '15.53648000'
- name: Färjestaden
  state_code: H
  state_name: Kalmar
  latitude: '56.64990000'
  longitude: '16.46859000'
- name: Gamleby
  state_code: H
  state_name: Kalmar
  latitude: '57.89485000'
  longitude: '16.40508000'
- name: Gunnebo
  state_code: H
  state_name: Kalmar
  latitude: '57.71667000'
  longitude: '16.53333000'
- name: Högsby
  state_code: H
  state_name: Kalmar
  latitude: '57.16597000'
  longitude: '16.02562000'
- name: Hultsfred
  state_code: H
  state_name: Kalmar
  latitude: '57.48815000'
  longitude: '15.84357000'
- name: Kalmar
  state_code: H
  state_name: Kalmar
  latitude: '56.66157000'
  longitude: '16.36163000'
- name: Kristdala
  state_code: H
  state_name: Kalmar
  latitude: '57.40070000'
  longitude: '16.20496000'
- name: Lindsdal
  state_code: H
  state_name: Kalmar
  latitude: '56.73333000'
  longitude: '16.30000000'
- name: Ljungbyholm
  state_code: H
  state_name: Kalmar
  latitude: '56.63333000'
  longitude: '16.16667000'
- name: Målilla
  state_code: H
  state_name: Kalmar
  latitude: '57.38773000'
  longitude: '15.80675000'
- name: Mönsterås
  state_code: H
  state_name: Kalmar
  latitude: '57.04134000'
  longitude: '16.44463000'
- name: Mörbylånga
  state_code: H
  state_name: Kalmar
  latitude: '56.52480000'
  longitude: '16.37877000'
- name: Nybro
  state_code: H
  state_name: Kalmar
  latitude: '56.74461000'
  longitude: '15.90714000'
- name: Oskarshamn
  state_code: H
  state_name: Kalmar
  latitude: '57.26455000'
  longitude: '16.44837000'
- name: Överum
  state_code: H
  state_name: Kalmar
  latitude: '57.98856000'
  longitude: '16.31390000'
- name: Påskallavik
  state_code: H
  state_name: Kalmar
  latitude: '57.16667000'
  longitude: '16.45000000'
- name: Rinkabyholm
  state_code: H
  state_name: Kalmar
  latitude: '56.64972000'
  longitude: '16.26667000'
- name: Smedby
  state_code: H
  state_name: Kalmar
  latitude: '56.67413000'
  longitude: '16.24320000'
- name: Södra Sandby
  state_code: H
  state_name: Kalmar
  latitude: '56.56667000'
  longitude: '16.61667000'
- name: Södra Vi
  state_code: H
  state_name: Kalmar
  latitude: '57.73993000'
  longitude: '15.79391000'
- name: Storebro
  state_code: H
  state_name: Kalmar
  latitude: '57.58333000'
  longitude: '15.85000000'
- name: Timmernabben
  state_code: H
  state_name: Kalmar
  latitude: '56.96667000'
  longitude: '16.43333000'
- name: Torsås
  state_code: H
  state_name: Kalmar
  latitude: '56.41251000'
  longitude: '15.99844000'
- name: Trekanten
  state_code: H
  state_name: Kalmar
  latitude: '56.70000000'
  longitude: '16.11667000'
- name: Västervik
  state_code: H
  state_name: Kalmar
  latitude: '57.75840000'
  longitude: '16.63733000'
- name: Vimmerby
  state_code: H
  state_name: Kalmar
  latitude: '57.66588000'
  longitude: '15.85515000'
- name: Virserum
  state_code: H
  state_name: Kalmar
  latitude: '57.31667000'
  longitude: '15.58333000'
- name: Älmhult
  state_code: G
  state_name: Kronoberg
  latitude: '56.55146000'
  longitude: '14.13827000'
- name: Alvesta
  state_code: G
  state_name: Kronoberg
  latitude: '56.89935000'
  longitude: '14.55559000'
- name: Åseda
  state_code: G
  state_name: Kronoberg
  latitude: '57.17010000'
  longitude: '15.34430000'
- name: Braås
  state_code: G
  state_name: Kronoberg
  latitude: '57.06667000'
  longitude: '15.05000000'
- name: Gemla
  state_code: G
  state_name: Kronoberg
  latitude: '56.86753000'
  longitude: '14.64379000'
- name: Hovmantorp
  state_code: G
  state_name: Kronoberg
  latitude: '56.78685000'
  longitude: '15.14023000'
- name: Ingelstad
  state_code: G
  state_name: Kronoberg
  latitude: '56.75000000'
  longitude: '14.91667000'
- name: Lagan
  state_code: G
  state_name: Kronoberg
  latitude: '56.91667000'
  longitude: '13.98333000'
- name: Lammhult
  state_code: G
  state_name: Kronoberg
  latitude: '57.16667000'
  longitude: '14.58333000'
- name: Lenhovda
  state_code: G
  state_name: Kronoberg
  latitude: '57.00000000'
  longitude: '15.28333000'
- name: Lessebo
  state_code: G
  state_name: Kronoberg
  latitude: '56.75185000'
  longitude: '15.26969000'
- name: Ljungby
  state_code: G
  state_name: Kronoberg
  latitude: '56.83324000'
  longitude: '13.94082000'
- name: Markaryd
  state_code: G
  state_name: Kronoberg
  latitude: '56.46135000'
  longitude: '13.59644000'
- name: Moheda
  state_code: G
  state_name: Kronoberg
  latitude: '57.00000000'
  longitude: '14.56667000'
- name: Rottne
  state_code: G
  state_name: Kronoberg
  latitude: '57.01667000'
  longitude: '14.90000000'
- name: Ryd
  state_code: G
  state_name: Kronoberg
  latitude: '56.46667000'
  longitude: '14.68333000'
- name: Strömsnäsbruk
  state_code: G
  state_name: Kronoberg
  latitude: '56.55000000'
  longitude: '13.71667000'
- name: Tingsryd
  state_code: G
  state_name: Kronoberg
  latitude: '56.52470000'
  longitude: '14.97902000'
- name: Växjö
  state_code: G
  state_name: Kronoberg
  latitude: '56.87767000'
  longitude: '14.80906000'
- name: Vislanda
  state_code: G
  state_name: Kronoberg
  latitude: '56.78333000'
  longitude: '14.45000000'
- name: Älvsbyn
  state_code: BD
  state_name: Norrbotten
  latitude: '65.67624000'
  longitude: '21.00162000'
- name: Arjeplog
  state_code: BD
  state_name: Norrbotten
  latitude: '66.05173000'
  longitude: '17.88606000'
- name: Arvidsjaur
  state_code: BD
  state_name: Norrbotten
  latitude: '65.59033000'
  longitude: '19.16682000'
- name: Bergnäset
  state_code: BD
  state_name: Norrbotten
  latitude: '65.57791000'
  longitude: '22.10844000'
- name: Bergsviken
  state_code: BD
  state_name: Norrbotten
  latitude: '65.30000000'
  longitude: '21.38333000'
- name: Björkskatan
  state_code: BD
  state_name: Norrbotten
  latitude: '65.61373000'
  longitude: '22.17702000'
- name: Boden
  state_code: BD
  state_name: Norrbotten
  latitude: '65.82518000'
  longitude: '21.68864000'
- name: Gällivare
  state_code: BD
  state_name: Norrbotten
  latitude: '67.13387000'
  longitude: '20.65278000'
- name: Gammelstad
  state_code: BD
  state_name: Norrbotten
  latitude: '65.63931000'
  longitude: '22.01145000'
- name: Haparanda
  state_code: BD
  state_name: Norrbotten
  latitude: '65.83549000'
  longitude: '24.13676000'
- name: Hortlax
  state_code: BD
  state_name: Norrbotten
  latitude: '65.28188000'
  longitude: '21.40544000'
- name: Jokkmokk
  state_code: BD
  state_name: Norrbotten
  latitude: '66.60665000'
  longitude: '19.82324000'
- name: Kalix
  state_code: BD
  state_name: Norrbotten
  latitude: '65.85298000'
  longitude: '23.15645000'
- name: Kiruna
  state_code: BD
  state_name: Norrbotten
  latitude: '67.85572000'
  longitude: '20.22513000'
- name: Luleå
  state_code: BD
  state_name: Norrbotten
  latitude: '65.58415000'
  longitude: '22.15465000'
- name: Malmberget
  state_code: BD
  state_name: Norrbotten
  latitude: '67.17529000'
  longitude: '20.65495000'
- name: Marielund
  state_code: BD
  state_name: Norrbotten
  latitude: '65.85307000'
  longitude: '24.10486000'
- name: Norrfjärden
  state_code: BD
  state_name: Norrbotten
  latitude: '65.41805000'
  longitude: '21.50151000'
- name: Överkalix
  state_code: BD
  state_name: Norrbotten
  latitude: '66.32754000'
  longitude: '22.84414000'
- name: Övertorneå
  state_code: BD
  state_name: Norrbotten
  latitude: '66.38778000'
  longitude: '23.65425000'
- name: Pajala
  state_code: BD
  state_name: Norrbotten
  latitude: '67.21284000'
  longitude: '23.36607000'
- name: Piteå
  state_code: BD
  state_name: Norrbotten
  latitude: '65.31717000'
  longitude: '21.47944000'
- name: Råneå
  state_code: BD
  state_name: Norrbotten
  latitude: '65.85482000'
  longitude: '22.29126000'
- name: Roknäs
  state_code: BD
  state_name: Norrbotten
  latitude: '65.35000000'
  longitude: '21.20000000'
- name: Rolfs
  state_code: BD
  state_name: Norrbotten
  latitude: '65.85000000'
  longitude: '23.11667000'
- name: Rosvik
  state_code: BD
  state_name: Norrbotten
  latitude: '65.43333000'
  longitude: '21.70000000'
- name: Sävast
  state_code: BD
  state_name: Norrbotten
  latitude: '65.77002000'
  longitude: '21.73113000'
- name: Södra Sunderbyn
  state_code: BD
  state_name: Norrbotten
  latitude: '65.65983000'
  longitude: '21.94004000'
- name: Töre
  state_code: BD
  state_name: Norrbotten
  latitude: '65.91243000'
  longitude: '22.65128000'
- name: Åsbro
  state_code: T
  state_name: Örebro
  latitude: '59.00000000'
  longitude: '15.05000000'
- name: Askersund
  state_code: T
  state_name: Örebro
  latitude: '58.87988000'
  longitude: '14.90230000'
- name: Degerfors
  state_code: T
  state_name: Örebro
  latitude: '59.23797000'
  longitude: '14.43077000'
- name: Ekeby-Almby
  state_code: T
  state_name: Örebro
  latitude: '59.26000000'
  longitude: '15.33000000'
- name: Fellingsbro
  state_code: T
  state_name: Örebro
  latitude: '59.43333000'
  longitude: '15.58333000'
- name: Fjugesta
  state_code: T
  state_name: Örebro
  latitude: '59.17375000'
  longitude: '14.87227000'
- name: Frövi
  state_code: T
  state_name: Örebro
  latitude: '59.46667000'
  longitude: '15.36667000'
- name: Garphyttan
  state_code: T
  state_name: Örebro
  latitude: '59.30429000'
  longitude: '14.94623000'
- name: Hällabrottet
  state_code: T
  state_name: Örebro
  latitude: '59.11667000'
  longitude: '15.20000000'
- name: Hällefors
  state_code: T
  state_name: Örebro
  latitude: '59.78388000'
  longitude: '14.52197000'
- name: Hallsberg
  state_code: T
  state_name: Örebro
  latitude: '59.06463000'
  longitude: '15.10993000'
- name: Hovsta
  state_code: T
  state_name: Örebro
  latitude: '59.35000000'
  longitude: '15.21667000'
- name: Karlskoga
  state_code: T
  state_name: Örebro
  latitude: '59.32667000'
  longitude: '14.52386000'
- name: Kopparberg
  state_code: T
  state_name: Örebro
  latitude: '59.87597000'
  longitude: '14.99436000'
- name: Kumla
  state_code: T
  state_name: Örebro
  latitude: '59.12770000'
  longitude: '15.14341000'
- name: Laxå
  state_code: T
  state_name: Örebro
  latitude: '58.98630000'
  longitude: '14.61904000'
- name: Lindesberg
  state_code: T
  state_name: Örebro
  latitude: '59.59202000'
  longitude: '15.23040000'
- name: Nora
  state_code: T
  state_name: Örebro
  latitude: '59.51926000'
  longitude: '15.03979000'
- name: Odensbacken
  state_code: T
  state_name: Örebro
  latitude: '59.16667000'
  longitude: '15.53333000'
- name: Örebro
  state_code: T
  state_name: Örebro
  latitude: '59.27412000'
  longitude: '15.20660000'
- name: Pålsboda
  state_code: T
  state_name: Örebro
  latitude: '59.06565000'
  longitude: '15.33747000'
- name: Sköllersta
  state_code: T
  state_name: Örebro
  latitude: '59.13738000'
  longitude: '15.33940000'
- name: Storå
  state_code: T
  state_name: Örebro
  latitude: '59.71409000'
  longitude: '15.13169000'
- name: Vintrosa
  state_code: T
  state_name: Örebro
  latitude: '59.25000000'
  longitude: '14.95000000'
- name: Åby
  state_code: E
  state_name: Östergötland
  latitude: '58.66667000'
  longitude: '16.18333000'
- name: Åtvidaberg
  state_code: E
  state_name: Östergötland
  latitude: '58.20152000'
  longitude: '15.99770000'
- name: Berg
  state_code: E
  state_name: Östergötland
  latitude: '58.48831000'
  longitude: '15.52969000'
- name: Borensberg
  state_code: E
  state_name: Östergötland
  latitude: '58.56667000'
  longitude: '15.28333000'
- name: Boxholm
  state_code: E
  state_name: Östergötland
  latitude: '58.19719000'
  longitude: '15.05376000'
- name: Ekängen
  state_code: E
  state_name: Östergötland
  latitude: '58.46667000'
  longitude: '15.63333000'
- name: Finspång
  state_code: E
  state_name: Östergötland
  latitude: '58.70578000'
  longitude: '15.76739000'
- name: Grebo
  state_code: E
  state_name: Östergötland
  latitude: '58.30145000'
  longitude: '15.87085000'
- name: Gusum
  state_code: E
  state_name: Östergötland
  latitude: '58.26880000'
  longitude: '16.49894000'
- name: Herrestad
  state_code: E
  state_name: Östergötland
  latitude: '58.38333000'
  longitude: '14.80000000'
- name: Jursla
  state_code: E
  state_name: Östergötland
  latitude: '58.66667000'
  longitude: '16.18333000'
- name: Kimstad
  state_code: E
  state_name: Östergötland
  latitude: '58.54967000'
  longitude: '15.96296000'
- name: Kisa
  state_code: E
  state_name: Östergötland
  latitude: '57.98781000'
  longitude: '15.63303000'
- name: Krokek
  state_code: E
  state_name: Östergötland
  latitude: '58.67231000'
  longitude: '16.36741000'
- name: Lindö
  state_code: E
  state_name: Östergötland
  latitude: '58.61667000'
  longitude: '16.25000000'
- name: Linghem
  state_code: E
  state_name: Östergötland
  latitude: '58.43333000'
  longitude: '15.78333000'
- name: Linköping
  state_code: E
  state_name: Östergötland
  latitude: '58.41086000'
  longitude: '15.62157000'
- name: Ljungsbro
  state_code: E
  state_name: Östergötland
  latitude: '58.51667000'
  longitude: '15.50000000'
- name: Malmslätt
  state_code: E
  state_name: Östergötland
  latitude: '58.41102000'
  longitude: '15.51647000'
- name: Mantorp
  state_code: E
  state_name: Östergötland
  latitude: '58.35000000'
  longitude: '15.28333000'
- name: Mjölby
  state_code: E
  state_name: Östergötland
  latitude: '58.32595000'
  longitude: '15.12365000'
- name: Motala
  state_code: E
  state_name: Östergötland
  latitude: '58.53706000'
  longitude: '15.03649000'
- name: Norrköping
  state_code: E
  state_name: Östergötland
  latitude: '58.59419000'
  longitude: '16.18260000'
- name: Ödeshög
  state_code: E
  state_name: Östergötland
  latitude: '58.22949000'
  longitude: '14.65294000'
- name: Österbymo
  state_code: E
  state_name: Östergötland
  latitude: '57.82465000'
  longitude: '15.27357000'
- name: Rimforsa
  state_code: E
  state_name: Östergötland
  latitude: '58.13624000'
  longitude: '15.68650000'
- name: Ryd
  state_code: E
  state_name: Östergötland
  latitude: '58.66667000'
  longitude: '15.08333000'
- name: Skänninge
  state_code: E
  state_name: Östergötland
  latitude: '58.39427000'
  longitude: '15.08659000'
- name: Skärblacka
  state_code: E
  state_name: Östergötland
  latitude: '58.56667000'
  longitude: '15.90000000'
- name: Söderköping
  state_code: E
  state_name: Östergötland
  latitude: '58.48057000'
  longitude: '16.32221000'
- name: Stenstorp
  state_code: E
  state_name: Östergötland
  latitude: '58.48333000'
  longitude: '15.06667000'
- name: Sturefors
  state_code: E
  state_name: Östergötland
  latitude: '58.33333000'
  longitude: '15.73333000'
- name: Svärtinge
  state_code: E
  state_name: Östergötland
  latitude: '58.65507000'
  longitude: '16.02823000'
- name: Tallboda
  state_code: E
  state_name: Östergötland
  latitude: '58.42521000'
  longitude: '15.68154000'
- name: Vadstena
  state_code: E
  state_name: Östergötland
  latitude: '58.44863000'
  longitude: '14.88969000'
- name: Valdemarsvik
  state_code: E
  state_name: Östergötland
  latitude: '58.20310000'
  longitude: '16.60225000'
- name: Vikingstad
  state_code: E
  state_name: Östergötland
  latitude: '58.38304000'
  longitude: '15.43201000'
- name: Åhus
  state_code: M
  state_name: Skåne
  latitude: '55.91667000'
  longitude: '14.28333000'
- name: Åkarp
  state_code: M
  state_name: Skåne
  latitude: '55.65396000'
  longitude: '13.11107000'
- name: Anderslöv
  state_code: M
  state_name: Skåne
  latitude: '55.43836000'
  longitude: '13.31966000'
- name: Ängelholm
  state_code: M
  state_name: Skåne
  latitude: '56.24280000'
  longitude: '12.86219000'
- name: Arlöv
  state_code: M
  state_name: Skåne
  latitude: '55.63248000'
  longitude: '13.07141000'
- name: Asmundtorp
  state_code: M
  state_name: Skåne
  latitude: '55.88333000'
  longitude: '12.93333000'
- name: Åstorp
  state_code: M
  state_name: Skåne
  latitude: '56.13566000'
  longitude: '12.94430000'
- name: Bara
  state_code: M
  state_name: Skåne
  latitude: '55.58155000'
  longitude: '13.17862000'
- name: Bårslöv
  state_code: M
  state_name: Skåne
  latitude: '56.00910000'
  longitude: '12.80580000'
- name: Båstad
  state_code: M
  state_name: Skåne
  latitude: '56.42689000'
  longitude: '12.85339000'
- name: Billeberga
  state_code: M
  state_name: Skåne
  latitude: '55.88333000'
  longitude: '13.00000000'
- name: Billesholm
  state_code: M
  state_name: Skåne
  latitude: '56.05000000'
  longitude: '13.00000000'
- name: Bjärnum
  state_code: M
  state_name: Skåne
  latitude: '56.29032000'
  longitude: '13.71128000'
- name: Bjärred
  state_code: M
  state_name: Skåne
  latitude: '55.71667000'
  longitude: '13.01667000'
- name: Bjuv
  state_code: M
  state_name: Skåne
  latitude: '56.08372000'
  longitude: '12.91914000'
- name: Blentarp
  state_code: M
  state_name: Skåne
  latitude: '55.58333000'
  longitude: '13.60000000'
- name: Broby
  state_code: M
  state_name: Skåne
  latitude: '56.25521000'
  longitude: '14.07797000'
- name: Bromölla
  state_code: M
  state_name: Skåne
  latitude: '56.07551000'
  longitude: '14.46958000'
- name: Bunkeflostrand
  state_code: M
  state_name: Skåne
  latitude: '55.54478000'
  longitude: '12.92375000'
- name: Dalby
  state_code: M
  state_name: Skåne
  latitude: '55.66655000'
  longitude: '13.34976000'
- name: Degeberga
  state_code: M
  state_name: Skåne
  latitude: '55.83333000'
  longitude: '14.08333000'
- name: Ekeby
  state_code: M
  state_name: Skåne
  latitude: '56.00000000'
  longitude: '12.96667000'
- name: Eslöv
  state_code: M
  state_name: Skåne
  latitude: '55.83928000'
  longitude: '13.30393000'
- name: Färlöv
  state_code: M
  state_name: Skåne
  latitude: '56.06667000'
  longitude: '14.08333000'
- name: Fjälkinge
  state_code: M
  state_name: Skåne
  latitude: '56.04364000'
  longitude: '14.27562000'
- name: Förslöv
  state_code: M
  state_name: Skåne
  latitude: '56.35000000'
  longitude: '12.81667000'
- name: Furulund
  state_code: M
  state_name: Skåne
  latitude: '55.77380000'
  longitude: '13.09022000'
- name: Gantofta
  state_code: M
  state_name: Skåne
  latitude: '55.98729000'
  longitude: '12.80482000'
- name: Gärsnäs
  state_code: M
  state_name: Skåne
  latitude: '55.54949000'
  longitude: '14.17923000'
- name: Genarp
  state_code: M
  state_name: Skåne
  latitude: '55.59907000'
  longitude: '13.39820000'
- name: Glimåkra
  state_code: M
  state_name: Skåne
  latitude: '56.30000000'
  longitude: '14.13333000'
- name: Glumslöv
  state_code: M
  state_name: Skåne
  latitude: '55.94091000'
  longitude: '12.80929000'
- name: Häljarp
  state_code: M
  state_name: Skåne
  latitude: '55.85000000'
  longitude: '12.91667000'
- name: Hammar
  state_code: M
  state_name: Skåne
  latitude: '56.01667000'
  longitude: '14.21667000'
- name: Hanaskog
  state_code: M
  state_name: Skåne
  latitude: '56.16061000'
  longitude: '14.09307000'
- name: Hässleholm
  state_code: M
  state_name: Skåne
  latitude: '56.15905000'
  longitude: '13.76638000'
- name: Hästveda
  state_code: M
  state_name: Skåne
  latitude: '56.28468000'
  longitude: '13.93547000'
- name: Helsingborg
  state_code: M
  state_name: Skåne
  latitude: '56.05648000'
  longitude: '12.78718000'
- name: Hittarp
  state_code: M
  state_name: Skåne
  latitude: '56.10000000'
  longitude: '12.63333000'
- name: Hjärnarp
  state_code: M
  state_name: Skåne
  latitude: '56.31667000'
  longitude: '12.91667000'
- name: Hjärup
  state_code: M
  state_name: Skåne
  latitude: '55.66880000'
  longitude: '13.13931000'
- name: Hofterup
  state_code: M
  state_name: Skåne
  latitude: '55.80485000'
  longitude: '12.97970000'
- name: Höganäs
  state_code: M
  state_name: Skåne
  latitude: '56.19971000'
  longitude: '12.55795000'
- name: Hököpinge
  state_code: M
  state_name: Skåne
  latitude: '55.49411000'
  longitude: '13.00782000'
- name: Höllviken
  state_code: M
  state_name: Skåne
  latitude: '55.40982000'
  longitude: '12.95580000'
- name: Höör
  state_code: M
  state_name: Skåne
  latitude: '55.93444000'
  longitude: '13.53850000'
- name: Hörby
  state_code: M
  state_name: Skåne
  latitude: '55.85238000'
  longitude: '13.66094000'
- name: Hyllinge
  state_code: M
  state_name: Skåne
  latitude: '56.10000000'
  longitude: '12.85000000'
- name: Jonstorp
  state_code: M
  state_name: Skåne
  latitude: '56.23380000'
  longitude: '12.67184000'
- name: Kågeröd
  state_code: M
  state_name: Skåne
  latitude: '55.99976000'
  longitude: '13.08795000'
- name: Kävlinge
  state_code: M
  state_name: Skåne
  latitude: '55.79188000'
  longitude: '13.11021000'
- name: Klågerup
  state_code: M
  state_name: Skåne
  latitude: '55.59416000'
  longitude: '13.24574000'
- name: Klippan
  state_code: M
  state_name: Skåne
  latitude: '56.13559000'
  longitude: '13.13086000'
- name: Knislinge
  state_code: M
  state_name: Skåne
  latitude: '56.18333000'
  longitude: '14.08333000'
- name: Köpingebro
  state_code: M
  state_name: Skåne
  latitude: '55.45526000'
  longitude: '13.93453000'
- name: Kristianstad
  state_code: M
  state_name: Skåne
  latitude: '56.03129000'
  longitude: '14.15242000'
- name: Kvidinge
  state_code: M
  state_name: Skåne
  latitude: '56.13386000'
  longitude: '13.04678000'
- name: Landskrona
  state_code: M
  state_name: Skåne
  latitude: '55.88620000'
  longitude: '12.85880000'
- name: Ljungbyhed
  state_code: M
  state_name: Skåne
  latitude: '56.07437000'
  longitude: '13.24010000'
- name: Ljunghusen
  state_code: M
  state_name: Skåne
  latitude: '55.39793000'
  longitude: '12.92486000'
- name: Löberöd
  state_code: M
  state_name: Skåne
  latitude: '55.77610000'
  longitude: '13.52414000'
- name: Löddeköpinge
  state_code: M
  state_name: Skåne
  latitude: '55.76667000'
  longitude: '13.01667000'
- name: Lomma
  state_code: M
  state_name: Skåne
  latitude: '55.67244000'
  longitude: '13.06849000'
- name: Lönsboda
  state_code: M
  state_name: Skåne
  latitude: '56.40000000'
  longitude: '14.31667000'
- name: Lund
  state_code: M
  state_name: Skåne
  latitude: '55.70584000'
  longitude: '13.19321000'
- name: Malmö
  state_code: M
  state_name: Skåne
  latitude: '55.60587000'
  longitude: '13.00073000'
- name: Marieholm
  state_code: M
  state_name: Skåne
  latitude: '55.86667000'
  longitude: '13.15000000'
- name: Mörarp
  state_code: M
  state_name: Skåne
  latitude: '56.05749000'
  longitude: '12.88018000'
- name: Munka-Ljungby
  state_code: M
  state_name: Skåne
  latitude: '56.25000000'
  longitude: '12.96667000'
- name: Näsum
  state_code: M
  state_name: Skåne
  latitude: '56.17693000'
  longitude: '14.49706000'
- name: Norra Åsum
  state_code: M
  state_name: Skåne
  latitude: '55.98333000'
  longitude: '14.15000000'
- name: Ödåkra
  state_code: M
  state_name: Skåne
  latitude: '56.10412000'
  longitude: '12.74770000'
- name: Önnestad
  state_code: M
  state_name: Skåne
  latitude: '56.05747000'
  longitude: '14.02233000'
- name: Örkelljunga
  state_code: M
  state_name: Skåne
  latitude: '56.28338000'
  longitude: '13.27773000'
- name: Osby
  state_code: M
  state_name: Skåne
  latitude: '56.38165000'
  longitude: '13.99364000'
- name: Östra Ljungby
  state_code: M
  state_name: Skåne
  latitude: '56.19601000'
  longitude: '13.09199000'
- name: Oxie
  state_code: M
  state_name: Skåne
  latitude: '55.54014000'
  longitude: '13.09605000'
- name: Påarp
  state_code: M
  state_name: Skåne
  latitude: '56.03333000'
  longitude: '12.81667000'
- name: Perstorp
  state_code: M
  state_name: Skåne
  latitude: '56.13829000'
  longitude: '13.39476000'
- name: Rydebäck
  state_code: M
  state_name: Skåne
  latitude: '55.96667000'
  longitude: '12.76667000'
- name: Rydsgård
  state_code: M
  state_name: Skåne
  latitude: '55.47285000'
  longitude: '13.58829000'
- name: Sätofta
  state_code: M
  state_name: Skåne
  latitude: '55.91667000'
  longitude: '13.55000000'
- name: Saxtorpsskogen
  state_code: M
  state_name: Skåne
  latitude: '55.83208000'
  longitude: '12.94429000'
- name: Sibbhult
  state_code: M
  state_name: Skåne
  latitude: '56.26667000'
  longitude: '14.20000000'
- name: Simrishamn
  state_code: M
  state_name: Skåne
  latitude: '55.55653000'
  longitude: '14.35037000'
- name: Sjöbo
  state_code: M
  state_name: Skåne
  latitude: '55.63135000'
  longitude: '13.70622000'
- name: Skanör med Falsterbo
  state_code: M
  state_name: Skåne
  latitude: '55.40000000'
  longitude: '12.85000000'
- name: Skåre
  state_code: M
  state_name: Skåne
  latitude: '55.38333000'
  longitude: '13.05000000'
- name: Skegrie
  state_code: M
  state_name: Skåne
  latitude: '55.40633000'
  longitude: '13.07693000'
- name: Skivarp
  state_code: M
  state_name: Skåne
  latitude: '55.41667000'
  longitude: '13.56667000'
- name: Skurup
  state_code: M
  state_name: Skåne
  latitude: '55.47839000'
  longitude: '13.50186000'
- name: Smygehamn
  state_code: M
  state_name: Skåne
  latitude: '55.34337000'
  longitude: '13.36989000'
- name: Södra Sandby
  state_code: M
  state_name: Skåne
  latitude: '55.71677000'
  longitude: '13.34659000'
- name: Sösdala
  state_code: M
  state_name: Skåne
  latitude: '56.03992000'
  longitude: '13.67811000'
- name: Staffanstorp
  state_code: M
  state_name: Skåne
  latitude: '55.64277000'
  longitude: '13.20638000'
- name: Stångby
  state_code: M
  state_name: Skåne
  latitude: '55.75030000'
  longitude: '13.19797000'
- name: Stehag
  state_code: M
  state_name: Skåne
  latitude: '55.90188000'
  longitude: '13.39577000'
- name: Strövelstorp
  state_code: M
  state_name: Skåne
  latitude: '56.16979000'
  longitude: '12.83925000'
- name: Svalöv
  state_code: M
  state_name: Skåne
  latitude: '55.91340000'
  longitude: '13.10762000'
- name: Svedala
  state_code: M
  state_name: Skåne
  latitude: '55.50788000'
  longitude: '13.23515000'
- name: Teckomatorp
  state_code: M
  state_name: Skåne
  latitude: '55.86667000'
  longitude: '13.08333000'
- name: Tollarp
  state_code: M
  state_name: Skåne
  latitude: '55.93333000'
  longitude: '13.98333000'
- name: Tollarp1
  state_code: M
  state_name: Skåne
  latitude: '56.16667000'
  longitude: '14.28333000'
- name: Tomelilla
  state_code: M
  state_name: Skåne
  latitude: '55.54293000'
  longitude: '13.95460000'
- name: Torekov
  state_code: M
  state_name: Skåne
  latitude: '56.42500000'
  longitude: '12.63333000'
- name: Tormestorp
  state_code: M
  state_name: Skåne
  latitude: '56.11350000'
  longitude: '13.74516000'
- name: Trelleborg
  state_code: M
  state_name: Skåne
  latitude: '55.37514000'
  longitude: '13.15691000'
- name: Tygelsjö
  state_code: M
  state_name: Skåne
  latitude: '55.51667000'
  longitude: '13.00000000'
- name: Tyringe
  state_code: M
  state_name: Skåne
  latitude: '56.16037000'
  longitude: '13.59811000'
- name: Valje
  state_code: M
  state_name: Skåne
  latitude: '56.06279000'
  longitude: '14.54388000'
- name: Veberöd
  state_code: M
  state_name: Skåne
  latitude: '55.63333000'
  longitude: '13.48333000'
- name: Vejbystrand
  state_code: M
  state_name: Skåne
  latitude: '56.31778000'
  longitude: '12.76722000'
- name: Vellinge
  state_code: M
  state_name: Skåne
  latitude: '55.47124000'
  longitude: '13.01971000'
- name: Viken
  state_code: M
  state_name: Skåne
  latitude: '56.15063000'
  longitude: '12.57429000'
- name: Vinslöv
  state_code: M
  state_name: Skåne
  latitude: '56.10000000'
  longitude: '13.91667000'
- name: Vittsjö
  state_code: M
  state_name: Skåne
  latitude: '56.34366000'
  longitude: '13.66081000'
- name: Ystad
  state_code: M
  state_name: Skåne
  latitude: '55.42966000'
  longitude: '13.82041000'
- name: Åkers Styckebruk
  state_code: D
  state_name: Södermanland
  latitude: '59.25000000'
  longitude: '17.08333000'
- name: Ärla
  state_code: D
  state_name: Södermanland
  latitude: '59.27983000'
  longitude: '16.67896000'
- name: Arnö
  state_code: D
  state_name: Södermanland
  latitude: '58.72675000'
  longitude: '17.02322000'
- name: Bara
  state_code: D
  state_name: Södermanland
  latitude: '58.68333000'
  longitude: '17.06667000'
- name: Eskilstuna
  state_code: D
  state_name: Södermanland
  latitude: '59.36661000'
  longitude: '16.50770000'
- name: Flen
  state_code: D
  state_name: Södermanland
  latitude: '59.05834000'
  longitude: '16.58781000'
- name: Gnesta
  state_code: D
  state_name: Södermanland
  latitude: '59.04751000'
  longitude: '17.31191000'
- name: Hällbybrunn
  state_code: D
  state_name: Södermanland
  latitude: '59.39152000'
  longitude: '16.42229000'
- name: Hälleforsnäs
  state_code: D
  state_name: Södermanland
  latitude: '59.15208000'
  longitude: '16.49700000'
- name: Katrineholm
  state_code: D
  state_name: Södermanland
  latitude: '58.99587000'
  longitude: '16.20721000'
- name: Kvicksund
  state_code: D
  state_name: Södermanland
  latitude: '59.45099000'
  longitude: '16.32131000'
- name: Malmköping
  state_code: D
  state_name: Södermanland
  latitude: '59.13333000'
  longitude: '16.73333000'
- name: Mariefred
  state_code: D
  state_name: Södermanland
  latitude: '59.25963000'
  longitude: '17.22300000'
- name: Nyköping
  state_code: D
  state_name: Södermanland
  latitude: '58.75300000'
  longitude: '17.00788000'
- name: Olstorp
  state_code: D
  state_name: Södermanland
  latitude: '58.81667000'
  longitude: '16.63333000'
- name: Oxelösund
  state_code: D
  state_name: Södermanland
  latitude: '58.67057000'
  longitude: '17.10152000'
- name: Skogstorp
  state_code: D
  state_name: Södermanland
  latitude: '59.32472000'
  longitude: '16.48284000'
- name: Stallarholmen
  state_code: D
  state_name: Södermanland
  latitude: '59.36667000'
  longitude: '17.20000000'
- name: Stigtomta
  state_code: D
  state_name: Södermanland
  latitude: '58.80000000'
  longitude: '16.78333000'
- name: Strängnäs
  state_code: D
  state_name: Södermanland
  latitude: '59.37741000'
  longitude: '17.03119000'
- name: Svalsta
  state_code: D
  state_name: Södermanland
  latitude: '58.74273000'
  longitude: '16.86978000'
- name: Torshälla
  state_code: D
  state_name: Södermanland
  latitude: '59.41667000'
  longitude: '16.46667000'
- name: Trosa
  state_code: D
  state_name: Södermanland
  latitude: '58.89621000'
  longitude: '17.54812000'
- name: Vagnhärad
  state_code: D
  state_name: Södermanland
  latitude: '58.94587000'
  longitude: '17.48757000'
- name: Valla
  state_code: D
  state_name: Södermanland
  latitude: '59.01667000'
  longitude: '16.38333000'
- name: Vingåker
  state_code: D
  state_name: Södermanland
  latitude: '59.04330000'
  longitude: '15.87374000'
- name: Akalla
  state_code: AB
  state_name: Stockholm
  latitude: '59.41465000'
  longitude: '17.91398000'
- name: Åkersberga
  state_code: AB
  state_name: Stockholm
  latitude: '59.47944000'
  longitude: '18.29967000'
- name: Alby
  state_code: AB
  state_name: Stockholm
  latitude: '59.23350000'
  longitude: '17.85380000'
- name: Älmsta
  state_code: AB
  state_name: Stockholm
  latitude: '59.96667000'
  longitude: '18.80000000'
- name: Älta
  state_code: AB
  state_name: Stockholm
  latitude: '59.26667000'
  longitude: '18.18333000'
- name: Arnö
  state_code: AB
  state_name: Stockholm
  latitude: '60.11667000'
  longitude: '18.63333000'
- name: Årsta
  state_code: AB
  state_name: Stockholm
  latitude: '59.29780000'
  longitude: '18.05140000'
- name: Bergshamra
  state_code: AB
  state_name: Stockholm
  latitude: '59.38083000'
  longitude: '18.03427000'
- name: Bollmora
  state_code: AB
  state_name: Stockholm
  latitude: '59.24196000'
  longitude: '18.22762000'
- name: Boo
  state_code: AB
  state_name: Stockholm
  latitude: '59.33333000'
  longitude: '18.28333000'
- name: Brevik
  state_code: AB
  state_name: Stockholm
  latitude: '59.35000000'
  longitude: '18.20000000'
- name: Bro
  state_code: AB
  state_name: Stockholm
  latitude: '59.51667000'
  longitude: '17.63333000'
- name: Bromma
  state_code: AB
  state_name: Stockholm
  latitude: '59.34000000'
  longitude: '17.94000000'
- name: Brunn
  state_code: AB
  state_name: Stockholm
  latitude: '59.28000000'
  longitude: '18.43000000'
- name: Brunna
  state_code: AB
  state_name: Stockholm
  latitude: '59.51667000'
  longitude: '17.75000000'
- name: Dalarö
  state_code: AB
  state_name: Stockholm
  latitude: '59.13306000'
  longitude: '18.40639000'
- name: Djurö
  state_code: AB
  state_name: Stockholm
  latitude: '59.32653000'
  longitude: '18.71152000'
- name: Djursholm
  state_code: AB
  state_name: Stockholm
  latitude: '59.39926000'
  longitude: '18.05619000'
- name: Ekerö
  state_code: AB
  state_name: Stockholm
  latitude: '59.29100000'
  longitude: '17.81212000'
- name: Enebyberg
  state_code: AB
  state_name: Stockholm
  latitude: '59.43333000'
  longitude: '18.05000000'
- name: Eriksberg
  state_code: AB
  state_name: Stockholm
  latitude: '59.24241000'
  longitude: '17.81631000'
- name: Fisksätra
  state_code: AB
  state_name: Stockholm
  latitude: '59.29153000'
  longitude: '18.25490000'
- name: Fittja
  state_code: AB
  state_name: Stockholm
  latitude: '59.24868000'
  longitude: '17.85991000'
- name: Gamla Stan
  state_code: AB
  state_name: Stockholm
  latitude: '59.32627000'
  longitude: '18.07251000'
- name: Gustavsberg
  state_code: AB
  state_name: Stockholm
  latitude: '59.32684000'
  longitude: '18.38975000'
- name: Hallstavik
  state_code: AB
  state_name: Stockholm
  latitude: '60.05000000'
  longitude: '18.60000000'
- name: Handen
  state_code: AB
  state_name: Stockholm
  latitude: '59.16809000'
  longitude: '18.13796000'
- name: Haninge
  state_code: AB
  state_name: Stockholm
  latitude: '59.16775000'
  longitude: '18.14478000'
- name: Hemmesta
  state_code: AB
  state_name: Stockholm
  latitude: '59.32273000'
  longitude: '18.48675000'
- name: Hölö
  state_code: AB
  state_name: Stockholm
  latitude: '59.01667000'
  longitude: '17.53333000'
- name: Huddinge
  state_code: AB
  state_name: Stockholm
  latitude: '59.23705000'
  longitude: '17.98192000'
- name: Jakobsberg
  state_code: AB
  state_name: Stockholm
  latitude: '59.42268000'
  longitude: '17.83508000'
- name: Järna
  state_code: AB
  state_name: Stockholm
  latitude: '59.09165000'
  longitude: '17.56615000'
- name: Jordbro
  state_code: AB
  state_name: Stockholm
  latitude: '59.14972000'
  longitude: '18.11667000'
- name: Kista
  state_code: AB
  state_name: Stockholm
  latitude: '59.40316000'
  longitude: '17.94479000'
- name: Kopparmora
  state_code: AB
  state_name: Stockholm
  latitude: '59.33306000'
  longitude: '18.58306000'
- name: Kummelnäs
  state_code: AB
  state_name: Stockholm
  latitude: '59.35000000'
  longitude: '18.28333000'
- name: Kungsängen
  state_code: AB
  state_name: Stockholm
  latitude: '59.47857000'
  longitude: '17.74834000'
- name: Kungsholmen
  state_code: AB
  state_name: Stockholm
  latitude: '59.33183000'
  longitude: '18.04118000'
- name: Långvik
  state_code: AB
  state_name: Stockholm
  latitude: '59.24583000'
  longitude: '18.51667000'
- name: Lidingö
  state_code: AB
  state_name: Stockholm
  latitude: '59.36303000'
  longitude: '18.15096000'
- name: Lindholmen
  state_code: AB
  state_name: Stockholm
  latitude: '59.58333000'
  longitude: '18.10000000'
- name: Märsta
  state_code: AB
  state_name: Stockholm
  latitude: '59.62157000'
  longitude: '17.85476000'
- name: Mölnbo
  state_code: AB
  state_name: Stockholm
  latitude: '59.05000000'
  longitude: '17.41667000'
- name: Mörtnäs
  state_code: AB
  state_name: Stockholm
  latitude: '59.31862000'
  longitude: '18.44312000'
- name: Nacka
  state_code: AB
  state_name: Stockholm
  latitude: '59.31053000'
  longitude: '18.16372000'
- name: Norrtälje
  state_code: AB
  state_name: Stockholm
  latitude: '59.75799000'
  longitude: '18.70496000'
- name: Nykvarn
  state_code: AB
  state_name: Stockholm
  latitude: '59.80000000'
  longitude: '18.30000000'
- name: Nynäshamn
  state_code: AB
  state_name: Stockholm
  latitude: '58.90337000'
  longitude: '17.94793000'
- name: Ösmo
  state_code: AB
  state_name: Stockholm
  latitude: '58.98333000'
  longitude: '17.90000000'
- name: Östermalm
  state_code: AB
  state_name: Stockholm
  latitude: '59.33879000'
  longitude: '18.08487000'
- name: Pershagen
  state_code: AB
  state_name: Stockholm
  latitude: '59.15494000'
  longitude: '17.65340000'
- name: Råsunda
  state_code: AB
  state_name: Stockholm
  latitude: '59.36588000'
  longitude: '17.99569000'
- name: Resarö
  state_code: AB
  state_name: Stockholm
  latitude: '59.42910000'
  longitude: '18.33386000'
- name: Rimbo
  state_code: AB
  state_name: Stockholm
  latitude: '59.75000000'
  longitude: '18.36667000'
- name: Rindö
  state_code: AB
  state_name: Stockholm
  latitude: '59.39688000'
  longitude: '18.39434000'
- name: Rönninge
  state_code: AB
  state_name: Stockholm
  latitude: '59.20000000'
  longitude: '17.73333000'
- name: Rosersberg
  state_code: AB
  state_name: Stockholm
  latitude: '59.58333000'
  longitude: '17.88333000'
- name: Saltsjöbaden
  state_code: AB
  state_name: Stockholm
  latitude: '59.28333000'
  longitude: '18.30000000'
- name: Segeltorp
  state_code: AB
  state_name: Stockholm
  latitude: '59.27597000'
  longitude: '17.93072000'
- name: Sigtuna
  state_code: AB
  state_name: Stockholm
  latitude: '59.61731000'
  longitude: '17.72361000'
- name: Skänninge
  state_code: AB
  state_name: Stockholm
  latitude: '59.93333000'
  longitude: '18.48333000'
- name: Södermalm
  state_code: AB
  state_name: Stockholm
  latitude: '59.31278000'
  longitude: '18.07577000'
- name: Södertälje
  state_code: AB
  state_name: Stockholm
  latitude: '59.19554000'
  longitude: '17.62525000'
- name: Sollentuna
  state_code: AB
  state_name: Stockholm
  latitude: '59.42804000'
  longitude: '17.95093000'
- name: Solna
  state_code: AB
  state_name: Stockholm
  latitude: '59.36004000'
  longitude: '18.00086000'
- name: Stavsnäs
  state_code: AB
  state_name: Stockholm
  latitude: '59.28333000'
  longitude: '18.68333000'
- name: Stenhamra
  state_code: AB
  state_name: Stockholm
  latitude: '59.33440000'
  longitude: '17.68842000'
- name: Stockholm
  state_code: AB
  state_name: Stockholm
  latitude: '59.33258000'
  longitude: '18.06490000'
- name: Strömma
  state_code: AB
  state_name: Stockholm
  latitude: '59.28333000'
  longitude: '18.53333000'
- name: Sundbyberg
  state_code: AB
  state_name: Stockholm
  latitude: '59.36128000'
  longitude: '17.97114000'
- name: Tensta
  state_code: AB
  state_name: Stockholm
  latitude: '59.39390000'
  longitude: '17.90111000'
- name: Tullinge
  state_code: AB
  state_name: Stockholm
  latitude: '59.20000000'
  longitude: '17.90000000'
- name: Tumba
  state_code: AB
  state_name: Stockholm
  latitude: '59.19858000'
  longitude: '17.83317000'
- name: Upplands Väsby
  state_code: AB
  state_name: Stockholm
  latitude: '59.51839000'
  longitude: '17.91128000'
- name: Vallentuna
  state_code: AB
  state_name: Stockholm
  latitude: '59.53436000'
  longitude: '18.07758000'
- name: Vårby
  state_code: AB
  state_name: Stockholm
  latitude: '59.26671000'
  longitude: '17.88407000'
- name: Vårsta
  state_code: AB
  state_name: Stockholm
  latitude: '59.16528000'
  longitude: '17.79722000'
- name: Vasastan
  state_code: AB
  state_name: Stockholm
  latitude: '59.34571000'
  longitude: '18.04985000'
- name: Vaxholm
  state_code: AB
  state_name: Stockholm
  latitude: '59.40225000'
  longitude: '18.35317000'
- name: Alsike
  state_code: C
  state_name: Uppsala
  latitude: '59.75324000'
  longitude: '17.77331000'
- name: Alunda
  state_code: C
  state_name: Uppsala
  latitude: '60.26667000'
  longitude: '18.40000000'
- name: Älvkarleby
  state_code: C
  state_name: Uppsala
  latitude: '60.57081000'
  longitude: '17.44895000'
- name: Anneberg
  state_code: C
  state_name: Uppsala
  latitude: '60.24167000'
  longitude: '18.41667000'
- name: Bälinge
  state_code: C
  state_name: Uppsala
  latitude: '59.95000000'
  longitude: '17.53333000'
- name: Bålsta
  state_code: C
  state_name: Uppsala
  latitude: '59.56710000'
  longitude: '17.52781000'
- name: Björklinge
  state_code: C
  state_name: Uppsala
  latitude: '60.03004000'
  longitude: '17.55203000'
- name: Enköping
  state_code: C
  state_name: Uppsala
  latitude: '59.63607000'
  longitude: '17.07768000'
- name: Gamla Uppsala
  state_code: C
  state_name: Uppsala
  latitude: '59.89817000'
  longitude: '17.63386000'
- name: Gimo
  state_code: C
  state_name: Uppsala
  latitude: '60.17304000'
  longitude: '18.18507000'
- name: Grillby
  state_code: C
  state_name: Uppsala
  latitude: '59.62603000'
  longitude: '17.25787000'
- name: Heby
  state_code: C
  state_name: Uppsala
  latitude: '59.93815000'
  longitude: '16.86217000'
- name: Irsta
  state_code: C
  state_name: Uppsala
  latitude: '59.70000000'
  longitude: '16.93333000'
- name: Karlholmsbruk
  state_code: C
  state_name: Uppsala
  latitude: '60.52091000'
  longitude: '17.63152000'
- name: Knivsta
  state_code: C
  state_name: Uppsala
  latitude: '59.72564000'
  longitude: '17.78753000'
- name: Lövstalöt
  state_code: C
  state_name: Uppsala
  latitude: '59.95740000'
  longitude: '17.57826000'
- name: Marieberg
  state_code: C
  state_name: Uppsala
  latitude: '60.23333000'
  longitude: '18.50000000'
- name: Morgongåva
  state_code: C
  state_name: Uppsala
  latitude: '59.93395000'
  longitude: '16.96353000'
- name: Örbyhus
  state_code: C
  state_name: Uppsala
  latitude: '60.22407000'
  longitude: '17.70138000'
- name: Öregrund
  state_code: C
  state_name: Uppsala
  latitude: '60.33333000'
  longitude: '18.43333000'
- name: Örsundsbro
  state_code: C
  state_name: Uppsala
  latitude: '59.73333000'
  longitude: '17.30000000'
- name: Österbybruk
  state_code: C
  state_name: Uppsala
  latitude: '60.20000000'
  longitude: '17.90000000'
- name: Östervåla
  state_code: C
  state_name: Uppsala
  latitude: '60.18333000'
  longitude: '17.18333000'
- name: Östhammar
  state_code: C
  state_name: Uppsala
  latitude: '60.25909000'
  longitude: '18.37408000'
- name: Sävja
  state_code: C
  state_name: Uppsala
  latitude: '59.81872000'
  longitude: '17.69958000'
- name: Skutskär
  state_code: C
  state_name: Uppsala
  latitude: '60.62507000'
  longitude: '17.41552000'
- name: Söderfors
  state_code: C
  state_name: Uppsala
  latitude: '60.38333000'
  longitude: '17.23333000'
- name: Storvreta
  state_code: C
  state_name: Uppsala
  latitude: '59.95933000'
  longitude: '17.70588000'
- name: Tärnsjö
  state_code: C
  state_name: Uppsala
  latitude: '60.15000000'
  longitude: '16.93333000'
- name: Tierp
  state_code: C
  state_name: Uppsala
  latitude: '60.34269000'
  longitude: '17.51812000'
- name: Uppsala
  state_code: C
  state_name: Uppsala
  latitude: '59.85882000'
  longitude: '17.63889000'
- name: Vattholma
  state_code: C
  state_name: Uppsala
  latitude: '60.01667000'
  longitude: '17.73333000'
- name: Åmotfors
  state_code: S
  state_name: Värmland
  latitude: '59.76191000'
  longitude: '12.36211000'
- name: Årjäng
  state_code: S
  state_name: Värmland
  latitude: '59.39217000'
  longitude: '12.13336000'
- name: Arvika
  state_code: S
  state_name: Värmland
  latitude: '59.65528000'
  longitude: '12.58518000'
- name: Björneborg
  state_code: S
  state_name: Värmland
  latitude: '59.24122000'
  longitude: '14.24942000'
- name: Charlottenberg
  state_code: S
  state_name: Värmland
  latitude: '59.88422000'
  longitude: '12.30398000'
- name: Deje
  state_code: S
  state_name: Värmland
  latitude: '59.60300000'
  longitude: '13.47200000'
- name: Ekshärad
  state_code: S
  state_name: Värmland
  latitude: '60.17275000'
  longitude: '13.49647000'
- name: Filipstad
  state_code: S
  state_name: Värmland
  latitude: '59.71236000'
  longitude: '14.16831000'
- name: Forshaga
  state_code: S
  state_name: Värmland
  latitude: '59.52541000'
  longitude: '13.48127000'
- name: Grums
  state_code: S
  state_name: Värmland
  latitude: '59.35141000'
  longitude: '13.11105000'
- name: Hagfors
  state_code: S
  state_name: Värmland
  latitude: '60.02378000'
  longitude: '13.67214000'
- name: Karlstad
  state_code: S
  state_name: Värmland
  latitude: '59.37930000'
  longitude: '13.50357000'
- name: Kil
  state_code: S
  state_name: Värmland
  latitude: '59.50234000'
  longitude: '13.31277000'
- name: Kristinehamn
  state_code: S
  state_name: Värmland
  latitude: '59.30978000'
  longitude: '14.10808000'
- name: Molkom
  state_code: S
  state_name: Värmland
  latitude: '59.60057000'
  longitude: '13.72115000'
- name: Munkfors
  state_code: S
  state_name: Värmland
  latitude: '59.83856000'
  longitude: '13.54361000'
- name: Råtorp
  state_code: S
  state_name: Värmland
  latitude: '59.40197000'
  longitude: '13.49144000'
- name: Säffle
  state_code: S
  state_name: Värmland
  latitude: '59.13229000'
  longitude: '12.92888000'
- name: Skåre
  state_code: S
  state_name: Värmland
  latitude: '59.43333000'
  longitude: '13.43333000'
- name: Skattkärr
  state_code: S
  state_name: Värmland
  latitude: '59.41208000'
  longitude: '13.67078000'
- name: Skoghall
  state_code: S
  state_name: Värmland
  latitude: '59.32324000'
  longitude: '13.46552000'
- name: Slottsbron
  state_code: S
  state_name: Värmland
  latitude: '59.32270000'
  longitude: '13.10268000'
- name: Storfors
  state_code: S
  state_name: Värmland
  latitude: '59.53183000'
  longitude: '14.27201000'
- name: Sunne
  state_code: S
  state_name: Värmland
  latitude: '59.83764000'
  longitude: '13.14302000'
- name: Töcksfors
  state_code: S
  state_name: Värmland
  latitude: '59.50816000'
  longitude: '11.84431000'
- name: Torsby
  state_code: S
  state_name: Värmland
  latitude: '60.13527000'
  longitude: '13.00820000'
- name: Vålberg
  state_code: S
  state_name: Värmland
  latitude: '59.39145000'
  longitude: '13.18633000'
- name: Åsele
  state_code: AC
  state_name: Västerbotten
  latitude: '64.16026000'
  longitude: '17.34762000'
- name: Backa
  state_code: AC
  state_name: Västerbotten
  latitude: '64.98333000'
  longitude: '21.06667000'
- name: Bjurholm
  state_code: AC
  state_name: Västerbotten
  latitude: '63.93027000'
  longitude: '19.21369000'
- name: Boliden
  state_code: AC
  state_name: Västerbotten
  latitude: '64.86667000'
  longitude: '20.38333000'
- name: Bureå
  state_code: AC
  state_name: Västerbotten
  latitude: '64.61667000'
  longitude: '21.20000000'
- name: Burträsk
  state_code: AC
  state_name: Västerbotten
  latitude: '64.51667000'
  longitude: '20.65000000'
- name: Byske
  state_code: AC
  state_name: Västerbotten
  latitude: '64.95258000'
  longitude: '21.20580000'
- name: Dorotea
  state_code: AC
  state_name: Västerbotten
  latitude: '64.26185000'
  longitude: '16.41306000'
- name: Ersmark
  state_code: AC
  state_name: Västerbotten
  latitude: '63.88333000'
  longitude: '20.31667000'
- name: Forsbacka
  state_code: AC
  state_name: Västerbotten
  latitude: '64.76667000'
  longitude: '20.50000000'
- name: Holmsund
  state_code: AC
  state_name: Västerbotten
  latitude: '63.70602000'
  longitude: '20.36409000'
- name: Hörnefors
  state_code: AC
  state_name: Västerbotten
  latitude: '63.62312000'
  longitude: '19.90856000'
- name: Insjön
  state_code: AC
  state_name: Västerbotten
  latitude: '64.40000000'
  longitude: '17.48333000'
- name: Kåge
  state_code: AC
  state_name: Västerbotten
  latitude: '64.83571000'
  longitude: '20.98453000'
- name: Långsele
  state_code: AC
  state_name: Västerbotten
  latitude: '64.81667000'
  longitude: '20.25000000'
- name: Lycksele
  state_code: AC
  state_name: Västerbotten
  latitude: '64.59537000'
  longitude: '18.67351000'
- name: Malå
  state_code: AC
  state_name: Västerbotten
  latitude: '65.18501000'
  longitude: '18.74243000'
- name: Nordmaling
  state_code: AC
  state_name: Västerbotten
  latitude: '63.56852000'
  longitude: '19.50244000'
- name: Norsjö
  state_code: AC
  state_name: Västerbotten
  latitude: '64.91206000'
  longitude: '19.48153000'
- name: Obbola
  state_code: AC
  state_name: Västerbotten
  latitude: '63.70000000'
  longitude: '20.31667000'
- name: Röbäck
  state_code: AC
  state_name: Västerbotten
  latitude: '63.80879000'
  longitude: '20.18901000'
- name: Robertsfors
  state_code: AC
  state_name: Västerbotten
  latitude: '64.19324000'
  longitude: '20.84806000'
- name: Sävar
  state_code: AC
  state_name: Västerbotten
  latitude: '63.90383000'
  longitude: '20.55014000'
- name: Skellefteå
  state_code: AC
  state_name: Västerbotten
  latitude: '64.75067000'
  longitude: '20.95279000'
- name: Skelleftehamn
  state_code: AC
  state_name: Västerbotten
  latitude: '64.68333000'
  longitude: '21.23333000'
- name: Söderfors
  state_code: AC
  state_name: Västerbotten
  latitude: '64.81667000'
  longitude: '18.05000000'
- name: Sorsele
  state_code: AC
  state_name: Västerbotten
  latitude: '65.53484000'
  longitude: '17.53702000'
- name: Storuman
  state_code: AC
  state_name: Västerbotten
  latitude: '65.09590000'
  longitude: '17.11731000'
- name: Storvik
  state_code: AC
  state_name: Västerbotten
  latitude: '65.15000000'
  longitude: '20.73333000'
- name: Täfteå
  state_code: AC
  state_name: Västerbotten
  latitude: '63.83970000'
  longitude: '20.47857000'
- name: Umeå
  state_code: AC
  state_name: Västerbotten
  latitude: '63.82842000'
  longitude: '20.25972000'
- name: Ursviken
  state_code: AC
  state_name: Västerbotten
  latitude: '64.71261000'
  longitude: '21.16580000'
- name: Vännäs
  state_code: AC
  state_name: Västerbotten
  latitude: '63.90676000'
  longitude: '19.75712000'
- name: Vännäsby
  state_code: AC
  state_name: Västerbotten
  latitude: '63.91564000'
  longitude: '19.82438000'
- name: Viken
  state_code: AC
  state_name: Västerbotten
  latitude: '64.72587000'
  longitude: '20.91548000'
- name: Vilhelmina
  state_code: AC
  state_name: Västerbotten
  latitude: '64.62417000'
  longitude: '16.65596000'
- name: Vindeln
  state_code: AC
  state_name: Västerbotten
  latitude: '64.20175000'
  longitude: '19.71945000'
- name: Ånge
  state_code: "Y"
  state_name: Västernorrland
  latitude: '62.52495000'
  longitude: '15.65904000'
- name: Ås
  state_code: "Y"
  state_name: Västernorrland
  latitude: '63.36667000'
  longitude: '16.58333000'
- name: Bergeforsen
  state_code: "Y"
  state_name: Västernorrland
  latitude: '62.53074000'
  longitude: '17.38123000'
- name: Bjästa
  state_code: "Y"
  state_name: Västernorrland
  latitude: '63.20000000'
  longitude: '18.50000000'
- name: Bollstabruk
  state_code: "Y"
  state_name: Västernorrland
  latitude: '62.99777000'
  longitude: '17.67348000'
- name: Bredbyn
  state_code: "Y"
  state_name: Västernorrland
  latitude: '63.44655000'
  longitude: '18.11019000'
- name: Fränsta
  state_code: "Y"
  state_name: Västernorrland
  latitude: '62.49855000'
  longitude: '16.17016000'
- name: Härnösand
  state_code: "Y"
  state_name: Västernorrland
  latitude: '62.63228000'
  longitude: '17.93794000'
- name: Husum
  state_code: "Y"
  state_name: Västernorrland
  latitude: '63.33333000'
  longitude: '19.16667000'
- name: Johannedal
  state_code: "Y"
  state_name: Västernorrland
  latitude: '62.43424000'
  longitude: '17.37273000'
- name: Köpmanholmen
  state_code: "Y"
  state_name: Västernorrland
  latitude: '63.16667000'
  longitude: '18.56667000'
- name: Kramfors
  state_code: "Y"
  state_name: Västernorrland
  latitude: '62.93161000'
  longitude: '17.77646000'
- name: Kvissleby
  state_code: "Y"
  state_name: Västernorrland
  latitude: '62.29361000'
  longitude: '17.37500000'
- name: Långsele
  state_code: "Y"
  state_name: Västernorrland
  latitude: '63.18333000'
  longitude: '17.06667000'
- name: Matfors
  state_code: "Y"
  state_name: Västernorrland
  latitude: '62.34864000'
  longitude: '17.03173000'
- name: Njurundabommen
  state_code: "Y"
  state_name: Västernorrland
  latitude: '62.26339000'
  longitude: '17.38354000'
- name: Nolby
  state_code: "Y"
  state_name: Västernorrland
  latitude: '62.28750000'
  longitude: '17.36917000'
- name: Örnsköldsvik
  state_code: "Y"
  state_name: Västernorrland
  latitude: '63.29091000'
  longitude: '18.71525000'
- name: Skottsund
  state_code: "Y"
  state_name: Västernorrland
  latitude: '62.29056000'
  longitude: '17.38694000'
- name: Sollefteå
  state_code: "Y"
  state_name: Västernorrland
  latitude: '63.16667000'
  longitude: '17.26667000'
- name: Söråker
  state_code: "Y"
  state_name: Västernorrland
  latitude: '62.50561000'
  longitude: '17.51032000'
- name: Stockvik
  state_code: "Y"
  state_name: Västernorrland
  latitude: '62.33667000'
  longitude: '17.36583000'
- name: Sundsbruk
  state_code: "Y"
  state_name: Västernorrland
  latitude: '62.45806000'
  longitude: '17.34889000'
- name: Sundsvall
  state_code: "Y"
  state_name: Västernorrland
  latitude: '62.39129000'
  longitude: '17.30630000'
- name: Timrå
  state_code: "Y"
  state_name: Västernorrland
  latitude: '62.48654000'
  longitude: '17.32613000'
- name: Vi
  state_code: "Y"
  state_name: Västernorrland
  latitude: '62.43333000'
  longitude: '17.41667000'
- name: Arboga
  state_code: U
  state_name: Västmanland
  latitude: '59.39387000'
  longitude: '15.83882000'
- name: Barkarö
  state_code: U
  state_name: Västmanland
  latitude: '59.54935000'
  longitude: '16.50740000'
- name: Dingtuna
  state_code: U
  state_name: Västmanland
  latitude: '59.57279000'
  longitude: '16.38722000'
- name: Enhagen-Ekbacken
  state_code: U
  state_name: Västmanland
  latitude: '59.56543000'
  longitude: '16.53045000'
- name: Fagersta
  state_code: U
  state_name: Västmanland
  latitude: '60.00418000'
  longitude: '15.79316000'
- name: Hallstahammar
  state_code: U
  state_name: Västmanland
  latitude: '59.61395000'
  longitude: '16.22846000'
- name: Hökåsen
  state_code: U
  state_name: Västmanland
  latitude: '59.66667000'
  longitude: '16.58333000'
- name: Irsta
  state_code: U
  state_name: Västmanland
  latitude: '59.60000000'
  longitude: '16.70000000'
- name: Kolbäck
  state_code: U
  state_name: Västmanland
  latitude: '59.56516000'
  longitude: '16.23037000'
- name: Kolsva
  state_code: U
  state_name: Västmanland
  latitude: '59.60000000'
  longitude: '15.83333000'
- name: Köping
  state_code: U
  state_name: Västmanland
  latitude: '59.51404000'
  longitude: '15.99255000'
- name: Kungsör
  state_code: U
  state_name: Västmanland
  latitude: '59.42245000'
  longitude: '16.09656000'
- name: Norberg
  state_code: U
  state_name: Västmanland
  latitude: '60.06505000'
  longitude: '15.92366000'
- name: Ramnäs
  state_code: U
  state_name: Västmanland
  latitude: '59.76667000'
  longitude: '16.20000000'
- name: Sala
  state_code: U
  state_name: Västmanland
  latitude: '59.91993000'
  longitude: '16.60655000'
- name: Skinnskatteberg
  state_code: U
  state_name: Västmanland
  latitude: '59.83028000'
  longitude: '15.69337000'
- name: Skultuna
  state_code: U
  state_name: Västmanland
  latitude: '59.71667000'
  longitude: '16.41667000'
- name: Surahammar
  state_code: U
  state_name: Västmanland
  latitude: '59.70725000'
  longitude: '16.22188000'
- name: Tillberga
  state_code: U
  state_name: Västmanland
  latitude: '59.68333000'
  longitude: '16.61667000'
- name: Västerås
  state_code: U
  state_name: Västmanland
  latitude: '59.64914000'
  longitude: '16.56445000'
- name: Åkarp
  state_code: O
  state_name: Västra Götaland
  latitude: '58.23333000'
  longitude: '13.65000000'
- name: Alafors
  state_code: O
  state_name: Västra Götaland
  latitude: '57.92579000'
  longitude: '12.07835000'
- name: Alingsås
  state_code: O
  state_name: Västra Götaland
  latitude: '57.93033000'
  longitude: '12.53345000'
- name: Älvängen
  state_code: O
  state_name: Västra Götaland
  latitude: '57.95872000'
  longitude: '12.12350000'
- name: Åmål
  state_code: O
  state_name: Västra Götaland
  latitude: '59.05100000'
  longitude: '12.70492000'
- name: Andalen
  state_code: O
  state_name: Västra Götaland
  latitude: '57.70039000'
  longitude: '11.76136000'
- name: Anderstorp
  state_code: O
  state_name: Västra Götaland
  latitude: '58.88333000'
  longitude: '14.28333000'
- name: Angered
  state_code: O
  state_name: Västra Götaland
  latitude: '57.78628000'
  longitude: '12.09852000'
- name: Annelund
  state_code: O
  state_name: Västra Götaland
  latitude: '57.98843000'
  longitude: '13.07483000'
- name: Axvall
  state_code: O
  state_name: Västra Götaland
  latitude: '58.38333000'
  longitude: '13.56667000'
- name: Bengtsfors
  state_code: O
  state_name: Västra Götaland
  latitude: '59.02912000'
  longitude: '12.23207000'
- name: Billdal
  state_code: O
  state_name: Västra Götaland
  latitude: '57.56667000'
  longitude: '11.93333000'
- name: Billingsfors
  state_code: O
  state_name: Västra Götaland
  latitude: '58.98333000'
  longitude: '12.25000000'
- name: Björboholm
  state_code: O
  state_name: Västra Götaland
  latitude: '57.87096000'
  longitude: '12.32546000'
- name: Björkö
  state_code: O
  state_name: Västra Götaland
  latitude: '57.73221000'
  longitude: '11.67916000'
- name: Björlanda
  state_code: O
  state_name: Västra Götaland
  latitude: '57.76667000'
  longitude: '11.83333000'
- name: Bollebygd
  state_code: O
  state_name: Västra Götaland
  latitude: '57.66866000'
  longitude: '12.57272000'
- name: Borås
  state_code: O
  state_name: Västra Götaland
  latitude: '57.73783000'
  longitude: '12.94076000'
- name: Brålanda
  state_code: O
  state_name: Västra Götaland
  latitude: '58.56344000'
  longitude: '12.34923000'
- name: Brastad
  state_code: O
  state_name: Västra Götaland
  latitude: '58.38333000'
  longitude: '11.48333000'
- name: Dals Långed
  state_code: O
  state_name: Västra Götaland
  latitude: '58.92555000'
  longitude: '12.30865000'
- name: Dalsjöfors
  state_code: O
  state_name: Västra Götaland
  latitude: '57.71667000'
  longitude: '13.08333000'
- name: Diseröd
  state_code: O
  state_name: Västra Götaland
  latitude: '57.92636000'
  longitude: '12.02598000'
- name: Donsö
  state_code: O
  state_name: Västra Götaland
  latitude: '57.60000000'
  longitude: '11.79917000'
- name: Ed
  state_code: O
  state_name: Västra Götaland
  latitude: '58.91247000'
  longitude: '11.93308000'
- name: Ellös
  state_code: O
  state_name: Västra Götaland
  latitude: '58.18333000'
  longitude: '11.46667000'
- name: Eriksbo
  state_code: O
  state_name: Västra Götaland
  latitude: '57.77141000'
  longitude: '12.04183000'
- name: Falköping
  state_code: O
  state_name: Västra Götaland
  latitude: '58.17347000'
  longitude: '13.55068000'
- name: Färgelanda
  state_code: O
  state_name: Västra Götaland
  latitude: '58.56816000'
  longitude: '11.99235000'
- name: Floby
  state_code: O
  state_name: Västra Götaland
  latitude: '58.13333000'
  longitude: '13.33333000'
- name: Fristad
  state_code: O
  state_name: Västra Götaland
  latitude: '57.82483000'
  longitude: '13.01064000'
- name: Fritsla
  state_code: O
  state_name: Västra Götaland
  latitude: '57.55655000'
  longitude: '12.78457000'
- name: Furulund
  state_code: O
  state_name: Västra Götaland
  latitude: '57.71667000'
  longitude: '12.13333000'
- name: Gånghester
  state_code: O
  state_name: Västra Götaland
  latitude: '57.70000000'
  longitude: '13.01667000'
- name: Gårdsten
  state_code: O
  state_name: Västra Götaland
  latitude: '57.80480000'
  longitude: '12.02883000'
- name: Göta
  state_code: O
  state_name: Västra Götaland
  latitude: '58.10617000'
  longitude: '12.15254000'
- name: Göteborg
  state_code: O
  state_name: Västra Götaland
  latitude: '57.70716000'
  longitude: '11.96679000'
- name: Göteborgs stad
  state_code: O
  state_name: Västra Götaland
  latitude: '57.72288000'
  longitude: '11.94577000'
- name: Götene
  state_code: O
  state_name: Västra Götaland
  latitude: '58.52824000'
  longitude: '13.49458000'
- name: Gråbo
  state_code: O
  state_name: Västra Götaland
  latitude: '57.83625000'
  longitude: '12.29954000'
- name: Grästorp
  state_code: O
  state_name: Västra Götaland
  latitude: '58.33219000'
  longitude: '12.68122000'
- name: Grebbestad
  state_code: O
  state_name: Västra Götaland
  latitude: '58.70248000'
  longitude: '11.25738000'
- name: Gullspång
  state_code: O
  state_name: Västra Götaland
  latitude: '58.98615000'
  longitude: '14.09644000'
- name: Hammarkullen
  state_code: O
  state_name: Västra Götaland
  latitude: '57.78049000'
  longitude: '12.03604000'
- name: Henån
  state_code: O
  state_name: Västra Götaland
  latitude: '58.23848000'
  longitude: '11.67598000'
- name: Herrljunga
  state_code: O
  state_name: Västra Götaland
  latitude: '58.07739000'
  longitude: '13.02662000'
- name: Hindås
  state_code: O
  state_name: Västra Götaland
  latitude: '57.70338000'
  longitude: '12.44657000'
- name: Hjo
  state_code: O
  state_name: Västra Götaland
  latitude: '58.30133000'
  longitude: '14.28784000'
- name: Hjuvik
  state_code: O
  state_name: Västra Götaland
  latitude: '57.70167000'
  longitude: '11.71639000'
- name: Hönö
  state_code: O
  state_name: Västra Götaland
  latitude: '57.68972000'
  longitude: '11.64972000'
- name: Horred
  state_code: O
  state_name: Västra Götaland
  latitude: '57.35475000'
  longitude: '12.47777000'
- name: Hova
  state_code: O
  state_name: Västra Götaland
  latitude: '58.85363000'
  longitude: '14.21914000'
- name: Höviksnäs
  state_code: O
  state_name: Västra Götaland
  latitude: '58.03333000'
  longitude: '11.76667000'
- name: Hunnebostrand
  state_code: O
  state_name: Västra Götaland
  latitude: '58.44127000'
  longitude: '11.30320000'
- name: Ingared
  state_code: O
  state_name: Västra Götaland
  latitude: '57.85989000'
  longitude: '12.45161000'
- name: Jonstorp
  state_code: O
  state_name: Västra Götaland
  latitude: '58.00000000'
  longitude: '12.71667000'
- name: Jörlanda
  state_code: O
  state_name: Västra Götaland
  latitude: '57.98630000'
  longitude: '11.82943000'
- name: Källby
  state_code: O
  state_name: Västra Götaland
  latitude: '58.50999000'
  longitude: '13.30582000'
- name: Kållered
  state_code: O
  state_name: Västra Götaland
  latitude: '57.60992000'
  longitude: '12.05106000'
- name: Karlsborg
  state_code: O
  state_name: Västra Götaland
  latitude: '58.53724000'
  longitude: '14.50470000'
- name: Kinna
  state_code: O
  state_name: Västra Götaland
  latitude: '57.50728000'
  longitude: '12.69463000'
- name: Kode
  state_code: O
  state_name: Västra Götaland
  latitude: '57.94263000'
  longitude: '11.85051000'
- name: Kungälv
  state_code: O
  state_name: Västra Götaland
  latitude: '57.87096000'
  longitude: '11.98054000'
- name: Kungshamn
  state_code: O
  state_name: Västra Götaland
  latitude: '58.36305000'
  longitude: '11.25938000'
- name: Kvänum
  state_code: O
  state_name: Västra Götaland
  latitude: '58.30000000'
  longitude: '13.18333000'
- name: Landvetter
  state_code: O
  state_name: Västra Götaland
  latitude: '57.68665000'
  longitude: '12.21169000'
- name: Länghem
  state_code: O
  state_name: Västra Götaland
  latitude: '57.60000000'
  longitude: '13.23333000'
- name: Lerum
  state_code: O
  state_name: Västra Götaland
  latitude: '57.77051000'
  longitude: '12.26904000'
- name: Lidköping
  state_code: O
  state_name: Västra Götaland
  latitude: '58.50517000'
  longitude: '13.15765000'
- name: Lilla Edet
  state_code: O
  state_name: Västra Götaland
  latitude: '58.13333000'
  longitude: '12.13333000'
- name: Limmared
  state_code: O
  state_name: Västra Götaland
  latitude: '57.53592000'
  longitude: '13.35566000'
- name: Lindome
  state_code: O
  state_name: Västra Götaland
  latitude: '57.56667000'
  longitude: '12.08333000'
- name: Ljungskile
  state_code: O
  state_name: Västra Götaland
  latitude: '58.22452000'
  longitude: '11.92014000'
- name: Lödöse
  state_code: O
  state_name: Västra Götaland
  latitude: '58.02994000'
  longitude: '12.15934000'
- name: Lövgärdet
  state_code: O
  state_name: Västra Götaland
  latitude: '57.81555000'
  longitude: '12.03861000'
- name: Lysekil
  state_code: O
  state_name: Västra Götaland
  latitude: '58.27429000'
  longitude: '11.43576000'
- name: Majorna
  state_code: O
  state_name: Västra Götaland
  latitude: '57.69195000'
  longitude: '11.91605000'
- name: Mariestad
  state_code: O
  state_name: Västra Götaland
  latitude: '58.70971000'
  longitude: '13.82367000'
- name: Mellerud
  state_code: O
  state_name: Västra Götaland
  latitude: '58.69979000'
  longitude: '12.45312000'
- name: Mölltorp
  state_code: O
  state_name: Västra Götaland
  latitude: '58.50000000'
  longitude: '14.40000000'
- name: Mölndal
  state_code: O
  state_name: Västra Götaland
  latitude: '57.65540000'
  longitude: '12.01378000'
- name: Mölnlycke
  state_code: O
  state_name: Västra Götaland
  latitude: '57.65893000'
  longitude: '12.11792000'
- name: Munkedal
  state_code: O
  state_name: Västra Götaland
  latitude: '58.46634000'
  longitude: '11.67345000'
- name: Myggenäs
  state_code: O
  state_name: Västra Götaland
  latitude: '58.06176000'
  longitude: '11.74936000'
- name: Nolvik
  state_code: O
  state_name: Västra Götaland
  latitude: '57.77500000'
  longitude: '11.83333000'
- name: Nossebro
  state_code: O
  state_name: Västra Götaland
  latitude: '58.18808000'
  longitude: '12.71599000'
- name: Öckerö
  state_code: O
  state_name: Västra Götaland
  latitude: '57.70814000'
  longitude: '11.65585000'
- name: Ödsmål
  state_code: O
  state_name: Västra Götaland
  latitude: '58.10000000'
  longitude: '11.85000000'
- name: Öjersjö
  state_code: O
  state_name: Västra Götaland
  latitude: '57.69882000'
  longitude: '12.13448000'
- name: Olofstorp
  state_code: O
  state_name: Västra Götaland
  latitude: '57.80444000'
  longitude: '12.17131000'
- name: Olstorp
  state_code: O
  state_name: Västra Götaland
  latitude: '57.82277000'
  longitude: '12.27696000'
- name: Orust
  state_code: O
  state_name: Västra Götaland
  latitude: '58.18025000'
  longitude: '11.63419000'
- name: Partille
  state_code: O
  state_name: Västra Götaland
  latitude: '57.73950000'
  longitude: '12.10642000'
- name: Rannebergen
  state_code: O
  state_name: Västra Götaland
  latitude: '57.80236000'
  longitude: '12.07131000'
- name: Rävlanda
  state_code: O
  state_name: Västra Götaland
  latitude: '57.65338000'
  longitude: '12.49791000'
- name: Rönnäng
  state_code: O
  state_name: Västra Götaland
  latitude: '57.93333000'
  longitude: '11.58333000'
- name: Sålanda
  state_code: O
  state_name: Västra Götaland
  latitude: '57.98333000'
  longitude: '12.21667000'
- name: Sandared
  state_code: O
  state_name: Västra Götaland
  latitude: '57.70992000'
  longitude: '12.79238000'
- name: Sätila
  state_code: O
  state_name: Västra Götaland
  latitude: '57.54172000'
  longitude: '12.43429000'
- name: Sjömarken
  state_code: O
  state_name: Västra Götaland
  latitude: '57.71533000'
  longitude: '12.83495000'
- name: Sjuntorp
  state_code: O
  state_name: Västra Götaland
  latitude: '58.20000000'
  longitude: '12.21667000'
- name: Skara
  state_code: O
  state_name: Västra Götaland
  latitude: '58.38659000'
  longitude: '13.43836000'
- name: Skärhamn
  state_code: O
  state_name: Västra Götaland
  latitude: '57.98665000'
  longitude: '11.55742000'
- name: Skepplanda
  state_code: O
  state_name: Västra Götaland
  latitude: '57.98333000'
  longitude: '12.20000000'
- name: Skövde
  state_code: O
  state_name: Västra Götaland
  latitude: '58.39118000'
  longitude: '13.84506000'
- name: Skultorp
  state_code: O
  state_name: Västra Götaland
  latitude: '58.35000000'
  longitude: '13.83333000'
- name: Smögen
  state_code: O
  state_name: Västra Götaland
  latitude: '58.35593000'
  longitude: '11.22411000'
- name: Sollebrunn
  state_code: O
  state_name: Västra Götaland
  latitude: '58.11667000'
  longitude: '12.53333000'
- name: Stenkullen
  state_code: O
  state_name: Västra Götaland
  latitude: '57.79476000'
  longitude: '12.31688000'
- name: Stenstorp
  state_code: O
  state_name: Västra Götaland
  latitude: '58.27254000'
  longitude: '13.71454000'
- name: Stenungsund
  state_code: O
  state_name: Västra Götaland
  latitude: '58.07046000'
  longitude: '11.81810000'
- name: Stöpen
  state_code: O
  state_name: Västra Götaland
  latitude: '58.47802000'
  longitude: '13.86611000'
- name: Stora Höga
  state_code: O
  state_name: Västra Götaland
  latitude: '58.01667000'
  longitude: '11.83333000'
- name: Strömstad
  state_code: O
  state_name: Västra Götaland
  latitude: '58.93945000'
  longitude: '11.17120000'
- name: Styrsö
  state_code: O
  state_name: Västra Götaland
  latitude: '57.61639000'
  longitude: '11.78556000'
- name: Surte
  state_code: O
  state_name: Västra Götaland
  latitude: '57.82533000'
  longitude: '12.01604000'
- name: Svanesund
  state_code: O
  state_name: Västra Götaland
  latitude: '58.14292000'
  longitude: '11.81821000'
- name: Svenljunga
  state_code: O
  state_name: Västra Götaland
  latitude: '57.49551000'
  longitude: '13.11078000'
- name: Tanumshede
  state_code: O
  state_name: Västra Götaland
  latitude: '58.72385000'
  longitude: '11.32587000'
- name: Tibro
  state_code: O
  state_name: Västra Götaland
  latitude: '58.42453000'
  longitude: '14.16162000'
- name: Tidaholm
  state_code: O
  state_name: Västra Götaland
  latitude: '58.18035000'
  longitude: '13.95824000'
- name: Tjuvkil
  state_code: O
  state_name: Västra Götaland
  latitude: '57.90000000'
  longitude: '11.73333000'
- name: Töreboda
  state_code: O
  state_name: Västra Götaland
  latitude: '58.70739000'
  longitude: '14.12597000'
- name: Torslanda
  state_code: O
  state_name: Västra Götaland
  latitude: '57.72432000'
  longitude: '11.77013000'
- name: Tranemo
  state_code: O
  state_name: Västra Götaland
  latitude: '57.48333000'
  longitude: '13.35000000'
- name: Trollhättan
  state_code: O
  state_name: Västra Götaland
  latitude: '58.21208000'
  longitude: '12.35033000'
- name: Uddevalla
  state_code: O
  state_name: Västra Götaland
  latitude: '58.34784000'
  longitude: '11.94240000'
- name: Ulricehamn
  state_code: O
  state_name: Västra Götaland
  latitude: '57.79159000'
  longitude: '13.41422000'
- name: Vänersborg
  state_code: O
  state_name: Västra Götaland
  latitude: '58.38075000'
  longitude: '12.32340000'
- name: Vara
  state_code: O
  state_name: Västra Götaland
  latitude: '58.26234000'
  longitude: '12.95413000'
- name: Vårgårda
  state_code: O
  state_name: Västra Götaland
  latitude: '58.03706000'
  longitude: '12.80907000'
- name: Vargön
  state_code: O
  state_name: Västra Götaland
  latitude: '58.35599000'
  longitude: '12.39060000'
- name: Västra Frölunda
  state_code: O
  state_name: Västra Götaland
  latitude: '57.64667000'
  longitude: '11.92944000'
- name: Vinninga
  state_code: O
  state_name: Västra Götaland
  latitude: '58.45000000'
  longitude: '13.26667000'
- name: Viskafors
  state_code: O
  state_name: Västra Götaland
  latitude: '57.62941000'
  longitude: '12.84890000'
