---
- name: Ajdovščina
  state_code: '001'
  state_name: Ajdovščina
  latitude: '45.88601000'
  longitude: '13.90946000'
- name: Cirkulane
  state_code: '001'
  state_name: Ajdovščina
  latitude: '46.34408000'
  longitude: '15.99472000'
- name: Lokavec
  state_code: '001'
  state_name: Ajdovščina
  latitude: '45.90167000'
  longitude: '13.87972000'
- name: Ankaran
  state_code: '213'
  state_name: Ankaran
  latitude: '45.57861000'
  longitude: '13.73611000'
- name: Apače
  state_code: '195'
  state_name: Apače
  latitude: '46.69722000'
  longitude: '15.91056000'
- name: Beltinci
  state_code: '002'
  state_name: Beltinci
  latitude: '46.60528000'
  longitude: '16.24056000'
- name: Gančani
  state_code: '002'
  state_name: Beltinci
  latitude: '46.63250000'
  longitude: '16.25111000'
- name: Lipovci
  state_code: '002'
  state_name: Beltinci
  latitude: '46.62833000'
  longitude: '16.22806000'
- name: Zgornje Gorje
  state_code: '002'
  state_name: Beltinci
  latitude: '46.37962000'
  longitude: '14.06937000'
- name: Benedikt
  state_code: '148'
  state_name: Benedikt
  latitude: '46.60861000'
  longitude: '15.88833000'
- name: Bistrica ob Sotli
  state_code: '149'
  state_name: Bistrica ob Sotli
  latitude: '46.05889000'
  longitude: '15.66417000'
- name: Bled
  state_code: '003'
  state_name: Bled
  latitude: '46.36917000'
  longitude: '14.11361000'
- name: Kostanjevica na Krki
  state_code: '003'
  state_name: Bled
  latitude: '45.84611000'
  longitude: '15.42222000'
- name: Zasip
  state_code: '003'
  state_name: Bled
  latitude: '46.39284000'
  longitude: '14.10869000'
- name: Nova Vas
  state_code: '150'
  state_name: Bloke
  latitude: '45.77167000'
  longitude: '14.50583000'
- name: Bohinjska Bistrica
  state_code: '004'
  state_name: Bohinj
  latitude: '46.27216000'
  longitude: '13.95350000'
- name: Dragomer
  state_code: '004'
  state_name: Bohinj
  latitude: '46.01667000'
  longitude: '14.38333000'
- name: Log pri Brezovici
  state_code: '004'
  state_name: Bohinj
  latitude: '46.01667000'
  longitude: '14.36667000'
- name: Borovnica
  state_code: '005'
  state_name: Borovnica
  latitude: '45.91583000'
  longitude: '14.36306000'
- name: Makole
  state_code: '005'
  state_name: Borovnica
  latitude: '46.31722000'
  longitude: '15.66722000'
- name: Bovec
  state_code: '006'
  state_name: Bovec
  latitude: '46.33808000'
  longitude: '13.55245000'
- name: Mirna
  state_code: '006'
  state_name: Bovec
  latitude: '45.95528000'
  longitude: '15.06194000'
- name: Braslovče
  state_code: '151'
  state_name: Braslovče
  latitude: '46.28972000'
  longitude: '15.03889000'
- name: Dobrovo
  state_code: '007'
  state_name: Brda
  latitude: '45.99639000'
  longitude: '13.52639000'
- name: Mokronog
  state_code: '007'
  state_name: Brda
  latitude: '45.93417000'
  longitude: '15.14083000'
- name: Brežice
  state_code: '009'
  state_name: Brežice
  latitude: '45.90333000'
  longitude: '15.59111000'
- name: Poljčane
  state_code: '009'
  state_name: Brežice
  latitude: '46.31194000'
  longitude: '15.57917000'
- name: Brezovica pri Ljubljani
  state_code: '008'
  state_name: Brezovica
  latitude: '46.03333000'
  longitude: '14.40000000'
- name: Notranje Gorice
  state_code: '008'
  state_name: Brezovica
  latitude: '45.98750000'
  longitude: '14.39889000'
- name: Opština Ljubljana-Vič-Rudnik
  state_code: '008'
  state_name: Brezovica
  latitude: '46.03333000'
  longitude: '14.41667000'
- name: Rečica ob Savinji
  state_code: '008'
  state_name: Brezovica
  latitude: '46.31667000'
  longitude: '14.91667000'
- name: Vnanje Gorice
  state_code: '008'
  state_name: Brezovica
  latitude: '46.00722000'
  longitude: '14.42194000'
- name: Cankova
  state_code: '152'
  state_name: Cankova
  latitude: '46.72083000'
  longitude: '16.02250000'
- name: Celje
  state_code: '011'
  state_name: Celje
  latitude: '46.23092000'
  longitude: '15.26044000'
- name: Ljubečna
  state_code: '011'
  state_name: Celje
  latitude: '46.25567000'
  longitude: '15.32430000'
- name: Trnovlje pri Celju
  state_code: '011'
  state_name: Celje
  latitude: '46.25667000'
  longitude: '15.29528000'
- name: Cerklje na Gorenjskem
  state_code: '012'
  state_name: Cerklje na Gorenjskem
  latitude: '46.25417000'
  longitude: '14.48861000'
- name: Cerknica
  state_code: '013'
  state_name: Cerknica
  latitude: '45.79306000'
  longitude: '14.36250000'
- name: Rakek
  state_code: '013'
  state_name: Cerknica
  latitude: '45.81333000'
  longitude: '14.31111000'
- name: Cerkno
  state_code: '014'
  state_name: Cerkno
  latitude: '46.12556000'
  longitude: '13.98167000'
- name: Cerkvenjak
  state_code: '153'
  state_name: Cerkvenjak
  latitude: '46.57056000'
  longitude: '15.94361000'
- name: Črenšovci
  state_code: '015'
  state_name: Črenšovci
  latitude: '46.55794000'
  longitude: '16.30410000'
- name: Črna na Koroškem
  state_code: '016'
  state_name: Črna na Koroškem
  latitude: '46.47045000'
  longitude: '14.85009000'
- name: Črnomelj
  state_code: '017'
  state_name: Črnomelj
  latitude: '45.57111000'
  longitude: '15.18889000'
- name: Destrnik
  state_code: '018'
  state_name: Destrnik
  latitude: '46.49254000'
  longitude: '15.87893000'
- name: Divača
  state_code: '019'
  state_name: Divača
  latitude: '45.68472000'
  longitude: '13.97028000'
- name: Dobje pri Planini
  state_code: '154'
  state_name: Dobje
  latitude: '46.13747000'
  longitude: '15.39412000'
- name: Videm
  state_code: '020'
  state_name: Dobrepolje
  latitude: '45.85000000'
  longitude: '14.69417000'
- name: Dobrna
  state_code: '155'
  state_name: Dobrna
  latitude: '46.33750000'
  longitude: '15.22639000'
- name: Dobrova
  state_code: '021'
  state_name: Dobrova–Polhov Gradec
  latitude: '46.04580000'
  longitude: '14.39186000'
- name: Dobrovnik
  state_code: '156'
  state_name: Dobrovnik
  latitude: '46.65139000'
  longitude: '16.35250000'
- name: Dol pri Ljubljani
  state_code: '022'
  state_name: Dol pri Ljubljani
  latitude: '46.08861000'
  longitude: '14.60083000'
- name: Dolenjske Toplice
  state_code: '157'
  state_name: Dolenjske Toplice
  latitude: '45.75657000'
  longitude: '15.05917000'
- name: Dob
  state_code: '023'
  state_name: Domžale
  latitude: '46.15194000'
  longitude: '14.62861000'
- name: Domžale
  state_code: '023'
  state_name: Domžale
  latitude: '46.13774000'
  longitude: '14.59371000'
- name: Radomlje
  state_code: '023'
  state_name: Domžale
  latitude: '46.17361000'
  longitude: '14.61222000'
- name: Vir
  state_code: '023'
  state_name: Domžale
  latitude: '46.15325000'
  longitude: '14.60741000'
- name: Dornava
  state_code: '024'
  state_name: Dornava
  latitude: '46.43667000'
  longitude: '15.95361000'
- name: Dravograd
  state_code: '025'
  state_name: Dravograd
  latitude: '46.58806000'
  longitude: '15.01917000'
- name: Spodnji Duplek
  state_code: '026'
  state_name: Duplek
  latitude: '46.50306000'
  longitude: '15.74528000'
- name: Zgornji Duplek
  state_code: '026'
  state_name: Duplek
  latitude: '46.51361000'
  longitude: '15.72083000'
- name: Gorenja Vas
  state_code: '027'
  state_name: Gorenja Vas–Poljane
  latitude: '46.10722000'
  longitude: '14.14806000'
- name: Gorišnica
  state_code: '028'
  state_name: Gorišnica
  latitude: '46.41472000'
  longitude: '16.01389000'
- name: Gornja Radgona
  state_code: '029'
  state_name: Gornja Radgona
  latitude: '46.67333000'
  longitude: '15.99222000'
- name: Gornji Grad
  state_code: '030'
  state_name: Gornji Grad
  latitude: '46.29528000'
  longitude: '14.80833000'
- name: Gornji Petrovci
  state_code: '031'
  state_name: Gornji Petrovci
  latitude: '46.80528000'
  longitude: '16.22250000'
- name: Grad
  state_code: '158'
  state_name: Grad
  latitude: '46.80000000'
  longitude: '16.10000000'
- name: Grosuplje
  state_code: '032'
  state_name: Grosuplje
  latitude: '45.95556000'
  longitude: '14.65889000'
- name: Šmarje-Sap
  state_code: '032'
  state_name: Grosuplje
  latitude: '45.97618000'
  longitude: '14.61177000'
- name: Spodnja Hajdina
  state_code: '159'
  state_name: Hajdina
  latitude: '46.40889000'
  longitude: '15.84694000'
- name: Hotinja Vas
  state_code: '160'
  state_name: Hoče–Slivnica
  latitude: '46.46667000'
  longitude: '15.66667000'
- name: Radizel
  state_code: '160'
  state_name: Hoče–Slivnica
  latitude: '46.47444000'
  longitude: '15.65583000'
- name: Rogoza
  state_code: '160'
  state_name: Hoče–Slivnica
  latitude: '46.50000000'
  longitude: '15.68333000'
- name: Spodnje Hoče
  state_code: '160'
  state_name: Hoče–Slivnica
  latitude: '46.50000000'
  longitude: '15.65000000'
- name: Hodoš
  state_code: '161'
  state_name: Hodoš
  latitude: '46.82333000'
  longitude: '16.33417000'
- name: Horjul
  state_code: '162'
  state_name: Horjul
  latitude: '46.02361000'
  longitude: '14.29917000'
- name: Dol pri Hrastniku
  state_code: '034'
  state_name: Hrastnik
  latitude: '46.14194000'
  longitude: '15.11278000'
- name: Hrastnik
  state_code: '034'
  state_name: Hrastnik
  latitude: '46.14611000'
  longitude: '15.08139000'
- name: Kozina
  state_code: '035'
  state_name: Hrpelje–Kozina
  latitude: '45.61000000'
  longitude: '13.93556000'
- name: Idrija
  state_code: '036'
  state_name: Idrija
  latitude: '46.00278000'
  longitude: '14.03056000'
- name: Spodnja Idrija
  state_code: '036'
  state_name: Idrija
  latitude: '46.03194000'
  longitude: '14.02722000'
- name: Ig
  state_code: '037'
  state_name: Ig
  latitude: '45.96028000'
  longitude: '14.52889000'
- name: Ilirska Bistrica
  state_code: '038'
  state_name: Ilirska Bistrica
  latitude: '45.56757000'
  longitude: '14.24571000'
- name: Ivančna Gorica
  state_code: '039'
  state_name: Ivančna Gorica
  latitude: '45.93833000'
  longitude: '14.80444000'
- name: Šentvid pri Stični
  state_code: '039'
  state_name: Ivančna Gorica
  latitude: '45.95004000'
  longitude: '14.84344000'
- name: Izola
  state_code: '040'
  state_name: Izola
  latitude: '45.53694000'
  longitude: '13.66194000'
- name: Jagodje
  state_code: '040'
  state_name: Izola
  latitude: '45.52845000'
  longitude: '13.64721000'
- name: Hrušica
  state_code: '041'
  state_name: Jesenice
  latitude: '46.44500000'
  longitude: '14.01778000'
- name: Jesenice
  state_code: '041'
  state_name: Jesenice
  latitude: '46.43056000'
  longitude: '14.06694000'
- name: Koroška Bela
  state_code: '041'
  state_name: Jesenice
  latitude: '46.44913000'
  longitude: '14.11135000'
- name: Slovenski Javornik
  state_code: '041'
  state_name: Jesenice
  latitude: '46.42611000'
  longitude: '14.08722000'
- name: Zgornje Jezersko
  state_code: '163'
  state_name: Jezersko
  latitude: '46.39410000'
  longitude: '14.50659000'
- name: Juršinci
  state_code: '042'
  state_name: Juršinci
  latitude: '46.48472000'
  longitude: '15.97139000'
- name: Kamnik
  state_code: '043'
  state_name: Kamnik
  latitude: '46.22587000'
  longitude: '14.61207000'
- name: Mekinje
  state_code: '043'
  state_name: Kamnik
  latitude: '46.23333000'
  longitude: '14.61667000'
- name: Šmarca
  state_code: '043'
  state_name: Kamnik
  latitude: '46.19333000'
  longitude: '14.59667000'
- name: Deskle
  state_code: '044'
  state_name: Kanal ob Soči
  latitude: '46.05307000'
  longitude: '13.61382000'
- name: Kanal
  state_code: '044'
  state_name: Kanal ob Soči
  latitude: '46.08861000'
  longitude: '13.63972000'
- name: Kidričevo
  state_code: '045'
  state_name: Kidričevo
  latitude: '46.40361000'
  longitude: '15.79111000'
- name: Kobarid
  state_code: '046'
  state_name: Kobarid
  latitude: '46.24761000'
  longitude: '13.57907000'
- name: Kobilje
  state_code: '047'
  state_name: Kobilje
  latitude: '46.68472000'
  longitude: '16.39778000'
- name: Kočevje
  state_code: '048'
  state_name: Kočevje
  latitude: '45.64333000'
  longitude: '14.86333000'
- name: Komen
  state_code: '049'
  state_name: Komen
  latitude: '45.81528000'
  longitude: '13.74833000'
- name: Komenda
  state_code: '164'
  state_name: Komenda
  latitude: '46.20484000'
  longitude: '14.53839000'
- name: Moste
  state_code: '164'
  state_name: Komenda
  latitude: '46.19500000'
  longitude: '14.55139000'
- name: Dekani
  state_code: '050'
  state_name: Koper
  latitude: '45.54972000'
  longitude: '13.81361000'
- name: Hrvatini
  state_code: '050'
  state_name: Koper
  latitude: '45.58278000'
  longitude: '13.75667000'
- name: Koper
  state_code: '050'
  state_name: Koper
  latitude: '45.54694000'
  longitude: '13.72944000'
- name: Pobegi
  state_code: '050'
  state_name: Koper
  latitude: '45.53944000'
  longitude: '13.79611000'
- name: Prade
  state_code: '050'
  state_name: Koper
  latitude: '45.54003000'
  longitude: '13.77607000'
- name: Spodnje Škofije
  state_code: '050'
  state_name: Koper
  latitude: '45.57167000'
  longitude: '13.79250000'
- name: Sv. Anton
  state_code: '050'
  state_name: Koper
  latitude: '45.52583000'
  longitude: '13.83194000'
- name: Kostel
  state_code: '165'
  state_name: Kostel
  latitude: '45.50842000'
  longitude: '14.91005000'
- name: Kozje
  state_code: '051'
  state_name: Kozje
  latitude: '46.07500000'
  longitude: '15.56028000'
- name: Britof
  state_code: '052'
  state_name: Kranj
  latitude: '46.26024000'
  longitude: '14.39037000'
- name: Golnik
  state_code: '052'
  state_name: Kranj
  latitude: '46.33333000'
  longitude: '14.33333000'
- name: Kokrica
  state_code: '052'
  state_name: Kranj
  latitude: '46.27028000'
  longitude: '14.36111000'
- name: Kranj
  state_code: '052'
  state_name: Kranj
  latitude: '46.23887000'
  longitude: '14.35561000'
- name: Mlaka pri Kranju
  state_code: '052'
  state_name: Kranj
  latitude: '46.28333000'
  longitude: '14.35000000'
- name: Zgornje Bitnje
  state_code: '052'
  state_name: Kranj
  latitude: '46.22000000'
  longitude: '14.33667000'
- name: Kranjska Gora
  state_code: '053'
  state_name: Kranjska Gora
  latitude: '46.45689000'
  longitude: '13.77824000'
- name: Mojstrana
  state_code: '053'
  state_name: Kranjska Gora
  latitude: '46.42383000'
  longitude: '13.87520000'
- name: Križevci pri Ljutomeru
  state_code: '166'
  state_name: Križevci
  latitude: '46.56833000'
  longitude: '16.13861000'
- name: Krško
  state_code: '054'
  state_name: Krško
  latitude: '45.95915000'
  longitude: '15.49167000'
- name: Leskovec pri Krškem
  state_code: '054'
  state_name: Krško
  latitude: '45.93566000'
  longitude: '15.47184000'
- name: Senovo
  state_code: '054'
  state_name: Krško
  latitude: '46.02361000'
  longitude: '15.47694000'
- name: Zgornja Kungota
  state_code: '055'
  state_name: Kungota
  latitude: '46.63917000'
  longitude: '15.61556000'
- name: Kuzma
  state_code: '056'
  state_name: Kuzma
  latitude: '46.83694000'
  longitude: '16.08333000'
- name: Laško
  state_code: '057'
  state_name: Laško
  latitude: '46.15463000'
  longitude: '15.23555000'
- name: Lenart v Slov. Goricah
  state_code: '058'
  state_name: Lenart
  latitude: '46.57611000'
  longitude: '15.83139000'
- name: Lendava
  state_code: '059'
  state_name: Lendava
  latitude: '46.56494000'
  longitude: '16.45091000'
- name: Litija
  state_code: '060'
  state_name: Litija
  latitude: '46.05861000'
  longitude: '14.82250000'
- name: Dravlje District
  state_code: '061'
  state_name: Ljubljana
  latitude: '46.07290000'
  longitude: '14.44741000'
- name: Jarše District
  state_code: '061'
  state_name: Ljubljana
  latitude: '46.07345000'
  longitude: '14.55431000'
- name: Ljubljana
  state_code: '061'
  state_name: Ljubljana
  latitude: '46.05108000'
  longitude: '14.50513000'
- name: Opčina Ljubljana-Bežigrad
  state_code: '061'
  state_name: Ljubljana
  latitude: '46.08333000'
  longitude: '14.53333000'
- name: Opština Ljubljana-Center
  state_code: '061'
  state_name: Ljubljana
  latitude: '46.05000000'
  longitude: '14.53333000'
- name: Opština Ljubljana-Moste-Polje
  state_code: '061'
  state_name: Ljubljana
  latitude: '46.06667000'
  longitude: '14.61667000'
- name: Rožnik District
  state_code: '061'
  state_name: Ljubljana
  latitude: '46.05999000'
  longitude: '14.46779000'
- name: Šentvid District
  state_code: '061'
  state_name: Ljubljana
  latitude: '46.10559000'
  longitude: '14.43329000'
- name: Sostro District
  state_code: '061'
  state_name: Ljubljana
  latitude: '46.04341000'
  longitude: '14.67293000'
- name: Trnovo District
  state_code: '061'
  state_name: Ljubljana
  latitude: '46.02412000'
  longitude: '14.48891000'
- name: Vič District
  state_code: '061'
  state_name: Ljubljana
  latitude: '46.00779000'
  longitude: '14.46968000'
- name: Ljubno ob Savinji
  state_code: '062'
  state_name: Ljubno
  latitude: '46.34358000'
  longitude: '14.83377000'
- name: Ljutomer
  state_code: '063'
  state_name: Ljutomer
  latitude: '46.52083000'
  longitude: '16.19750000'
- name: Logatec
  state_code: '064'
  state_name: Logatec
  latitude: '45.91444000'
  longitude: '14.22583000'
- name: Leskova Dolina
  state_code: '065'
  state_name: Loška Dolina
  latitude: '45.62139000'
  longitude: '14.46056000'
- name: Hrib-Loški Potok
  state_code: '066'
  state_name: Loški Potok
  latitude: '45.70688000'
  longitude: '14.61674000'
- name: Lovrenc na Pohorju
  state_code: '167'
  state_name: Lovrenc na Pohorju
  latitude: '46.54056000'
  longitude: '15.39306000'
- name: Luče
  state_code: '067'
  state_name: Luče
  latitude: '46.35611000'
  longitude: '14.74667000'
- name: Lukovica pri Domžalah
  state_code: '068'
  state_name: Lukovica
  latitude: '46.16988000'
  longitude: '14.69179000'
- name: Majšperk
  state_code: '069'
  state_name: Majšperk
  latitude: '46.35167000'
  longitude: '15.73361000'
- name: Bresternica
  state_code: '070'
  state_name: Maribor
  latitude: '46.56972000'
  longitude: '15.57500000'
- name: Kamnica
  state_code: '070'
  state_name: Maribor
  latitude: '46.57444000'
  longitude: '15.61417000'
- name: Limbuš
  state_code: '070'
  state_name: Maribor
  latitude: '46.55361000'
  longitude: '15.58361000'
- name: Maribor
  state_code: '070'
  state_name: Maribor
  latitude: '46.55472000'
  longitude: '15.64667000'
- name: Pekre
  state_code: '070'
  state_name: Maribor
  latitude: '46.54722000'
  longitude: '15.59556000'
- name: Razvanje
  state_code: '070'
  state_name: Maribor
  latitude: '46.51444000'
  longitude: '15.63611000'
- name: Markovci
  state_code: '168'
  state_name: Markovci
  latitude: '46.39557000'
  longitude: '15.92831000'
- name: Medvode
  state_code: '071'
  state_name: Medvode
  latitude: '46.14220000'
  longitude: '14.41114000'
- name: Opština [historical] Ljubljana-Šiška
  state_code: '071'
  state_name: Medvode
  latitude: '46.16667000'
  longitude: '14.43333000'
- name: Zgornje Pirniče
  state_code: '071'
  state_name: Medvode
  latitude: '46.14251000'
  longitude: '14.43158000'
- name: Mengeš
  state_code: '072'
  state_name: Mengeš
  latitude: '46.16694000'
  longitude: '14.57500000'
- name: Preserje pri Radomljah
  state_code: '072'
  state_name: Mengeš
  latitude: '46.16911000'
  longitude: '14.59698000'
- name: Metlika
  state_code: '073'
  state_name: Metlika
  latitude: '45.64722000'
  longitude: '15.31417000'
- name: Mežica
  state_code: '074'
  state_name: Mežica
  latitude: '46.52139000'
  longitude: '14.85444000'
- name: Miklavž na Dravskem Polju
  state_code: '169'
  state_name: Miklavž na Dravskem Polju
  latitude: '46.50583000'
  longitude: '15.69722000'
- name: Bilje
  state_code: '075'
  state_name: Miren–Kostanjevica
  latitude: '45.89444000'
  longitude: '13.63222000'
- name: Miren
  state_code: '075'
  state_name: Miren–Kostanjevica
  latitude: '45.89556000'
  longitude: '13.60750000'
- name: Mirna Peč
  state_code: '170'
  state_name: Mirna Peč
  latitude: '45.86028000'
  longitude: '15.08333000'
- name: Mislinja
  state_code: '076'
  state_name: Mislinja
  latitude: '46.44141000'
  longitude: '15.20027000'
- name: Moravče
  state_code: '077'
  state_name: Moravče
  latitude: '46.13694000'
  longitude: '14.74500000'
- name: Moravske Toplice
  state_code: '078'
  state_name: Moravske Toplice
  latitude: '46.68313000'
  longitude: '16.22080000'
- name: Mozirje
  state_code: '079'
  state_name: Mozirje
  latitude: '46.33944000'
  longitude: '14.96333000'
- name: Bakovci
  state_code: '080'
  state_name: Murska Sobota
  latitude: '46.61889000'
  longitude: '16.15028000'
- name: Černelavci
  state_code: '080'
  state_name: Murska Sobota
  latitude: '46.66667000'
  longitude: '16.13333000'
- name: Krog
  state_code: '080'
  state_name: Murska Sobota
  latitude: '46.63806000'
  longitude: '16.14139000'
- name: Murska Sobota
  state_code: '080'
  state_name: Murska Sobota
  latitude: '46.66250000'
  longitude: '16.16639000'
- name: Rakičan
  state_code: '080'
  state_name: Murska Sobota
  latitude: '46.65167000'
  longitude: '16.20417000'
- name: Muta
  state_code: '081'
  state_name: Muta
  latitude: '46.61139000'
  longitude: '15.16611000'
- name: Naklo
  state_code: '082'
  state_name: Naklo
  latitude: '46.27278000'
  longitude: '14.31722000'
- name: Nazarje
  state_code: '083'
  state_name: Nazarje
  latitude: '46.31757000'
  longitude: '14.94674000'
- name: Kromberk
  state_code: '084'
  state_name: Nova Gorica
  latitude: '45.96083000'
  longitude: '13.66556000'
- name: Nova Gorica
  state_code: '084'
  state_name: Nova Gorica
  latitude: '45.95604000'
  longitude: '13.64837000'
- name: Prvačina
  state_code: '084'
  state_name: Nova Gorica
  latitude: '45.89000000'
  longitude: '13.71806000'
- name: Šempas
  state_code: '084'
  state_name: Nova Gorica
  latitude: '45.93028000'
  longitude: '13.74361000'
- name: Solkan
  state_code: '084'
  state_name: Nova Gorica
  latitude: '45.97139000'
  longitude: '13.64944000'
- name: Novo Mesto
  state_code: '085'
  state_name: Novo Mesto
  latitude: '45.80397000'
  longitude: '15.16886000'
- name: Odranci
  state_code: '086'
  state_name: Odranci
  latitude: '46.58667000'
  longitude: '16.28028000'
- name: Oplotnica
  state_code: '171'
  state_name: Oplotnica
  latitude: '46.38778000'
  longitude: '15.44667000'
- name: Ormož
  state_code: '087'
  state_name: Ormož
  latitude: '46.41139000'
  longitude: '16.15444000'
- name: Osilnica
  state_code: '088'
  state_name: Osilnica
  latitude: '45.52914000'
  longitude: '14.69838000'
- name: Pesnica pri Mariboru
  state_code: '089'
  state_name: Pesnica
  latitude: '46.60694000'
  longitude: '15.67667000'
- name: Lucija
  state_code: '090'
  state_name: Piran
  latitude: '45.50526000'
  longitude: '13.60240000'
- name: Piran
  state_code: '090'
  state_name: Piran
  latitude: '45.52778000'
  longitude: '13.57056000'
- name: Portorož
  state_code: '090'
  state_name: Piran
  latitude: '45.51429000'
  longitude: '13.59206000'
- name: Seča
  state_code: '090'
  state_name: Piran
  latitude: '45.49584000'
  longitude: '13.61466000'
- name: Pivka
  state_code: '091'
  state_name: Pivka
  latitude: '45.68292000'
  longitude: '14.19588000'
- name: Podčetrtek
  state_code: '092'
  state_name: Podčetrtek
  latitude: '46.15694000'
  longitude: '15.59861000'
- name: Podlehnik
  state_code: '172'
  state_name: Podlehnik
  latitude: '46.33528000'
  longitude: '15.88000000'
- name: Podvelka
  state_code: '093'
  state_name: Podvelka
  latitude: '46.58694000'
  longitude: '15.33056000'
- name: Polzela
  state_code: '173'
  state_name: Polzela
  latitude: '46.28333000'
  longitude: '15.06667000'
- name: Postojna
  state_code: '094'
  state_name: Postojna
  latitude: '45.77435000'
  longitude: '14.21528000'
- name: Prebold
  state_code: '174'
  state_name: Prebold
  latitude: '46.23694000'
  longitude: '15.09250000'
- name: Preddvor
  state_code: '095'
  state_name: Preddvor
  latitude: '46.30250000'
  longitude: '14.42306000'
- name: Prevalje
  state_code: '175'
  state_name: Prevalje
  latitude: '46.54694000'
  longitude: '14.92083000'
- name: Ptuj
  state_code: '096'
  state_name: Ptuj
  latitude: '46.42005000'
  longitude: '15.87018000'
- name: Puconci
  state_code: '097'
  state_name: Puconci
  latitude: '46.70667000'
  longitude: '16.15639000'
- name: Fram
  state_code: '098'
  state_name: Rače–Fram
  latitude: '46.45600000'
  longitude: '15.63007000'
- name: Morje
  state_code: '098'
  state_name: Rače–Fram
  latitude: '46.44444000'
  longitude: '15.62139000'
- name: Rače
  state_code: '098'
  state_name: Rače–Fram
  latitude: '46.45194000'
  longitude: '15.68139000'
- name: Radeče
  state_code: '099'
  state_name: Radeče
  latitude: '46.06806000'
  longitude: '15.18389000'
- name: Radenci
  state_code: '100'
  state_name: Radenci
  latitude: '46.64201000'
  longitude: '16.03781000'
- name: Radlje ob Dravi
  state_code: '101'
  state_name: Radlje ob Dravi
  latitude: '46.61417000'
  longitude: '15.22639000'
- name: Lesce
  state_code: '102'
  state_name: Radovljica
  latitude: '46.36111000'
  longitude: '14.15778000'
- name: Radovljica
  state_code: '102'
  state_name: Radovljica
  latitude: '46.34444000'
  longitude: '14.17444000'
- name: Kotlje
  state_code: '103'
  state_name: Ravne na Koroškem
  latitude: '46.52139000'
  longitude: '14.98694000'
- name: Ravne na Koroškem
  state_code: '103'
  state_name: Ravne na Koroškem
  latitude: '46.54306000'
  longitude: '14.96917000'
- name: Razkrižje
  state_code: '176'
  state_name: Razkrižje
  latitude: '46.52167000'
  longitude: '16.28111000'
- name: Renče
  state_code: '201'
  state_name: Renče–Vogrsko
  latitude: '45.89000000'
  longitude: '13.66861000'
- name: Volčja Draga
  state_code: '201'
  state_name: Renče–Vogrsko
  latitude: '45.90694000'
  longitude: '13.67750000'
- name: Ribnica
  state_code: '104'
  state_name: Ribnica
  latitude: '45.73861000'
  longitude: '14.72750000'
- name: Ribnica na Pohorju
  state_code: '177'
  state_name: Ribnica na Pohorju
  latitude: '46.53500000'
  longitude: '15.27278000'
- name: Rogaška Slatina
  state_code: '106'
  state_name: Rogaška Slatina
  latitude: '46.23750000'
  longitude: '15.63972000'
- name: Rogašovci
  state_code: '105'
  state_name: Rogašovci
  latitude: '46.80000000'
  longitude: '16.03333000'
- name: Rogatec
  state_code: '107'
  state_name: Rogatec
  latitude: '46.22944000'
  longitude: '15.70028000'
- name: Bistrica ob Dravi
  state_code: '108'
  state_name: Ruše
  latitude: '46.55419000'
  longitude: '15.54855000'
- name: Ruše
  state_code: '108'
  state_name: Ruše
  latitude: '46.53944000'
  longitude: '15.51583000'
- name: Šalovci
  state_code: '033'
  state_name: Šalovci
  latitude: '46.82500000'
  longitude: '16.29806000'
- name: Selnica ob Dravi
  state_code: '178'
  state_name: Selnica ob Dravi
  latitude: '46.55000000'
  longitude: '15.49500000'
- name: Semič
  state_code: '109'
  state_name: Semič
  latitude: '45.64611000'
  longitude: '15.18222000'
- name: Rožna Dolina
  state_code: '183'
  state_name: Šempeter–Vrtojba
  latitude: '45.94194000'
  longitude: '13.66779000'
- name: Šempeter pri Gorici
  state_code: '183'
  state_name: Šempeter–Vrtojba
  latitude: '45.92750000'
  longitude: '13.64111000'
- name: Vrtojba
  state_code: '183'
  state_name: Šempeter–Vrtojba
  latitude: '45.91250000'
  longitude: '13.63417000'
- name: Hrastje
  state_code: '117'
  state_name: Šenčur
  latitude: '46.21667000'
  longitude: '14.40000000'
- name: Šenčur
  state_code: '117'
  state_name: Šenčur
  latitude: '46.24556000'
  longitude: '14.41972000'
- name: Selnica ob Muri
  state_code: '118'
  state_name: Šentilj
  latitude: '46.68333000'
  longitude: '15.70000000'
- name: Šentilj v Slov. Goricah
  state_code: '118'
  state_name: Šentilj
  latitude: '46.68167000'
  longitude: '15.64806000'
- name: Šentjernej
  state_code: '119'
  state_name: Šentjernej
  latitude: '45.84000000'
  longitude: '15.33611000'
- name: Šentjur
  state_code: '120'
  state_name: Šentjur
  latitude: '46.21722000'
  longitude: '15.39750000'
- name: Šentrupert
  state_code: '211'
  state_name: Šentrupert
  latitude: '45.97778000'
  longitude: '15.09556000'
- name: Sevnica
  state_code: '110'
  state_name: Sevnica
  latitude: '46.00778000'
  longitude: '15.31556000'
- name: Sežana
  state_code: '111'
  state_name: Sežana
  latitude: '45.70924000'
  longitude: '13.87333000'
- name: Škocjan
  state_code: '121'
  state_name: Škocjan
  latitude: '45.90667000'
  longitude: '15.29139000'
- name: Škofja Loka
  state_code: '122'
  state_name: Škofja Loka
  latitude: '46.16551000'
  longitude: '14.30626000'
- name: Sv. Duh
  state_code: '122'
  state_name: Škofja Loka
  latitude: '46.18333000'
  longitude: '14.33333000'
- name: Lavrica
  state_code: '123'
  state_name: Škofljica
  latitude: '46.00002000'
  longitude: '14.55730000'
- name: Škofljica
  state_code: '123'
  state_name: Škofljica
  latitude: '45.98333000'
  longitude: '14.57667000'
- name: Legen
  state_code: '112'
  state_name: Slovenj Gradec
  latitude: '46.50651000'
  longitude: '15.14424000'
- name: Pameče
  state_code: '112'
  state_name: Slovenj Gradec
  latitude: '46.53417000'
  longitude: '15.07917000'
- name: Slovenj Gradec
  state_code: '112'
  state_name: Slovenj Gradec
  latitude: '46.51028000'
  longitude: '15.08056000'
- name: Šmartno pri Slovenj Gradcu
  state_code: '112'
  state_name: Slovenj Gradec
  latitude: '46.48944000'
  longitude: '15.10667000'
- name: Pragersko
  state_code: '113'
  state_name: Slovenska Bistrica
  latitude: '46.39667000'
  longitude: '15.66000000'
- name: Slovenska Bistrica
  state_code: '113'
  state_name: Slovenska Bistrica
  latitude: '46.39278000'
  longitude: '15.57444000'
- name: Zgornja Polskava
  state_code: '113'
  state_name: Slovenska Bistrica
  latitude: '46.42556000'
  longitude: '15.61222000'
- name: Slovenske Konjice
  state_code: '114'
  state_name: Slovenske Konjice
  latitude: '46.33667000'
  longitude: '15.42583000'
- name: Šmarje pri Jelšah
  state_code: '124'
  state_name: Šmarje pri Jelšah
  latitude: '46.22722000'
  longitude: '15.51917000'
- name: Šmarjeta
  state_code: '206'
  state_name: Šmarješke Toplice
  latitude: '45.88333000'
  longitude: '15.25000000'
- name: Šmartno ob Paki
  state_code: '125'
  state_name: Šmartno ob Paki
  latitude: '46.33333000'
  longitude: '15.03333000'
- name: Šmartno pri Litiji
  state_code: '194'
  state_name: Šmartno pri Litiji
  latitude: '46.04444000'
  longitude: '14.84417000'
- name: Sodražica
  state_code: '179'
  state_name: Sodražica
  latitude: '45.76111000'
  longitude: '14.63556000'
- name: Solčava
  state_code: '180'
  state_name: Solčava
  latitude: '46.41944000'
  longitude: '14.69361000'
- name: Ravne
  state_code: '126'
  state_name: Šoštanj
  latitude: '46.41413000'
  longitude: '15.06087000'
- name: Šoštanj
  state_code: '126'
  state_name: Šoštanj
  latitude: '46.38000000'
  longitude: '15.04861000'
- name: Topolšica
  state_code: '126'
  state_name: Šoštanj
  latitude: '46.40028000'
  longitude: '15.02157000'
- name: Središče ob Dravi
  state_code: '202'
  state_name: Središče ob Dravi
  latitude: '46.39417000'
  longitude: '16.26806000'
- name: Starše
  state_code: '115'
  state_name: Starše
  latitude: '46.46583000'
  longitude: '15.76722000'
- name: Štore
  state_code: '127'
  state_name: Štore
  latitude: '46.22083000'
  longitude: '15.31389000'
- name: Straža
  state_code: '203'
  state_name: Straža
  latitude: '45.78000000'
  longitude: '15.07278000'
- name: Sv. Ana v Slov. Goricah
  state_code: '181'
  state_name: Sveta Ana
  latitude: '46.64917000'
  longitude: '15.84417000'
- name: Sv. Trojica v Slov. Goricah
  state_code: '204'
  state_name: Sveta Trojica v Slovenskih Goricah
  latitude: '46.57667000'
  longitude: '15.87694000'
- name: Vitomarci
  state_code: '182'
  state_name: Sveti Andraž v Slovenskih Goricah
  latitude: '46.52750000'
  longitude: '15.93944000'
- name: Sveti Jurij ob Ščavnici
  state_code: '210'
  state_name: Sveti Jurij v Slovenskih Goricah
  latitude: '46.56950000'
  longitude: '16.02347000'
- name: Sveti Tomaž
  state_code: '205'
  state_name: Sveti Tomaž
  latitude: '46.48417000'
  longitude: '16.08361000'
- name: Tabor
  state_code: '184'
  state_name: Tabor
  latitude: '46.23611000'
  longitude: '15.01833000'
- name: Tišina
  state_code: '010'
  state_name: Tišina
  latitude: '46.65806000'
  longitude: '16.09167000'
- name: Tolmin
  state_code: '128'
  state_name: Tolmin
  latitude: '46.18304000'
  longitude: '13.73321000'
- name: Trbovlje
  state_code: '129'
  state_name: Trbovlje
  latitude: '46.15500000'
  longitude: '15.05333000'
- name: Trebnje
  state_code: '130'
  state_name: Trebnje
  latitude: '45.90417000'
  longitude: '15.02167000'
- name: Trnovska Vas
  state_code: '185'
  state_name: Trnovska Vas
  latitude: '46.52019000'
  longitude: '15.88657000'
- name: Bistrica pri Tržiču
  state_code: '131'
  state_name: Tržič
  latitude: '46.35472000'
  longitude: '14.29167000'
- name: Tržič
  state_code: '131'
  state_name: Tržič
  latitude: '46.36357000'
  longitude: '14.31046000'
- name: Črnuče District
  state_code: '186'
  state_name: Trzin
  latitude: '46.11506000'
  longitude: '14.55371000'
- name: Trzin
  state_code: '186'
  state_name: Trzin
  latitude: '46.13333000'
  longitude: '14.56667000'
- name: Turnišče
  state_code: '132'
  state_name: Turnišče
  latitude: '46.62778000'
  longitude: '16.32028000'
- name: Velika Polana
  state_code: '187'
  state_name: Velika Polana
  latitude: '46.57194000'
  longitude: '16.34694000'
- name: Velike Lašče
  state_code: '134'
  state_name: Velike Lašče
  latitude: '45.83222000'
  longitude: '14.63639000'
- name: Veržej
  state_code: '188'
  state_name: Veržej
  latitude: '46.58361000'
  longitude: '16.16528000'
- name: Videm pri Ptuju
  state_code: '135'
  state_name: Videm
  latitude: '46.36861000'
  longitude: '15.90639000'
- name: Vipava
  state_code: '136'
  state_name: Vipava
  latitude: '45.84667000'
  longitude: '13.96306000'
- name: Vitanje
  state_code: '137'
  state_name: Vitanje
  latitude: '46.38167000'
  longitude: '15.29583000'
- name: Vodice
  state_code: '138'
  state_name: Vodice
  latitude: '46.18987000'
  longitude: '14.49492000'
- name: Vojnik
  state_code: '139'
  state_name: Vojnik
  latitude: '46.29333000'
  longitude: '15.30333000'
- name: Vransko
  state_code: '189'
  state_name: Vransko
  latitude: '46.24389000'
  longitude: '14.95139000'
- name: Verd
  state_code: '140'
  state_name: Vrhnika
  latitude: '45.95667000'
  longitude: '14.30583000'
- name: Vrhnika
  state_code: '140'
  state_name: Vrhnika
  latitude: '45.96350000'
  longitude: '14.29484000'
- name: Vuzenica
  state_code: '141'
  state_name: Vuzenica
  latitude: '46.59639000'
  longitude: '15.16722000'
- name: Izlake
  state_code: '142'
  state_name: Zagorje ob Savi
  latitude: '46.15000000'
  longitude: '14.95000000'
- name: Kisovec
  state_code: '142'
  state_name: Zagorje ob Savi
  latitude: '46.13911000'
  longitude: '14.96295000'
- name: Zagorje ob Savi
  state_code: '142'
  state_name: Zagorje ob Savi
  latitude: '46.13179000'
  longitude: '14.99694000'
- name: Gotovlje
  state_code: '190'
  state_name: Žalec
  latitude: '46.27418000'
  longitude: '15.15186000'
- name: Šempeter v Savinj. Dolini
  state_code: '190'
  state_name: Žalec
  latitude: '46.25639000'
  longitude: '15.12194000'
- name: Zabukovica
  state_code: '190'
  state_name: Žalec
  latitude: '46.21408000'
  longitude: '15.15954000'
- name: Žalec
  state_code: '190'
  state_name: Žalec
  latitude: '46.25151000'
  longitude: '15.16482000'
- name: Zavrč
  state_code: '143'
  state_name: Zavrč
  latitude: '46.39167000'
  longitude: '16.04972000'
- name: Železniki
  state_code: '146'
  state_name: Železniki
  latitude: '46.22482000'
  longitude: '14.17205000'
- name: Žetale
  state_code: '191'
  state_name: Žetale
  latitude: '46.27356000'
  longitude: '15.82658000'
- name: Žiri
  state_code: '147'
  state_name: Žiri
  latitude: '46.04222000'
  longitude: '14.10722000'
- name: Žirovnica
  state_code: '192'
  state_name: Žirovnica
  latitude: '46.40472000'
  longitude: '14.14000000'
- name: Zreče
  state_code: '144'
  state_name: Zreče
  latitude: '46.38222000'
  longitude: '15.37917000'
- name: Žužemberk
  state_code: '193'
  state_name: Žužemberk
  latitude: '45.83389000'
  longitude: '14.92917000'
