---
- name: Acquaviva
  state_code: '01'
  state_name: Acquaviva
  latitude: '43.94593000'
  longitude: '12.41850000'
- name: Borgo Maggiore
  state_code: '06'
  state_name: Borgo Maggiore
  latitude: '43.94193000'
  longitude: '12.44738000'
- name: Poggio di Chiesanuova
  state_code: '02'
  state_name: Chiesanuova
  latitude: '43.90451000'
  longitude: '12.42142000'
- name: Domagnano
  state_code: '03'
  state_name: Domagnano
  latitude: '43.94961000'
  longitude: '12.46828000'
- name: Faetano
  state_code: '04'
  state_name: Faetano
  latitude: '43.92831000'
  longitude: '12.49798000'
- name: Fiorentino
  state_code: '05'
  state_name: Fiorentino
  latitude: '43.91001000'
  longitude: '12.45738000'
- name: Monte Giardino
  state_code: '08'
  state_name: Montegiardino
  latitude: '43.90878000'
  longitude: '12.48201000'
- name: San Marino
  state_code: '07'
  state_name: San Marino
  latitude: '43.93667000'
  longitude: '12.44639000'
- name: Serravalle
  state_code: '09'
  state_name: Serravalle
  latitude: '43.96897000'
  longitude: '12.48167000'
