---
- name: Dakar
  state_code: DK
  state_name: Dakar
  latitude: '14.69370000'
  longitude: "-17.44406000"
- name: Dakar Department
  state_code: DK
  state_name: Dakar
  latitude: '14.71403000'
  longitude: "-17.45534000"
- name: Guédiawaye Department
  state_code: DK
  state_name: Dakar
  latitude: '14.77610000'
  longitude: "-17.39560000"
- name: Mermoz Boabab
  state_code: DK
  state_name: Dakar
  latitude: '14.70649000'
  longitude: "-17.47581000"
- name: N’diareme limamoulaye
  state_code: DK
  state_name: Dakar
  latitude: '14.78148000'
  longitude: "-17.38410000"
- name: Pikine
  state_code: DK
  state_name: Dakar
  latitude: '14.76457000'
  longitude: "-17.39071000"
- name: Pikine Department
  state_code: DK
  state_name: Dakar
  latitude: '14.76515000'
  longitude: "-17.35198000"
- name: Rufisque Department
  state_code: DK
  state_name: Dakar
  latitude: '14.74339000'
  longitude: "-17.19841000"
- name: Mbacké
  state_code: DB
  state_name: Diourbel Region
  latitude: '14.80828000'
  longitude: "-15.86454000"
- name: Mbaké
  state_code: DB
  state_name: Diourbel Region
  latitude: '14.79032000'
  longitude: "-15.90803000"
- name: Tiébo
  state_code: DB
  state_name: Diourbel Region
  latitude: '14.63333000'
  longitude: "-16.23333000"
- name: Touba
  state_code: DB
  state_name: Diourbel Region
  latitude: '14.85000000'
  longitude: "-15.88333000"
- name: Diofior
  state_code: FK
  state_name: Fatick
  latitude: '14.18333000'
  longitude: "-16.66667000"
- name: Fatick Department
  state_code: FK
  state_name: Fatick
  latitude: '14.25909000'
  longitude: "-16.49884000"
- name: Foundiougne
  state_code: FK
  state_name: Fatick
  latitude: '14.13333000'
  longitude: "-16.46667000"
- name: Guinguinéo
  state_code: FK
  state_name: Fatick
  latitude: '14.26667000'
  longitude: "-15.95000000"
- name: Passi
  state_code: FK
  state_name: Fatick
  latitude: '13.98333000'
  longitude: "-16.26667000"
- name: Pourham
  state_code: FK
  state_name: Fatick
  latitude: '14.35000000'
  longitude: "-16.41667000"
- name: Sokone
  state_code: FK
  state_name: Fatick
  latitude: '13.88333000'
  longitude: "-16.36667000"
- name: Kaffrine
  state_code: KA
  state_name: Kaffrine
  latitude: '14.10594000'
  longitude: "-15.55080000"
- name: Koungheul
  state_code: KA
  state_name: Kaffrine
  latitude: '13.98333000'
  longitude: "-14.80000000"
- name: Gandiaye
  state_code: KL
  state_name: Kaolack
  latitude: '14.23333000'
  longitude: "-16.26667000"
- name: Kaolack
  state_code: KL
  state_name: Kaolack
  latitude: '14.15197000'
  longitude: "-16.07259000"
- name: Ndofane
  state_code: KL
  state_name: Kaolack
  latitude: '13.91667000'
  longitude: "-15.93333000"
- name: Nioro du Rip
  state_code: KL
  state_name: Kaolack
  latitude: '13.75000000'
  longitude: "-15.80000000"
- name: Département de Salémata
  state_code: KE
  state_name: Kédougou
  latitude: '12.59971000'
  longitude: "-12.77619000"
- name: Kédougou
  state_code: KE
  state_name: Kédougou
  latitude: '12.55561000'
  longitude: "-12.18076000"
- name: Kédougou Department
  state_code: KE
  state_name: Kédougou
  latitude: '12.81716000'
  longitude: "-12.17834000"
- name: Saraya
  state_code: KE
  state_name: Kédougou
  latitude: '13.00150000'
  longitude: "-11.79627000"
- name: Kolda
  state_code: KD
  state_name: Kolda
  latitude: '12.89390000'
  longitude: "-14.94125000"
- name: Kolda Department
  state_code: KD
  state_name: Kolda
  latitude: '12.88300000'
  longitude: "-14.95000000"
- name: Marsassoum
  state_code: KD
  state_name: Kolda
  latitude: '12.82750000'
  longitude: "-15.98056000"
- name: Vélingara
  state_code: KD
  state_name: Kolda
  latitude: '13.15000000'
  longitude: "-14.11667000"
- name: Dara
  state_code: LG
  state_name: Louga
  latitude: '15.34844000'
  longitude: "-15.47993000"
- name: Guéoul
  state_code: LG
  state_name: Louga
  latitude: '15.48333000'
  longitude: "-16.35000000"
- name: Linguere Department
  state_code: LG
  state_name: Louga
  latitude: '15.35900000'
  longitude: "-15.15800000"
- name: Louga
  state_code: LG
  state_name: Louga
  latitude: '15.61867000'
  longitude: "-16.22436000"
- name: Ndibène Dahra
  state_code: LG
  state_name: Louga
  latitude: '15.33380000'
  longitude: "-15.47660000"
- name: Diawara
  state_code: MT
  state_name: Matam
  latitude: '15.02196000'
  longitude: "-12.54374000"
- name: Kanel
  state_code: MT
  state_name: Matam
  latitude: '15.49160000'
  longitude: "-13.17627000"
- name: Matam
  state_code: MT
  state_name: Matam
  latitude: '15.65587000'
  longitude: "-13.25544000"
- name: Matam Department
  state_code: MT
  state_name: Matam
  latitude: '15.73191000'
  longitude: "-13.63393000"
- name: Ouro Sogui
  state_code: MT
  state_name: Matam
  latitude: '15.60588000'
  longitude: "-13.32230000"
- name: Ranérou
  state_code: MT
  state_name: Matam
  latitude: '15.30000000'
  longitude: "-13.96667000"
- name: Sémé
  state_code: MT
  state_name: Matam
  latitude: '15.19422000'
  longitude: "-12.94482000"
- name: Waoundé
  state_code: MT
  state_name: Matam
  latitude: '15.26367000'
  longitude: "-12.86821000"
- name: Goléré
  state_code: SL
  state_name: Saint-Louis
  latitude: '16.25575000'
  longitude: "-14.10165000"
- name: Ndioum
  state_code: SL
  state_name: Saint-Louis
  latitude: '16.51293000'
  longitude: "-14.64706000"
- name: Polel Diaoubé
  state_code: SL
  state_name: Saint-Louis
  latitude: '15.26667000'
  longitude: "-13.00000000"
- name: Richard-Toll
  state_code: SL
  state_name: Saint-Louis
  latitude: '16.46250000'
  longitude: "-15.70083000"
- name: Rosso
  state_code: SL
  state_name: Saint-Louis
  latitude: '16.42028000'
  longitude: "-15.79834000"
- name: Saint-Louis
  state_code: SL
  state_name: Saint-Louis
  latitude: '16.01793000'
  longitude: "-16.48962000"
- name: Goudomp Department
  state_code: SE
  state_name: Sédhiou
  latitude: '12.57778000'
  longitude: "-15.87222000"
- name: Sédhiou
  state_code: SE
  state_name: Sédhiou
  latitude: '12.70806000'
  longitude: "-15.55694000"
- name: Tambacounda
  state_code: TC
  state_name: Tambacounda Region
  latitude: '13.77073000'
  longitude: "-13.66734000"
- name: Tambacounda Department
  state_code: TC
  state_name: Tambacounda Region
  latitude: '13.60500000'
  longitude: "-13.64700000"
- name: Joal-Fadiout
  state_code: TH
  state_name: Thiès Region
  latitude: '14.16667000'
  longitude: "-16.83333000"
- name: Kayar
  state_code: TH
  state_name: Thiès Region
  latitude: '14.91893000'
  longitude: "-17.11978000"
- name: Khombole
  state_code: TH
  state_name: Thiès Region
  latitude: '14.76667000'
  longitude: "-16.70000000"
- name: Mbour
  state_code: TH
  state_name: Thiès Region
  latitude: '14.40569000'
  longitude: "-16.85559000"
- name: Mékhé
  state_code: TH
  state_name: Thiès Region
  latitude: '15.10970000'
  longitude: "-16.62180000"
- name: Nguékhokh
  state_code: TH
  state_name: Thiès Region
  latitude: '14.51255000'
  longitude: "-17.00447000"
- name: Pout
  state_code: TH
  state_name: Thiès Region
  latitude: '14.77099000'
  longitude: "-17.06107000"
- name: Thiès
  state_code: TH
  state_name: Thiès Region
  latitude: '14.73004000'
  longitude: "-16.86974000"
- name: Thiès Nones
  state_code: TH
  state_name: Thiès Region
  latitude: '14.78333000'
  longitude: "-16.96667000"
- name: Tiadiaye
  state_code: TH
  state_name: Thiès Region
  latitude: '14.41667000'
  longitude: "-16.70000000"
- name: Tivaouane
  state_code: TH
  state_name: Thiès Region
  latitude: '15.08519000'
  longitude: "-16.71058000"
- name: Warang
  state_code: TH
  state_name: Thiès Region
  latitude: '14.37349000'
  longitude: "-16.94366000"
- name: Adéane
  state_code: ZG
  state_name: Ziguinchor
  latitude: '12.63000000'
  longitude: "-16.01694000"
- name: Bignona
  state_code: ZG
  state_name: Ziguinchor
  latitude: '12.81028000'
  longitude: "-16.22639000"
- name: Oussouye
  state_code: ZG
  state_name: Ziguinchor
  latitude: '12.48500000'
  longitude: "-16.54694000"
- name: Tionk Essil
  state_code: ZG
  state_name: Ziguinchor
  latitude: '12.78556000'
  longitude: "-16.52167000"
- name: Ziguinchor
  state_code: ZG
  state_name: Ziguinchor
  latitude: '12.56801000'
  longitude: "-16.27326000"
