---
- id: 104837
  name: Santo António
  state_id: 270
  state_code: P
  state_name: Príncipe
  country_id: 193
  country_code: ST
  country_name: Sao Tome and Principe
  latitude: '1.63943000'
  longitude: '7.41951000'
  wikiDataId: Q973656
- id: 104835
  name: Cantagalo District
  state_id: 271
  state_code: S
  state_name: São Tomé
  country_id: 193
  country_code: ST
  country_name: Sao Tome and Principe
  latitude: '0.21667000'
  longitude: '6.70000000'
  wikiDataId: Q1033696
- id: 104836
  name: Caué District
  state_id: 271
  state_code: S
  state_name: São Tomé
  country_id: 193
  country_code: ST
  country_name: Sao Tome and Principe
  latitude: '0.13415000'
  longitude: '6.63825000'
  wikiDataId: Q1033696
- id: 104838
  name: São Tomé
  state_id: 271
  state_code: S
  state_name: São Tomé
  country_id: 193
  country_code: ST
  country_name: Sao Tome and Principe
  latitude: '0.33654000'
  longitude: '6.72732000'
  wikiDataId: Q3932
- id: 104839
  name: Trindade
  state_id: 271
  state_code: S
  state_name: São Tomé
  country_id: 193
  country_code: ST
  country_name: Sao Tome and Principe
  latitude: '0.29667000'
  longitude: '6.68139000'
  wikiDataId: Q1635802
