---
- name: Moussoro
  state_code: BG
  state_name: Bahr el Gazel
  latitude: '13.64143000'
  longitude: '16.48941000'
- name: Ati
  state_code: BA
  state_name: Batha
  latitude: '13.21540000'
  longitude: '18.33530000'
- name: Oum Hadjer
  state_code: BA
  state_name: Batha
  latitude: '13.29540000'
  longitude: '19.69660000'
- name: Faya-Largeau
  state_code: BO
  state_name: Borkou
  latitude: '17.92570000'
  longitude: '19.10428000'
- name: Baguirmi Department
  state_code: CB
  state_name: Chari-Baguirmi
  latitude: '11.39833333'
  longitude: '16.16750000'
- name: Bousso
  state_code: CB
  state_name: Chari-Baguirmi
  latitude: '10.48250000'
  longitude: '16.71611111'
- name: Chari Department
  state_code: CB
  state_name: Chari-Baguirmi
  latitude: '12.05000000'
  longitude: '15.30000000'
- name: Dababa
  state_code: CB
  state_name: Chari-Baguirmi
  latitude: '12.38000000'
  longitude: '17.06000000'
- name: Gaoui
  state_code: CB
  state_name: Chari-Baguirmi
  latitude: '12.18070000'
  longitude: '15.14760000'
- name: Linia
  state_code: CB
  state_name: Chari-Baguirmi
  latitude: '12.05000000'
  longitude: '15.30000000'
- name: Mandjafa
  state_code: CB
  state_name: Chari-Baguirmi
  latitude: '11.19861111'
  longitude: '15.36111111'
- name: Massenya
  state_code: CB
  state_name: Chari-Baguirmi
  latitude: '11.40277778'
  longitude: '16.17000000'
- name: Fada
  state_code: EO
  state_name: Ennedi-Ouest
  latitude: '17.18535000'
  longitude: '21.58114000'
- name: Bitkine
  state_code: GR
  state_name: Guéra
  latitude: '11.98010000'
  longitude: '18.21380000'
- name: Melfi
  state_code: GR
  state_name: Guéra
  latitude: '11.05980000'
  longitude: '17.93550000'
- name: Mongo
  state_code: GR
  state_name: Guéra
  latitude: '12.18441000'
  longitude: '18.69303000'
- name: Bokoro
  state_code: HL
  state_name: Hadjer-Lamis
  latitude: '12.37813000'
  longitude: '17.05876000'
- name: Massaguet
  state_code: HL
  state_name: Hadjer-Lamis
  latitude: '12.47554000'
  longitude: '15.43647000'
- name: Massakory
  state_code: HL
  state_name: Hadjer-Lamis
  latitude: '12.99600000'
  longitude: '15.72927000'
- name: Mao
  state_code: KA
  state_name: Kanem
  latitude: '14.12116000'
  longitude: '15.31030000'
- name: Bol
  state_code: LC
  state_name: Lac
  latitude: '13.46706000'
  longitude: '14.71363000'
- name: Beïnamar
  state_code: LO
  state_name: Logone Occidental
  latitude: '8.66980000'
  longitude: '15.38130000'
- name: Benoy
  state_code: LO
  state_name: Logone Occidental
  latitude: '8.98327000'
  longitude: '16.31991000'
- name: Lac Wey
  state_code: LO
  state_name: Logone Occidental
  latitude: '8.70502000'
  longitude: '15.98303000'
- name: Moundou
  state_code: LO
  state_name: Logone Occidental
  latitude: '8.56667000'
  longitude: '16.08333000'
- name: Bébédja
  state_code: LR
  state_name: Logone Oriental
  latitude: '8.67610000'
  longitude: '16.56600000'
- name: Béboto
  state_code: LR
  state_name: Logone Oriental
  latitude: '8.26681000'
  longitude: '16.93898000'
- name: Doba
  state_code: LR
  state_name: Logone Oriental
  latitude: '8.65000000'
  longitude: '16.85000000'
- name: Goundi
  state_code: MA
  state_name: Mandoul
  latitude: '9.36267000'
  longitude: '17.36597000'
- name: Koumra
  state_code: MA
  state_name: Mandoul
  latitude: '8.91256000'
  longitude: '17.55392000'
- name: Moïssala
  state_code: MA
  state_name: Mandoul
  latitude: '8.34040000'
  longitude: '17.76630000'
- name: Bongor
  state_code: ME
  state_name: Mayo-Kebbi Est
  latitude: '10.28056000'
  longitude: '15.37222000'
- name: Gounou Gaya
  state_code: ME
  state_name: Mayo-Kebbi Est
  latitude: '9.62940000'
  longitude: '15.51320000'
- name: Guelendeng
  state_code: ME
  state_name: Mayo-Kebbi Est
  latitude: '10.91762000'
  longitude: '15.55011000'
- name: Mboursou Léré
  state_code: MO
  state_name: Mayo-Kebbi Ouest
  latitude: '9.76390000'
  longitude: '14.15390000'
- name: Pala
  state_code: MO
  state_name: Mayo-Kebbi Ouest
  latitude: '9.36420000'
  longitude: '14.90460000'
- name: Kyabé
  state_code: MC
  state_name: Moyen-Chari
  latitude: '9.45149000'
  longitude: '18.94493000'
- name: Sarh
  state_code: MC
  state_name: Moyen-Chari
  latitude: '9.14290000'
  longitude: '18.39230000'
- name: N'Djamena
  state_code: ND
  state_name: N'Djamena
  latitude: '12.11000000'
  longitude: '15.05000000'
- name: Abéché
  state_code: OD
  state_name: Ouaddaï
  latitude: '13.82916000'
  longitude: '20.83240000'
- name: Adré
  state_code: OD
  state_name: Ouaddaï
  latitude: '13.46648000'
  longitude: '22.19875000'
- name: Goz Béïda
  state_code: OD
  state_name: Ouaddaï
  latitude: '13.94563000'
  longitude: '20.54680000'
- name: Am Timan
  state_code: SA
  state_name: Salamat
  latitude: '11.02970000'
  longitude: '20.28270000'
- name: Goz Beïda
  state_code: SI
  state_name: Sila
  latitude: '12.22484000'
  longitude: '21.41034000'
- name: Béré
  state_code: TA
  state_name: Tandjilé
  latitude: '9.32020000'
  longitude: '16.15520000'
- name: Kelo
  state_code: TA
  state_name: Tandjilé
  latitude: '9.30859000'
  longitude: '15.80658000'
- name: Laï
  state_code: TA
  state_name: Tandjilé
  latitude: '9.39720000'
  longitude: '16.30066000'
- name: Aozou
  state_code: TI
  state_name: Tibesti
  latitude: '21.83750000'
  longitude: '17.42750000'
- name: Biltine
  state_code: WF
  state_name: Wadi Fira
  latitude: '14.52791000'
  longitude: '20.92749000'
- name: Iriba
  state_code: WF
  state_name: Wadi Fira
  latitude: '15.11667000'
  longitude: '22.25000000'
