---
- name: Pangai
  state_code: '02'
  state_name: Haʻapai
  latitude: "-19.81468000"
  longitude: "-174.35423000"
- name: "‘Ohonua"
  state_code: '01'
  state_name: ʻEua
  latitude: "-21.33333000"
  longitude: "-174.95000000"
- name: Hihifo
  state_code: '03'
  state_name: Niuas
  latitude: "-15.95440000"
  longitude: "-173.79616000"
- name: Haveluloto
  state_code: '04'
  state_name: Tongatapu
  latitude: "-21.15216000"
  longitude: "-175.21333000"
- name: Kolonga
  state_code: '04'
  state_name: Tongatapu
  latitude: "-21.13333000"
  longitude: "-175.06667000"
- name: Nuku‘alofa
  state_code: '04'
  state_name: Tongatapu
  latitude: "-21.13938000"
  longitude: "-175.20180000"
- name: Vaini
  state_code: '04'
  state_name: Tongatapu
  latitude: "-21.19292000"
  longitude: "-175.17678000"
- name: Neiafu
  state_code: '05'
  state_name: Vavaʻu
  latitude: "-18.65060000"
  longitude: "-173.98404000"
