---
- name: Lakatoro
  state_code: MAP
  state_name: Malampa
  latitude: "-16.09992000"
  longitude: '167.41636000'
- name: Norsup
  state_code: MAP
  state_name: Malampa
  latitude: "-16.06536000"
  longitude: '167.39714000'
- name: Luganville
  state_code: SAM
  state_name: Sanma
  latitude: "-15.51989000"
  longitude: '167.16235000'
- name: Port-Olry
  state_code: SAM
  state_name: Sanma
  latitude: "-15.04175000"
  longitude: '167.07265000'
- name: Port-Vila
  state_code: SEE
  state_name: Shefa
  latitude: "-17.73648000"
  longitude: '168.31366000'
- name: Isangel
  state_code: TAE
  state_name: Tafea
  latitude: "-19.54167000"
  longitude: '169.28167000'
- name: Sola
  state_code: TOB
  state_name: Torba
  latitude: "-13.87611000"
  longitude: '167.55167000'
