---
- id: 3196
  name: Bubanza
  country_id: 36
  country_code: BI
  country_name: Burundi
  state_code: BB
  type: province
  latitude: "-3.15724030"
  longitude: '29.37149090'
- id: 3198
  name: Bujumbura Mairie
  country_id: 36
  country_code: BI
  country_name: Burundi
  state_code: BM
  type: province
  latitude: "-3.38841410"
  longitude: '29.34826460'
- id: 3200
  name: Bujumbura Rural
  country_id: 36
  country_code: BI
  country_name: Burundi
  state_code: BL
  type: province
  latitude: "-3.50901440"
  longitude: '29.46435900'
- id: 3202
  name: Bururi
  country_id: 36
  country_code: BI
  country_name: Burundi
  state_code: BR
  type: province
  latitude: "-3.90068510"
  longitude: '29.51077080'
- id: 3201
  name: Cankuzo
  country_id: 36
  country_code: BI
  country_name: Burundi
  state_code: CA
  type: province
  latitude: "-3.15277880"
  longitude: '30.61998950'
- id: 3190
  name: Cibitoke
  country_id: 36
  country_code: BI
  country_name: Burundi
  state_code: CI
  type: province
  latitude: "-2.81028970"
  longitude: '29.18557850'
- id: 3197
  name: Gitega
  country_id: 36
  country_code: BI
  country_name: Burundi
  state_code: GI
  type: province
  latitude: "-3.49290510"
  longitude: '29.92779470'
- id: 3194
  name: Karuzi
  country_id: 36
  country_code: BI
  country_name: Burundi
  state_code: KR
  type: province
  latitude: "-3.13403470"
  longitude: '30.11273500'
- id: 3192
  name: Kayanza
  country_id: 36
  country_code: BI
  country_name: Burundi
  state_code: KY
  type: province
  latitude: "-3.00779810"
  longitude: '29.64991620'
- id: 3195
  name: Kirundo
  country_id: 36
  country_code: BI
  country_name: Burundi
  state_code: KI
  type: province
  latitude: "-2.57628820"
  longitude: '30.11273500'
- id: 3188
  name: Makamba
  country_id: 36
  country_code: BI
  country_name: Burundi
  state_code: MA
  type: province
  latitude: "-4.32570620"
  longitude: '29.69626770'
- id: 3193
  name: Muramvya
  country_id: 36
  country_code: BI
  country_name: Burundi
  state_code: MU
  type: province
  latitude: "-3.28983980"
  longitude: '29.64991620'
- id: 3186
  name: Muyinga
  country_id: 36
  country_code: BI
  country_name: Burundi
  state_code: MY
  type: province
  latitude: "-2.77935110"
  longitude: '30.29741990'
- id: 3187
  name: Mwaro
  country_id: 36
  country_code: BI
  country_name: Burundi
  state_code: MW
  type: province
  latitude: "-3.50259180"
  longitude: '29.64991620'
- id: 3199
  name: Ngozi
  country_id: 36
  country_code: BI
  country_name: Burundi
  state_code: NG
  type: province
  latitude: "-2.89582430"
  longitude: '29.88152030'
- id: 3185
  name: Rumonge
  country_id: 36
  country_code: BI
  country_name: Burundi
  state_code: RM
  type: province
  latitude: "-3.97540490"
  longitude: '29.43880140'
- id: 3189
  name: Rutana
  country_id: 36
  country_code: BI
  country_name: Burundi
  state_code: RT
  type: province
  latitude: "-3.87915230"
  longitude: '30.06652360'
- id: 3191
  name: Ruyigi
  country_id: 36
  country_code: BI
  country_name: Burundi
  state_code: RY
  type: province
  latitude: "-3.44620700"
  longitude: '30.25127280'
