---
- id: 3077
  name: Alibori
  country_id: 24
  country_code: BJ
  country_name: Benin
  state_code: AL
  type: department
  latitude: '10.96810930'
  longitude: '2.77798130'
- id: 3076
  name: Atakora
  country_id: 24
  country_code: BJ
  country_name: Benin
  state_code: AK
  type: department
  latitude: '10.79549310'
  longitude: '1.67606910'
- id: 3079
  name: Atlantique
  country_id: 24
  country_code: BJ
  country_name: Benin
  state_code: AQ
  type: department
  latitude: '6.65883910'
  longitude: '2.22366670'
- id: 3078
  name: Borgou
  country_id: 24
  country_code: BJ
  country_name: Benin
  state_code: BO
  type: department
  latitude: '9.53408640'
  longitude: '2.77798130'
- id: 3070
  name: Collines
  country_id: 24
  country_code: BJ
  country_name: Benin
  state_code: CO
  type: department
  latitude: '8.30222970'
  longitude: '2.30244600'
- id: 3072
  name: Donga
  country_id: 24
  country_code: BJ
  country_name: Benin
  state_code: DO
  type: department
  latitude: '9.71918670'
  longitude: '1.67606910'
- id: 3071
  name: Kouffo
  country_id: 24
  country_code: BJ
  country_name: Benin
  state_code: KO
  type: department
  latitude: '7.00358940'
  longitude: '1.75388170'
- id: 3081
  name: Littoral
  country_id: 24
  country_code: BJ
  country_name: Benin
  state_code: LI
  type: department
  latitude: '6.38069730'
  longitude: '2.44063870'
- id: 3075
  name: Mono
  country_id: 24
  country_code: BJ
  country_name: Benin
  state_code: MO
  type: department
  latitude: '37.92186080'
  longitude: "-118.95286450"
- id: 3080
  name: Ouémé
  country_id: 24
  country_code: BJ
  country_name: Benin
  state_code: OU
  type: department
  latitude: '6.61481520'
  longitude: '2.49999180'
- id: 3074
  name: Plateau
  country_id: 24
  country_code: BJ
  country_name: Benin
  state_code: PL
  type: department
  latitude: '7.34451410'
  longitude: '2.53960300'
- id: 3073
  name: Zou
  country_id: 24
  country_code: BJ
  country_name: Benin
  state_code: ZO
  type: department
  latitude: '7.34692680'
  longitude: '2.06651970'
