---
- id: 2959
  name: Brest
  country_id: 21
  country_code: BY
  country_name: Belarus
  state_code: BR
  type: oblast
  latitude: '52.52966410'
  longitude: '25.46064800'
- id: 2955
  name: Gomel
  country_id: 21
  country_code: BY
  country_name: Belarus
  state_code: HO
  type: oblast
  latitude: '52.16487540'
  longitude: '29.13332510'
- id: 2956
  name: Grodno
  country_id: 21
  country_code: BY
  country_name: Belarus
  state_code: HR
  type: oblast
  latitude: '53.65999450'
  longitude: '25.34485710'
- id: 2957
  name: Minsk
  country_id: 21
  country_code: BY
  country_name: Belarus
  state_code: MI
  type: oblast
  latitude: '54.10678890'
  longitude: '27.41292450'
- id: 2958
  name: Minsk
  country_id: 21
  country_code: BY
  country_name: Belarus
  state_code: HM
  type: city
  latitude: '53.90060110'
  longitude: '27.55897200'
- id: 2954
  name: Mogilev
  country_id: 21
  country_code: BY
  country_name: Belarus
  state_code: MA
  type: oblast
  latitude: '53.51017910'
  longitude: '30.40064440'
- id: 2960
  name: Vitebsk
  country_id: 21
  country_code: BY
  country_name: Belarus
  state_code: VI
  type: oblast
  latitude: '55.29598330'
  longitude: '28.75836270'
