---
- id: 1215
  name: Alajuela
  country_id: 53
  country_code: CR
  country_name: Costa Rica
  state_code: A
  type: province
  latitude: '10.39158300'
  longitude: "-84.43827210"
- id: 1211
  name: Cartago
  country_id: 53
  country_code: CR
  country_name: Costa Rica
  state_code: C
  type: province
  latitude: '9.86223110'
  longitude: "-83.92141870"
- id: 1209
  name: Guanacaste
  country_id: 53
  country_code: CR
  country_name: Costa Rica
  state_code: G
  type: province
  latitude: '10.62673990'
  longitude: "-85.44367060"
- id: 1212
  name: Heredia
  country_id: 53
  country_code: CR
  country_name: Costa Rica
  state_code: H
  type: province
  latitude: '10.47352300'
  longitude: "-84.01674230"
- id: 1213
  name: Limón
  country_id: 53
  country_code: CR
  country_name: Costa Rica
  state_code: L
  type: province
  latitude: '9.98963980'
  longitude: "-83.03324170"
- id: 1210
  name: Puntarenas
  country_id: 53
  country_code: CR
  country_name: Costa Rica
  state_code: P
  type: province
  latitude: '9.21695310'
  longitude: "-83.33618800"
- id: 1214
  name: San José
  country_id: 53
  country_code: CR
  country_name: Costa Rica
  state_code: SJ
  type: province
  latitude: '9.91297270'
  longitude: "-84.07682940"
