---
- id: 2672
  name: Beyla
  country_id: 92
  country_code: GN
  country_name: Guinea
  state_code: BE
  type: prefecture
  latitude: '8.91981780'
  longitude: "-8.30884410"
- id: 2699
  name: Boffa
  country_id: 92
  country_code: GN
  country_name: Guinea
  state_code: BF
  type: prefecture
  latitude: '10.18082540'
  longitude: "-14.03916150"
- id: 2676
  name: Boké
  country_id: 92
  country_code: GN
  country_name: Guinea
  state_code: B
  type: administrative region
  latitude: '11.18646720'
  longitude: "-14.10013260"
- id: 2709
  name: Boké
  country_id: 92
  country_code: GN
  country_name: Guinea
  state_code: BK
  type: prefecture
  latitude: '11.08473790'
  longitude: "-14.37919120"
- id: 2686
  name: Conakry
  country_id: 92
  country_code: GN
  country_name: Guinea
  state_code: C
  type: governorate
  latitude: '9.64118550'
  longitude: "-13.57840120"
- id: 2705
  name: Coyah
  country_id: 92
  country_code: GN
  country_name: Guinea
  state_code: CO
  type: prefecture
  latitude: '9.77155350'
  longitude: "-13.31252990"
- id: 2679
  name: Dabola
  country_id: 92
  country_code: GN
  country_name: Guinea
  state_code: DB
  type: prefecture
  latitude: '10.72978060'
  longitude: "-11.11078540"
- id: 2706
  name: Dalaba
  country_id: 92
  country_code: GN
  country_name: Guinea
  state_code: DL
  type: prefecture
  latitude: '10.68681760'
  longitude: "-12.24906970"
- id: 2688
  name: Dinguiraye
  country_id: 92
  country_code: GN
  country_name: Guinea
  state_code: DI
  type: prefecture
  latitude: '11.68442220'
  longitude: "-10.80000510"
- id: 2681
  name: Dubréka
  country_id: 92
  country_code: GN
  country_name: Guinea
  state_code: DU
  type: prefecture
  latitude: '9.79073480'
  longitude: "-13.51477350"
- id: 5344
  name: Faranah
  country_id: 92
  country_code: GN
  country_name: Guinea
  state_code: F
  type: administrative region
  latitude: '10.54730350'
  longitude: "-11.85076440"
- id: 2682
  name: Faranah
  country_id: 92
  country_code: GN
  country_name: Guinea
  state_code: FA
  type: prefecture
  latitude: '9.90573990'
  longitude: "-10.80000510"
- id: 2683
  name: Forécariah
  country_id: 92
  country_code: GN
  country_name: Guinea
  state_code: FO
  type: prefecture
  latitude: '9.38861870'
  longitude: "-13.08179030"
- id: 2675
  name: Fria
  country_id: 92
  country_code: GN
  country_name: Guinea
  state_code: FR
  type: prefecture
  latitude: '10.36745430'
  longitude: "-13.58418710"
- id: 2685
  name: Gaoual
  country_id: 92
  country_code: GN
  country_name: Guinea
  state_code: GA
  type: prefecture
  latitude: '11.57628040'
  longitude: "-13.35872880"
- id: 2711
  name: Guéckédou
  country_id: 92
  country_code: GN
  country_name: Guinea
  state_code: GU
  type: prefecture
  latitude: '8.56496880'
  longitude: "-10.13111630"
- id: 2704
  name: Kankan
  country_id: 92
  country_code: GN
  country_name: Guinea
  state_code: KA
  type: prefecture
  latitude: '10.30344650'
  longitude: "-9.36730840"
- id: 2697
  name: Kankan
  country_id: 92
  country_code: GN
  country_name: Guinea
  state_code: K
  type: administrative region
  latitude: '10.12092300'
  longitude: "-9.54509740"
- id: 2710
  name: Kérouané
  country_id: 92
  country_code: GN
  country_name: Guinea
  state_code: KE
  type: prefecture
  latitude: '9.25366430'
  longitude: "-9.01289260"
- id: 2701
  name: Kindia
  country_id: 92
  country_code: GN
  country_name: Guinea
  state_code: D
  type: administrative region
  latitude: '10.17816940'
  longitude: "-12.98961500"
- id: 2693
  name: Kindia
  country_id: 92
  country_code: GN
  country_name: Guinea
  state_code: KD
  type: prefecture
  latitude: '10.10132920'
  longitude: "-12.71351210"
- id: 2691
  name: Kissidougou
  country_id: 92
  country_code: GN
  country_name: Guinea
  state_code: KS
  type: prefecture
  latitude: '9.22520220'
  longitude: "-10.08072980"
- id: 2692
  name: Koubia
  country_id: 92
  country_code: GN
  country_name: Guinea
  state_code: KB
  type: prefecture
  latitude: '11.58235400'
  longitude: "-11.89202370"
- id: 2703
  name: Koundara
  country_id: 92
  country_code: GN
  country_name: Guinea
  state_code: KN
  type: prefecture
  latitude: '12.48940210'
  longitude: "-13.30675620"
- id: 2695
  name: Kouroussa
  country_id: 92
  country_code: GN
  country_name: Guinea
  state_code: KO
  type: prefecture
  latitude: '10.64892290'
  longitude: "-9.88505860"
- id: 2680
  name: Labé
  country_id: 92
  country_code: GN
  country_name: Guinea
  state_code: LA
  type: prefecture
  latitude: '11.35419390'
  longitude: "-12.34638750"
- id: 2677
  name: Labé
  country_id: 92
  country_code: GN
  country_name: Guinea
  state_code: L
  type: administrative region
  latitude: '11.32320420'
  longitude: "-12.28913140"
- id: 2690
  name: Lélouma
  country_id: 92
  country_code: GN
  country_name: Guinea
  state_code: LE
  type: prefecture
  latitude: '11.18333300'
  longitude: "-12.93333300"
- id: 2708
  name: Lola
  country_id: 92
  country_code: GN
  country_name: Guinea
  state_code: LO
  type: prefecture
  latitude: '7.96138180'
  longitude: "-8.39649380"
- id: 2702
  name: Macenta
  country_id: 92
  country_code: GN
  country_name: Guinea
  state_code: MC
  type: prefecture
  latitude: '8.46157950'
  longitude: "-9.27855830"
- id: 2700
  name: Mali
  country_id: 92
  country_code: GN
  country_name: Guinea
  state_code: ML
  type: prefecture
  latitude: '11.98370900'
  longitude: "-12.25479190"
- id: 2698
  name: Mamou
  country_id: 92
  country_code: GN
  country_name: Guinea
  state_code: M
  type: administrative region
  latitude: '10.57360240'
  longitude: "-11.88917210"
- id: 2689
  name: Mamou
  country_id: 92
  country_code: GN
  country_name: Guinea
  state_code: MM
  type: prefecture
  latitude: '10.57360240'
  longitude: "-11.88917210"
- id: 2673
  name: Mandiana
  country_id: 92
  country_code: GN
  country_name: Guinea
  state_code: MD
  type: prefecture
  latitude: '10.61728270'
  longitude: "-8.69857160"
- id: 2684
  name: Nzérékoré
  country_id: 92
  country_code: GN
  country_name: Guinea
  state_code: "N"
  type: administrative region
  latitude: '8.03858700'
  longitude: "-8.83627550"
- id: 2678
  name: Nzérékoré
  country_id: 92
  country_code: GN
  country_name: Guinea
  state_code: NZ
  type: prefecture
  latitude: '7.74783590'
  longitude: "-8.82525020"
- id: 2694
  name: Pita
  country_id: 92
  country_code: GN
  country_name: Guinea
  state_code: PI
  type: prefecture
  latitude: '10.80620860'
  longitude: "-12.71351210"
- id: 2707
  name: Siguiri
  country_id: 92
  country_code: GN
  country_name: Guinea
  state_code: SI
  type: prefecture
  latitude: '11.41481130'
  longitude: "-9.17883040"
- id: 2687
  name: Télimélé
  country_id: 92
  country_code: GN
  country_name: Guinea
  state_code: TE
  type: prefecture
  latitude: '10.90893640'
  longitude: "-13.02993310"
- id: 2696
  name: Tougué
  country_id: 92
  country_code: GN
  country_name: Guinea
  state_code: TO
  type: prefecture
  latitude: '11.38415830'
  longitude: "-11.61577730"
- id: 2674
  name: Yomou
  country_id: 92
  country_code: GN
  country_name: Guinea
  state_code: YO
  type: prefecture
  latitude: '7.56962790'
  longitude: "-9.25915710"
