---
- id: 998
  name: Batken
  country_id: 118
  country_code: KG
  country_name: Kyrgyzstan
  state_code: B
  type: region
  latitude: '39.97214250'
  longitude: '69.85974060'
- id: 1001
  name: Bishkek
  country_id: 118
  country_code: KG
  country_name: Kyrgyzstan
  state_code: GB
  type: city
  latitude: '42.87462120'
  longitude: '74.56976170'
- id: 1004
  name: Chuy
  country_id: 118
  country_code: KG
  country_name: Kyrgyzstan
  state_code: C
  type: region
  latitude: '42.56550000'
  longitude: '74.40566120'
- id: 1002
  name: Issyk-Kul
  country_id: 118
  country_code: KG
  country_name: Kyrgyzstan
  state_code: "Y"
  type: region
  latitude: '42.18594280'
  longitude: '77.56194190'
- id: 1000
  name: Jalal-Abad
  country_id: 118
  country_code: KG
  country_name: Kyrgyzstan
  state_code: J
  type: region
  latitude: '41.10680800'
  longitude: '72.89880690'
- id: 999
  name: Naryn
  country_id: 118
  country_code: KG
  country_name: Kyrgyzstan
  state_code: "N"
  type: region
  latitude: '41.29432270'
  longitude: '75.34121790'
- id: 1003
  name: Osh
  country_id: 118
  country_code: KG
  country_name: Kyrgyzstan
  state_code: GO
  type: city
  latitude: '36.06313990'
  longitude: "-95.91828950"
- id: 1005
  name: Osh
  country_id: 118
  country_code: KG
  country_name: Kyrgyzstan
  state_code: O
  type: region
  latitude: '39.84073660'
  longitude: '72.89880690'
- id: 997
  name: Talas
  country_id: 118
  country_code: KG
  country_name: Kyrgyzstan
  state_code: T
  type: region
  latitude: '42.28673390'
  longitude: '72.52048270'
