---
- id: 1561
  name: Akmenė
  country_id: 126
  country_code: LT
  country_name: Lithuania
  state_code: '01'
  type: district municipality
  latitude: '56.24550290'
  longitude: '22.74711690'
- id: 1599
  name: Alytus
  country_id: 126
  country_code: LT
  country_name: Lithuania
  state_code: '03'
  type: district municipality
  latitude: '54.32974960'
  longitude: '24.19609310'
- id: 1574
  name: Alytus
  country_id: 126
  country_code: LT
  country_name: Lithuania
  state_code: AL
  type: county
  latitude: '54.20002140'
  longitude: '24.15126340'
- id: 1605
  name: Alytus
  country_id: 126
  country_code: LT
  country_name: Lithuania
  state_code: '02'
  type: district municipality
  latitude: '54.39629380'
  longitude: '24.04587610'
- id: 5346
  name: Anykščiai
  country_id: 126
  country_code: LT
  country_name: Lithuania
  state_code: '04'
  type: district municipality
  latitude: '55.54755510'
  longitude: '24.73181660'
- id: 1603
  name: Birštonas
  country_id: 126
  country_code: LT
  country_name: Lithuania
  state_code: '05'
  type: municipality
  latitude: '54.56696640'
  longitude: '24.00930980'
- id: 1566
  name: Biržai
  country_id: 126
  country_code: LT
  country_name: Lithuania
  state_code: '06'
  type: district municipality
  latitude: '56.20177190'
  longitude: '24.75601180'
- id: 1579
  name: Druskininkai
  country_id: 126
  country_code: LT
  country_name: Lithuania
  state_code: '07'
  type: municipality
  latitude: '53.99336850'
  longitude: '24.03424380'
- id: 1559
  name: Elektrėnai
  country_id: 126
  country_code: LT
  country_name: Lithuania
  state_code: '08'
  type: municipality
  latitude: '54.76539340'
  longitude: '24.77405830'
- id: 1562
  name: Ignalina
  country_id: 126
  country_code: LT
  country_name: Lithuania
  state_code: '09'
  type: district municipality
  latitude: '55.40903420'
  longitude: '26.32848930'
- id: 1567
  name: Jonava
  country_id: 126
  country_code: LT
  country_name: Lithuania
  state_code: '10'
  type: district municipality
  latitude: '55.07272420'
  longitude: '24.27933370'
- id: 1581
  name: Joniškis
  country_id: 126
  country_code: LT
  country_name: Lithuania
  state_code: '11'
  type: district municipality
  latitude: '56.23607300'
  longitude: '23.61365790'
- id: 1555
  name: Jurbarkas
  country_id: 126
  country_code: LT
  country_name: Lithuania
  state_code: '12'
  type: district municipality
  latitude: '55.07740700'
  longitude: '22.74195690'
- id: 1583
  name: Kaišiadorys
  country_id: 126
  country_code: LT
  country_name: Lithuania
  state_code: '13'
  type: district municipality
  latitude: '54.85886690'
  longitude: '24.42779290'
- id: 1591
  name: Kalvarija
  country_id: 126
  country_code: LT
  country_name: Lithuania
  state_code: '14'
  type: municipality
  latitude: '54.37616740'
  longitude: '23.19203210'
- id: 1565
  name: Kaunas
  country_id: 126
  country_code: LT
  country_name: Lithuania
  state_code: '16'
  type: district municipality
  latitude: '54.99362360'
  longitude: '23.63249410'
- id: 1556
  name: Kaunas
  country_id: 126
  country_code: LT
  country_name: Lithuania
  state_code: KU
  type: county
  latitude: '54.98728630'
  longitude: '23.95257360'
- id: 1580
  name: Kaunas
  country_id: 126
  country_code: LT
  country_name: Lithuania
  state_code: '15'
  type: district municipality
  latitude: '54.91453260'
  longitude: '23.90535180'
- id: 1575
  name: Kazlų Rūda
  country_id: 126
  country_code: LT
  country_name: Lithuania
  state_code: '17'
  type: municipality
  latitude: '54.78075260'
  longitude: '23.48402430'
- id: 1584
  name: Kėdainiai
  country_id: 126
  country_code: LT
  country_name: Lithuania
  state_code: '18'
  type: district municipality
  latitude: '55.35609470'
  longitude: '23.98326830'
- id: 1618
  name: Kelmė
  country_id: 126
  country_code: LT
  country_name: Lithuania
  state_code: '19'
  type: district municipality
  latitude: '55.62663520'
  longitude: '22.87817200'
- id: 1597
  name: Klaipeda
  country_id: 126
  country_code: LT
  country_name: Lithuania
  state_code: '20'
  type: district municipality
  latitude: '55.70329480'
  longitude: '21.14427950'
- id: 1600
  name: Klaipėda
  country_id: 126
  country_code: LT
  country_name: Lithuania
  state_code: KL
  type: county
  latitude: '55.65197440'
  longitude: '21.37439560'
- id: 1604
  name: Klaipėda
  country_id: 126
  country_code: LT
  country_name: Lithuania
  state_code: '21'
  type: district municipality
  latitude: '55.68416150'
  longitude: '21.44164640'
- id: 1571
  name: Kretinga
  country_id: 126
  country_code: LT
  country_name: Lithuania
  state_code: '22'
  type: district municipality
  latitude: '55.88384200'
  longitude: '21.23509190'
- id: 1585
  name: Kupiškis
  country_id: 126
  country_code: LT
  country_name: Lithuania
  state_code: '23'
  type: district municipality
  latitude: '55.84287410'
  longitude: '25.02958160'
- id: 1611
  name: Lazdijai
  country_id: 126
  country_code: LT
  country_name: Lithuania
  state_code: '24'
  type: district municipality
  latitude: '54.23432670'
  longitude: '23.51565050'
- id: 1610
  name: Marijampolė
  country_id: 126
  country_code: LT
  country_name: Lithuania
  state_code: '25'
  type: district municipality
  latitude: '54.57110940'
  longitude: '23.48593710'
- id: 1570
  name: Marijampolė
  country_id: 126
  country_code: LT
  country_name: Lithuania
  state_code: MR
  type: county
  latitude: '54.78199710'
  longitude: '23.13413650'
- id: 1557
  name: Mažeikiai
  country_id: 126
  country_code: LT
  country_name: Lithuania
  state_code: '26'
  type: district municipality
  latitude: '56.30924390'
  longitude: '22.34146800'
- id: 1582
  name: Molėtai
  country_id: 126
  country_code: LT
  country_name: Lithuania
  state_code: '27'
  type: district municipality
  latitude: '55.22653090'
  longitude: '25.41800110'
- id: 1563
  name: Neringa
  country_id: 126
  country_code: LT
  country_name: Lithuania
  state_code: '28'
  type: municipality
  latitude: '55.45724030'
  longitude: '21.08390050'
- id: 1612
  name: Pagėgiai
  country_id: 126
  country_code: LT
  country_name: Lithuania
  state_code: '29'
  type: municipality
  latitude: '55.17213200'
  longitude: '21.96836140'
- id: 1595
  name: Pakruojis
  country_id: 126
  country_code: LT
  country_name: Lithuania
  state_code: '30'
  type: district municipality
  latitude: '56.07326050'
  longitude: '23.93899060'
- id: 1588
  name: Palanga
  country_id: 126
  country_code: LT
  country_name: Lithuania
  state_code: '31'
  type: district municipality
  latitude: '55.92019800'
  longitude: '21.06776140'
- id: 1589
  name: Panevėžys
  country_id: 126
  country_code: LT
  country_name: Lithuania
  state_code: '32'
  type: district municipality
  latitude: '55.73479150'
  longitude: '24.35747740'
- id: 1558
  name: Panevėžys
  country_id: 126
  country_code: LT
  country_name: Lithuania
  state_code: PN
  type: county
  latitude: '55.97480490'
  longitude: '25.07947670'
- id: 1614
  name: Panevėžys
  country_id: 126
  country_code: LT
  country_name: Lithuania
  state_code: '33'
  type: district municipality
  latitude: '55.61667280'
  longitude: '24.31422830'
- id: 1616
  name: Pasvalys
  country_id: 126
  country_code: LT
  country_name: Lithuania
  state_code: '34'
  type: district municipality
  latitude: '56.06046190'
  longitude: '24.39629100'
- id: 1553
  name: Plungė
  country_id: 126
  country_code: LT
  country_name: Lithuania
  state_code: '35'
  type: district municipality
  latitude: '55.91078400'
  longitude: '21.84540690'
- id: 1578
  name: Prienai
  country_id: 126
  country_code: LT
  country_name: Lithuania
  state_code: '36'
  type: district municipality
  latitude: '54.63835800'
  longitude: '23.94680090'
- id: 1568
  name: Radviliškis
  country_id: 126
  country_code: LT
  country_name: Lithuania
  state_code: '37'
  type: district municipality
  latitude: '55.81083990'
  longitude: '23.54648700'
- id: 1587
  name: Raseiniai
  country_id: 126
  country_code: LT
  country_name: Lithuania
  state_code: '38'
  type: district municipality
  latitude: '55.38194990'
  longitude: '23.11561290'
- id: 1590
  name: Rietavas
  country_id: 126
  country_code: LT
  country_name: Lithuania
  state_code: '39'
  type: municipality
  latitude: '55.70217190'
  longitude: '21.99865640'
- id: 1615
  name: Rokiškis
  country_id: 126
  country_code: LT
  country_name: Lithuania
  state_code: '40'
  type: district municipality
  latitude: '55.95550390'
  longitude: '25.58592490'
- id: 1576
  name: Šakiai
  country_id: 126
  country_code: LT
  country_name: Lithuania
  state_code: '41'
  type: district municipality
  latitude: '54.95267100'
  longitude: '23.04801990'
- id: 1577
  name: Šalčininkai
  country_id: 126
  country_code: LT
  country_name: Lithuania
  state_code: '42'
  type: district municipality
  latitude: '54.30976700'
  longitude: '25.38756400'
- id: 1554
  name: Šiauliai
  country_id: 126
  country_code: LT
  country_name: Lithuania
  state_code: '44'
  type: district municipality
  latitude: '55.97214560'
  longitude: '23.03323710'
- id: 1609
  name: Šiauliai
  country_id: 126
  country_code: LT
  country_name: Lithuania
  state_code: '43'
  type: district municipality
  latitude: '55.93490850'
  longitude: '23.31368230'
- id: 1586
  name: Šiauliai
  country_id: 126
  country_code: LT
  country_name: Lithuania
  state_code: SA
  type: county
  latitude: '55.99857510'
  longitude: '23.13800510'
- id: 1613
  name: 'Šilalė '
  country_id: 126
  country_code: LT
  country_name: Lithuania
  state_code: '45'
  type: district municipality
  latitude: '55.49268000'
  longitude: '22.18455590'
- id: 1607
  name: Šilutė
  country_id: 126
  country_code: LT
  country_name: Lithuania
  state_code: '46'
  type: district municipality
  latitude: '55.35041400'
  longitude: '21.46598590'
- id: 1594
  name: Širvintos
  country_id: 126
  country_code: LT
  country_name: Lithuania
  state_code: '47'
  type: district municipality
  latitude: '55.04310200'
  longitude: '24.95698100'
- id: 1617
  name: Skuodas
  country_id: 126
  country_code: LT
  country_name: Lithuania
  state_code: '48'
  type: district municipality
  latitude: '56.27021690'
  longitude: '21.52143310'
- id: 1560
  name: Švenčionys
  country_id: 126
  country_code: LT
  country_name: Lithuania
  state_code: '49'
  type: district municipality
  latitude: '55.10280980'
  longitude: '26.00718550'
- id: 1573
  name: Tauragė
  country_id: 126
  country_code: LT
  country_name: Lithuania
  state_code: TA
  type: county
  latitude: '55.30725860'
  longitude: '22.35729390'
- id: 1572
  name: Tauragė
  country_id: 126
  country_code: LT
  country_name: Lithuania
  state_code: '50'
  type: district municipality
  latitude: '55.25036600'
  longitude: '22.29095000'
- id: 1608
  name: Telšiai
  country_id: 126
  country_code: LT
  country_name: Lithuania
  state_code: '51'
  type: district municipality
  latitude: '55.91752150'
  longitude: '22.34518400'
- id: 1569
  name: Telšiai
  country_id: 126
  country_code: LT
  country_name: Lithuania
  state_code: TE
  type: county
  latitude: '56.10266160'
  longitude: '22.11139150'
- id: 1593
  name: Trakai
  country_id: 126
  country_code: LT
  country_name: Lithuania
  state_code: '52'
  type: district municipality
  latitude: '54.63791130'
  longitude: '24.93468940'
- id: 1596
  name: Ukmergė
  country_id: 126
  country_code: LT
  country_name: Lithuania
  state_code: '53'
  type: district municipality
  latitude: '55.24526500'
  longitude: '24.77607490'
- id: 1598
  name: Utena
  country_id: 126
  country_code: LT
  country_name: Lithuania
  state_code: '54'
  type: district municipality
  latitude: '55.50846140'
  longitude: '25.68326420'
- id: 1621
  name: Utena
  country_id: 126
  country_code: LT
  country_name: Lithuania
  state_code: UT
  type: county
  latitude: '55.53189690'
  longitude: '25.79046990'
- id: 1602
  name: Varėna
  country_id: 126
  country_code: LT
  country_name: Lithuania
  state_code: '55'
  type: district municipality
  latitude: '54.22033300'
  longitude: '24.57899700'
- id: 1620
  name: Vilkaviškis
  country_id: 126
  country_code: LT
  country_name: Lithuania
  state_code: '56'
  type: district municipality
  latitude: '54.65194500'
  longitude: '23.03515500'
- id: 1601
  name: Vilnius
  country_id: 126
  country_code: LT
  country_name: Lithuania
  state_code: VL
  type: county
  latitude: '54.80865020'
  longitude: '25.21821390'
- id: 1606
  name: Vilnius
  country_id: 126
  country_code: LT
  country_name: Lithuania
  state_code: '57'
  type: district municipality
  latitude: '54.67107610'
  longitude: '25.28787210'
- id: 1592
  name: Vilnius
  country_id: 126
  country_code: LT
  country_name: Lithuania
  state_code: '58'
  type: district municipality
  latitude: '54.77325780'
  longitude: '25.58671130'
- id: 1564
  name: Visaginas
  country_id: 126
  country_code: LT
  country_name: Lithuania
  state_code: '59'
  type: municipality
  latitude: '55.59411800'
  longitude: '26.43079540'
- id: 1619
  name: Zarasai
  country_id: 126
  country_code: LT
  country_name: Lithuania
  state_code: '60'
  type: district municipality
  latitude: '55.73096090'
  longitude: '26.24529500'
