---
- id: 1518
  name: Capellen
  country_id: 127
  country_code: LU
  country_name: Luxembourg
  state_code: CA
  type: canton
  latitude: '49.64039310'
  longitude: '5.95538460'
- id: 1521
  name: Clervaux
  country_id: 127
  country_code: LU
  country_name: Luxembourg
  state_code: CL
  type: canton
  latitude: '50.05463130'
  longitude: '6.02858750'
- id: 1513
  name: Diekirch
  country_id: 127
  country_code: LU
  country_name: Luxembourg
  state_code: DI
  type: canton
  latitude: '49.86717840'
  longitude: '6.15956330'
- id: 1515
  name: Echternach
  country_id: 127
  country_code: LU
  country_name: Luxembourg
  state_code: EC
  type: canton
  latitude: '49.81141330'
  longitude: '6.41756350'
- id: 1517
  name: Esch-sur-Alzette
  country_id: 127
  country_code: LU
  country_name: Luxembourg
  state_code: ES
  type: canton
  latitude: '49.50088050'
  longitude: '5.98609250'
- id: 1520
  name: Grevenmacher
  country_id: 127
  country_code: LU
  country_name: Luxembourg
  state_code: G
  type: canton
  latitude: '49.68085100'
  longitude: '6.44075240'
- id: 1514
  name: 'Luxembourg '
  country_id: 127
  country_code: LU
  country_name: Luxembourg
  state_code: L
  type: canton
  latitude: '49.59537060'
  longitude: '6.13331780'
- id: 1522
  name: Mersch
  country_id: 127
  country_code: LU
  country_name: Luxembourg
  state_code: ME
  type: canton
  latitude: '49.75429060'
  longitude: '6.12921850'
- id: 1516
  name: Redange
  country_id: 127
  country_code: LU
  country_name: Luxembourg
  state_code: RD
  type: canton
  latitude: '49.76455000'
  longitude: '5.88948000'
- id: 1519
  name: Remich
  country_id: 127
  country_code: LU
  country_name: Luxembourg
  state_code: RM
  type: canton
  latitude: '49.54501700'
  longitude: '6.36742220'
- id: 1523
  name: Vianden
  country_id: 127
  country_code: LU
  country_name: Luxembourg
  state_code: VD
  type: canton
  latitude: '49.93419240'
  longitude: '6.20199170'
- id: 1526
  name: Wiltz
  country_id: 127
  country_code: LU
  country_name: Luxembourg
  state_code: WI
  type: canton
  latitude: '49.96622000'
  longitude: '5.93243060'
