---
- id: 4368
  name: Anenii Noi
  country_id: 144
  country_code: MD
  country_name: Moldova
  state_code: AN
  type: district
  latitude: '46.87956630'
  longitude: '29.23121750'
- id: 4393
  name: Bălți
  country_id: 144
  country_code: MD
  country_name: Moldova
  state_code: BA
  type: city
  latitude: '47.75399470'
  longitude: '27.91841480'
- id: 4379
  name: Basarabeasca
  country_id: 144
  country_code: MD
  country_name: Moldova
  state_code: BS
  type: district
  latitude: '46.42370600'
  longitude: '28.89354920'
- id: 4362
  name: Bender
  country_id: 144
  country_code: MD
  country_name: Moldova
  state_code: BD
  type: city
  latitude: '46.82275510'
  longitude: '29.46201010'
- id: 4375
  name: Briceni
  country_id: 144
  country_code: MD
  country_name: Moldova
  state_code: BR
  type: district
  latitude: '48.36320220'
  longitude: '27.07503980'
- id: 4391
  name: Cahul
  country_id: 144
  country_code: MD
  country_name: Moldova
  state_code: CA
  type: district
  latitude: '45.89394040'
  longitude: '28.18902750'
- id: 4366
  name: Călărași
  country_id: 144
  country_code: MD
  country_name: Moldova
  state_code: CL
  type: district
  latitude: '47.28694600'
  longitude: '28.27453100'
- id: 4380
  name: Cantemir
  country_id: 144
  country_code: MD
  country_name: Moldova
  state_code: CT
  type: district
  latitude: '46.27717420'
  longitude: '28.20096530'
- id: 4365
  name: Căușeni
  country_id: 144
  country_code: MD
  country_name: Moldova
  state_code: CS
  type: district
  latitude: '46.65547150'
  longitude: '29.40912220'
- id: 4373
  name: Chișinău
  country_id: 144
  country_code: MD
  country_name: Moldova
  state_code: CU
  type: city
  latitude: '47.01045290'
  longitude: '28.86381020'
- id: 4360
  name: Cimișlia
  country_id: 144
  country_code: MD
  country_name: Moldova
  state_code: CM
  type: district
  latitude: '46.52508510'
  longitude: '28.77218350'
- id: 4390
  name: Criuleni
  country_id: 144
  country_code: MD
  country_name: Moldova
  state_code: CR
  type: district
  latitude: '47.21361140'
  longitude: '29.15575190'
- id: 4384
  name: Dondușeni
  country_id: 144
  country_code: MD
  country_name: Moldova
  state_code: DO
  type: district
  latitude: '48.23383050'
  longitude: '27.59980870'
- id: 4392
  name: Drochia
  country_id: 144
  country_code: MD
  country_name: Moldova
  state_code: DR
  type: district
  latitude: '48.07977880'
  longitude: '27.86041140'
- id: 4383
  name: Dubăsari
  country_id: 144
  country_code: MD
  country_name: Moldova
  state_code: DU
  type: district
  latitude: '47.26439420'
  longitude: '29.15503480'
- id: 4387
  name: Edineț
  country_id: 144
  country_code: MD
  country_name: Moldova
  state_code: ED
  type: district
  latitude: '48.16789910'
  longitude: '27.29361430'
- id: 4381
  name: Fălești
  country_id: 144
  country_code: MD
  country_name: Moldova
  state_code: FA
  type: district
  latitude: '47.56477250'
  longitude: '27.72655930'
- id: 4370
  name: Florești
  country_id: 144
  country_code: MD
  country_name: Moldova
  state_code: FL
  type: district
  latitude: '47.86678490'
  longitude: '28.33918640'
- id: 4385
  name: Gagauzia
  country_id: 144
  country_code: MD
  country_name: Moldova
  state_code: GA
  type: autonomous territorial unit
  latitude: '46.09794350'
  longitude: '28.63846450'
- id: 4367
  name: Glodeni
  country_id: 144
  country_code: MD
  country_name: Moldova
  state_code: GL
  type: district
  latitude: '47.77901560'
  longitude: '27.51680100'
- id: 4382
  name: Hîncești
  country_id: 144
  country_code: MD
  country_name: Moldova
  state_code: HI
  type: district
  latitude: '46.82811470'
  longitude: '28.58508890'
- id: 4369
  name: Ialoveni
  country_id: 144
  country_code: MD
  country_name: Moldova
  state_code: IA
  type: district
  latitude: '46.86308600'
  longitude: '28.82342180'
- id: 4363
  name: Nisporeni
  country_id: 144
  country_code: MD
  country_name: Moldova
  state_code: NI
  type: district
  latitude: '47.07513490'
  longitude: '28.17681550'
- id: 4389
  name: Ocnița
  country_id: 144
  country_code: MD
  country_name: Moldova
  state_code: OC
  type: district
  latitude: '48.41104350'
  longitude: '27.47680920'
- id: 4361
  name: Orhei
  country_id: 144
  country_code: MD
  country_name: Moldova
  state_code: OR
  type: district
  latitude: '47.38604000'
  longitude: '28.83030820'
- id: 4394
  name: Rezina
  country_id: 144
  country_code: MD
  country_name: Moldova
  state_code: RE
  type: district
  latitude: '47.71804470'
  longitude: '28.88710240'
- id: 4376
  name: Rîșcani
  country_id: 144
  country_code: MD
  country_name: Moldova
  state_code: RI
  type: district
  latitude: '47.90701530'
  longitude: '27.53749960'
- id: 4364
  name: Sîngerei
  country_id: 144
  country_code: MD
  country_name: Moldova
  state_code: SI
  type: district
  latitude: '47.63891340'
  longitude: '28.13718160'
- id: 4388
  name: Șoldănești
  country_id: 144
  country_code: MD
  country_name: Moldova
  state_code: SD
  type: district
  latitude: '47.81473890'
  longitude: '28.78895860'
- id: 4374
  name: Soroca
  country_id: 144
  country_code: MD
  country_name: Moldova
  state_code: SO
  type: district
  latitude: '48.15497430'
  longitude: '28.28707830'
- id: 4378
  name: Ștefan Vodă
  country_id: 144
  country_code: MD
  country_name: Moldova
  state_code: SV
  type: district
  latitude: '46.55404880'
  longitude: '29.70224200'
- id: 4377
  name: Strășeni
  country_id: 144
  country_code: MD
  country_name: Moldova
  state_code: ST
  type: district
  latitude: '47.14502670'
  longitude: '28.61367360'
- id: 4372
  name: Taraclia
  country_id: 144
  country_code: MD
  country_name: Moldova
  state_code: TA
  type: district
  latitude: '45.89865100'
  longitude: '28.66716440'
- id: 4371
  name: Telenești
  country_id: 144
  country_code: MD
  country_name: Moldova
  state_code: TE
  type: district
  latitude: '47.49839620'
  longitude: '28.36760190'
- id: 4395
  name: Transnistria
  country_id: 144
  country_code: MD
  country_name: Moldova
  state_code: SN
  type: territorial unit
  latitude: '47.21529720'
  longitude: '29.46380540'
- id: 4386
  name: Ungheni
  country_id: 144
  country_code: MD
  country_name: Moldova
  state_code: UN
  type: district
  latitude: '47.23057670'
  longitude: '27.78926610'
