---
- id: 3362
  name: Arima
  country_id: 223
  country_code: TT
  country_name: Trinidad and Tobago
  state_code: ARI
  type: borough
  latitude: '46.79316040'
  longitude: "-71.25843110"
- id: 3366
  name: Chaguanas
  country_id: 223
  country_code: TT
  country_name: Trinidad and Tobago
  state_code: CHA
  type: borough
  latitude: '10.51683870'
  longitude: "-61.41144820"
- id: 3354
  name: Couva-Tabaquite-Talparo
  country_id: 223
  country_code: TT
  country_name: Trinidad and Tobago
  state_code: CTT
  type: region
  latitude: '10.42971450'
  longitude: "-61.37352100"
- id: 3367
  name: Diego Martin
  country_id: 223
  country_code: TT
  country_name: Trinidad and Tobago
  state_code: DMN
  type: region
  latitude: '10.73622860'
  longitude: "-61.55448360"
- id: 3355
  name: Eastern Tobago
  country_id: 223
  country_code: TT
  country_name: Trinidad and Tobago
  state_code: ETO
  type: region
  latitude: '11.29793480'
  longitude: "-60.55885240"
- id: 3365
  name: Penal-Debe
  country_id: 223
  country_code: TT
  country_name: Trinidad and Tobago
  state_code: PED
  type: region
  latitude: '10.13374020'
  longitude: "-61.44354740"
- id: 3360
  name: Point Fortin
  country_id: 223
  country_code: TT
  country_name: Trinidad and Tobago
  state_code: PTF
  type: borough
  latitude: '10.17027370'
  longitude: "-61.67133860"
- id: 3363
  name: Port of Spain
  country_id: 223
  country_code: TT
  country_name: Trinidad and Tobago
  state_code: POS
  type: city
  latitude: '10.66031960'
  longitude: "-61.50856250"
- id: 3368
  name: Princes Town
  country_id: 223
  country_code: TT
  country_name: Trinidad and Tobago
  state_code: PRT
  type: region
  latitude: '10.17867460'
  longitude: "-61.28019960"
- id: 3356
  name: Rio Claro-Mayaro
  country_id: 223
  country_code: TT
  country_name: Trinidad and Tobago
  state_code: MRC
  type: region
  latitude: '10.24128320'
  longitude: "-61.09372060"
- id: 3359
  name: San Fernando
  country_id: 223
  country_code: TT
  country_name: Trinidad and Tobago
  state_code: SFO
  type: region
  latitude: '34.28194610'
  longitude: "-118.43897190"
- id: 3357
  name: San Juan-Laventille
  country_id: 223
  country_code: TT
  country_name: Trinidad and Tobago
  state_code: SJL
  type: region
  latitude: '10.69085780'
  longitude: "-61.45522130"
- id: 3361
  name: Sangre Grande
  country_id: 223
  country_code: TT
  country_name: Trinidad and Tobago
  state_code: SGE
  type: region
  latitude: '10.58529390'
  longitude: "-61.13158130"
- id: 3364
  name: Siparia
  country_id: 223
  country_code: TT
  country_name: Trinidad and Tobago
  state_code: SIP
  type: region
  latitude: '10.12456260'
  longitude: "-61.56032440"
- id: 3358
  name: Tunapuna-Piarco
  country_id: 223
  country_code: TT
  country_name: Trinidad and Tobago
  state_code: TUP
  type: region
  latitude: '10.68590960'
  longitude: "-61.30352480"
- id: 3353
  name: Western Tobago
  country_id: 223
  country_code: TT
  country_name: Trinidad and Tobago
  state_code: WTO
  type: region
  latitude: '11.18970720'
  longitude: "-60.77954520"
