---
- id: 1491
  name: Arusha
  country_id: 218
  country_code: TZ
  country_name: Tanzania
  state_code: '01'
  type: region
  latitude: "-3.38692540"
  longitude: '36.68299270'
- id: 1490
  name: Dar es Salaam
  country_id: 218
  country_code: TZ
  country_name: Tanzania
  state_code: '02'
  type: region
  latitude: "-6.79235400"
  longitude: '39.20832840'
- id: 1466
  name: Dodoma
  country_id: 218
  country_code: TZ
  country_name: Tanzania
  state_code: '03'
  type: region
  latitude: "-6.57382280"
  longitude: '36.26308460'
- id: 1481
  name: Geita
  country_id: 218
  country_code: TZ
  country_name: Tanzania
  state_code: '27'
  type: region
  latitude: "-2.82422570"
  longitude: '32.26538870'
- id: 1489
  name: Iringa
  country_id: 218
  country_code: TZ
  country_name: Tanzania
  state_code: '04'
  type: region
  latitude: "-7.78874420"
  longitude: '35.56578620'
- id: 1465
  name: Kagera
  country_id: 218
  country_code: TZ
  country_name: Tanzania
  state_code: '05'
  type: region
  latitude: "-1.30011150"
  longitude: '31.26263660'
- id: 1482
  name: Katavi
  country_id: 218
  country_code: TZ
  country_name: Tanzania
  state_code: '28'
  type: region
  latitude: "-6.36771250"
  longitude: '31.26263660'
- id: 1478
  name: Kigoma
  country_id: 218
  country_code: TZ
  country_name: Tanzania
  state_code: '08'
  type: region
  latitude: "-4.88240920"
  longitude: '29.66150550'
- id: 1467
  name: Kilimanjaro
  country_id: 218
  country_code: TZ
  country_name: Tanzania
  state_code: '09'
  type: region
  latitude: "-4.13369270"
  longitude: '37.80876930'
- id: 1483
  name: Lindi
  country_id: 218
  country_code: TZ
  country_name: Tanzania
  state_code: '12'
  type: region
  latitude: "-9.23433940"
  longitude: '38.31657250'
- id: 1484
  name: Manyara
  country_id: 218
  country_code: TZ
  country_name: Tanzania
  state_code: '26'
  type: region
  latitude: "-4.31500580"
  longitude: '36.95410700'
- id: 1468
  name: Mara
  country_id: 218
  country_code: TZ
  country_name: Tanzania
  state_code: '13'
  type: region
  latitude: "-1.77535380"
  longitude: '34.15319470'
- id: 4955
  name: Mbeya
  country_id: 218
  country_code: TZ
  country_name: Tanzania
  state_code: '14'
  type: region
  latitude: "-8.28661120"
  longitude: '32.81325370'
- id: 1470
  name: Morogoro
  country_id: 218
  country_code: TZ
  country_name: Tanzania
  state_code: '16'
  type: region
  latitude: "-8.81371730"
  longitude: '36.95410700'
- id: 1476
  name: Mtwara
  country_id: 218
  country_code: TZ
  country_name: Tanzania
  state_code: '17'
  type: region
  latitude: "-10.33984550"
  longitude: '40.16574660'
- id: 1479
  name: Mwanza
  country_id: 218
  country_code: TZ
  country_name: Tanzania
  state_code: '18'
  type: region
  latitude: "-2.46711970"
  longitude: '32.89868120'
- id: 1480
  name: Njombe
  country_id: 218
  country_code: TZ
  country_name: Tanzania
  state_code: '29'
  type: region
  latitude: "-9.24226320"
  longitude: '35.12687810'
- id: 1488
  name: Pemba North
  country_id: 218
  country_code: TZ
  country_name: Tanzania
  state_code: '06'
  type: region
  latitude: "-5.03193520"
  longitude: '39.77555710'
- id: 1472
  name: Pemba South
  country_id: 218
  country_code: TZ
  country_name: Tanzania
  state_code: '10'
  type: region
  latitude: "-5.31469610"
  longitude: '39.75495110'
- id: 1485
  name: Pwani
  country_id: 218
  country_code: TZ
  country_name: Tanzania
  state_code: '19'
  type: region
  latitude: "-7.32377140"
  longitude: '38.82054540'
- id: 1477
  name: Rukwa
  country_id: 218
  country_code: TZ
  country_name: Tanzania
  state_code: '20'
  type: region
  latitude: "-8.01094440"
  longitude: '31.44561790'
- id: 1486
  name: Ruvuma
  country_id: 218
  country_code: TZ
  country_name: Tanzania
  state_code: '21'
  type: region
  latitude: "-10.68787170"
  longitude: '36.26308460'
- id: 1463
  name: Shinyanga
  country_id: 218
  country_code: TZ
  country_name: Tanzania
  state_code: '22'
  type: region
  latitude: "-3.68099610"
  longitude: '33.42714030'
- id: 1464
  name: Simiyu
  country_id: 218
  country_code: TZ
  country_name: Tanzania
  state_code: '30'
  type: region
  latitude: "-2.83087380"
  longitude: '34.15319470'
- id: 1474
  name: Singida
  country_id: 218
  country_code: TZ
  country_name: Tanzania
  state_code: '23'
  type: region
  latitude: "-6.74533520"
  longitude: '34.15319470'
- id: 4956
  name: Songwe
  country_id: 218
  country_code: TZ
  country_name: Tanzania
  state_code: '31'
  type: region
  latitude: "-8.27261200"
  longitude: '31.71131740'
- id: 1469
  name: Tabora
  country_id: 218
  country_code: TZ
  country_name: Tanzania
  state_code: '24'
  type: region
  latitude: "-5.03421380"
  longitude: '32.80844960'
- id: 1487
  name: Tanga
  country_id: 218
  country_code: TZ
  country_name: Tanzania
  state_code: '25'
  type: region
  latitude: "-5.30497890"
  longitude: '38.31657250'
- id: 1473
  name: Zanzibar North
  country_id: 218
  country_code: TZ
  country_name: Tanzania
  state_code: '07'
  type: region
  latitude: "-5.93950930"
  longitude: '39.27910110'
- id: 1471
  name: Zanzibar South
  country_id: 218
  country_code: TZ
  country_name: Tanzania
  state_code: '11'
  type: region
  latitude: "-6.26428510"
  longitude: '39.44502810'
- id: 1475
  name: Zanzibar West
  country_id: 218
  country_code: TZ
  country_name: Tanzania
  state_code: '15'
  type: region
  latitude: "-6.22981360"
  longitude: '39.25832930'
