---
- id: 329
  name: Abim
  country_id: 229
  country_code: UG
  country_name: Uganda
  state_code: '314'
  type: district
  latitude: '2.70669800'
  longitude: '33.65953370'
- id: 361
  name: Adjumani
  country_id: 229
  country_code: UG
  country_name: Uganda
  state_code: '301'
  type: district
  latitude: '3.25485270'
  longitude: '31.71954590'
- id: 392
  name: Agago
  country_id: 229
  country_code: UG
  country_name: Uganda
  state_code: '322'
  type: district
  latitude: '2.92508200'
  longitude: '33.34861470'
- id: 344
  name: Alebtong
  country_id: 229
  country_code: UG
  country_name: Uganda
  state_code: '323'
  type: district
  latitude: '2.25457730'
  longitude: '33.34861470'
- id: 416
  name: Amolatar
  country_id: 229
  country_code: UG
  country_name: Uganda
  state_code: '315'
  type: district
  latitude: '1.60544020'
  longitude: '32.80844960'
- id: 353
  name: Amudat
  country_id: 229
  country_code: UG
  country_name: Uganda
  state_code: '324'
  type: district
  latitude: '1.79162240'
  longitude: '34.90655100'
- id: 352
  name: Amuria
  country_id: 229
  country_code: UG
  country_name: Uganda
  state_code: '216'
  type: district
  latitude: '2.03017000'
  longitude: '33.64275330'
- id: 335
  name: Amuru
  country_id: 229
  country_code: UG
  country_name: Uganda
  state_code: '316'
  type: district
  latitude: '2.96678780'
  longitude: '32.08374450'
- id: 328
  name: Apac
  country_id: 229
  country_code: UG
  country_name: Uganda
  state_code: '302'
  type: district
  latitude: '1.87302630'
  longitude: '32.62774550'
- id: 447
  name: Arua
  country_id: 229
  country_code: UG
  country_name: Uganda
  state_code: '303'
  type: district
  latitude: '2.99598460'
  longitude: '31.17103890'
- id: 441
  name: Budaka
  country_id: 229
  country_code: UG
  country_name: Uganda
  state_code: '217'
  type: district
  latitude: '1.10162770'
  longitude: '33.93039910'
- id: 349
  name: Bududa
  country_id: 229
  country_code: UG
  country_name: Uganda
  state_code: '218'
  type: district
  latitude: '1.00296930'
  longitude: '34.33381230'
- id: 387
  name: Bugiri
  country_id: 229
  country_code: UG
  country_name: Uganda
  state_code: '201'
  type: district
  latitude: '0.53161270'
  longitude: '33.75177230'
- id: 5350
  name: Bugweri
  country_id: 229
  country_code: UG
  country_name: Uganda
  state_code: '235'
  type: district
  latitude: '0.62222290'
  longitude: '33.44805470'
- id: 391
  name: Buhweju
  country_id: 229
  country_code: UG
  country_name: Uganda
  state_code: '420'
  type: district
  latitude: "-0.29113590"
  longitude: '30.29741990'
- id: 377
  name: Buikwe
  country_id: 229
  country_code: UG
  country_name: Uganda
  state_code: '117'
  type: district
  latitude: '0.31440460'
  longitude: '32.98883190'
- id: 343
  name: Bukedea
  country_id: 229
  country_code: UG
  country_name: Uganda
  state_code: '219'
  type: district
  latitude: '1.35568980'
  longitude: '34.10867930'
- id: 375
  name: Bukomansimbi
  country_id: 229
  country_code: UG
  country_name: Uganda
  state_code: '118'
  type: district
  latitude: "-0.14327520"
  longitude: '31.60548930'
- id: 385
  name: Bukwo
  country_id: 229
  country_code: UG
  country_name: Uganda
  state_code: '220'
  type: district
  latitude: '1.28186510'
  longitude: '34.72987650'
- id: 428
  name: Bulambuli
  country_id: 229
  country_code: UG
  country_name: Uganda
  state_code: '225'
  type: district
  latitude: '1.47988460'
  longitude: '34.37544140'
- id: 389
  name: Buliisa
  country_id: 229
  country_code: UG
  country_name: Uganda
  state_code: '416'
  type: district
  latitude: '2.02996070'
  longitude: '31.53700030'
- id: 419
  name: Bundibugyo
  country_id: 229
  country_code: UG
  country_name: Uganda
  state_code: '401'
  type: district
  latitude: '0.68517630'
  longitude: '30.02029640'
- id: 381
  name: Bunyangabu
  country_id: 229
  country_code: UG
  country_name: Uganda
  state_code: '430'
  type: district
  latitude: '0.48709180'
  longitude: '30.20510960'
- id: 386
  name: Bushenyi
  country_id: 229
  country_code: UG
  country_name: Uganda
  state_code: '402'
  type: district
  latitude: "-0.48709180"
  longitude: '30.20510960'
- id: 431
  name: Busia
  country_id: 229
  country_code: UG
  country_name: Uganda
  state_code: '202'
  type: district
  latitude: '0.40447310'
  longitude: '34.01958270'
- id: 365
  name: Butaleja
  country_id: 229
  country_code: UG
  country_name: Uganda
  state_code: '221'
  type: district
  latitude: '0.84749220'
  longitude: '33.84112880'
- id: 384
  name: Butambala
  country_id: 229
  country_code: UG
  country_name: Uganda
  state_code: '119'
  type: district
  latitude: '0.17425000'
  longitude: '32.10646680'
- id: 388
  name: Butebo
  country_id: 229
  country_code: UG
  country_name: Uganda
  state_code: '233'
  type: district
  latitude: '1.21411240'
  longitude: '33.90808960'
- id: 414
  name: Buvuma
  country_id: 229
  country_code: UG
  country_name: Uganda
  state_code: '120'
  type: district
  latitude: "-0.37649120"
  longitude: '33.25879300'
- id: 380
  name: Buyende
  country_id: 229
  country_code: UG
  country_name: Uganda
  state_code: '226'
  type: district
  latitude: '1.24136820'
  longitude: '33.12390490'
- id: 396
  name: Central
  country_id: 229
  country_code: UG
  country_name: Uganda
  state_code: C
  type: region
  latitude: '44.29687500'
  longitude: "-94.74017330"
- id: 341
  name: Dokolo
  country_id: 229
  country_code: UG
  country_name: Uganda
  state_code: '317'
  type: district
  latitude: '1.96364210'
  longitude: '33.03387670'
- id: 372
  name: Eastern
  country_id: 229
  country_code: UG
  country_name: Uganda
  state_code: E
  type: region
  latitude: '6.23740360'
  longitude: "-0.45023680"
- id: 366
  name: Gomba
  country_id: 229
  country_code: UG
  country_name: Uganda
  state_code: '121'
  type: district
  latitude: '0.22297910'
  longitude: '31.67393710'
- id: 413
  name: Gulu
  country_id: 229
  country_code: UG
  country_name: Uganda
  state_code: '304'
  type: district
  latitude: '2.81857760'
  longitude: '32.44672380'
- id: 5358
  name: Hoima
  country_id: 229
  country_code: UG
  country_name: Uganda
  state_code: '403'
  type: district
  latitude: '1.56023430'
  longitude: '30.52043450'
- id: 339
  name: Ibanda
  country_id: 229
  country_code: UG
  country_name: Uganda
  state_code: '417'
  type: district
  latitude: "-0.09648900"
  longitude: '30.57395790'
- id: 340
  name: Iganga
  country_id: 229
  country_code: UG
  country_name: Uganda
  state_code: '203'
  type: district
  latitude: '0.66001370'
  longitude: '33.48319060'
- id: 383
  name: Isingiro
  country_id: 229
  country_code: UG
  country_name: Uganda
  state_code: '418'
  type: district
  latitude: "-0.84354300"
  longitude: '30.80394740'
- id: 367
  name: Jinja
  country_id: 229
  country_code: UG
  country_name: Uganda
  state_code: '204'
  type: district
  latitude: '0.53437430'
  longitude: '33.30371430'
- id: 434
  name: Kaabong
  country_id: 229
  country_code: UG
  country_name: Uganda
  state_code: '318'
  type: district
  latitude: '3.51262150'
  longitude: '33.97500180'
- id: 426
  name: Kabale
  country_id: 229
  country_code: UG
  country_name: Uganda
  state_code: '404'
  type: district
  latitude: "-1.24930840"
  longitude: '30.06652360'
- id: 326
  name: Kabarole
  country_id: 229
  country_code: UG
  country_name: Uganda
  state_code: '405'
  type: district
  latitude: '0.58507910'
  longitude: '30.25127280'
- id: 336
  name: Kaberamaido
  country_id: 229
  country_code: UG
  country_name: Uganda
  state_code: '213'
  type: district
  latitude: '1.69633220'
  longitude: '33.21385100'
- id: 403
  name: Kagadi
  country_id: 229
  country_code: UG
  country_name: Uganda
  state_code: '427'
  type: district
  latitude: '0.94007610'
  longitude: '30.81256380'
- id: 399
  name: Kakumiro
  country_id: 229
  country_code: UG
  country_name: Uganda
  state_code: '428'
  type: district
  latitude: '0.78080350'
  longitude: '31.32413890'
- id: 5352
  name: Kalaki
  country_id: 229
  country_code: UG
  country_name: Uganda
  state_code: '237'
  type: district
  latitude: '1.82956800'
  longitude: '33.32930510'
- id: 405
  name: Kalangala
  country_id: 229
  country_code: UG
  country_name: Uganda
  state_code: '101'
  type: district
  latitude: "-0.63505780"
  longitude: '32.53727410'
- id: 398
  name: Kaliro
  country_id: 229
  country_code: UG
  country_name: Uganda
  state_code: '222'
  type: district
  latitude: '1.04311070'
  longitude: '33.48319060'
- id: 394
  name: Kalungu
  country_id: 229
  country_code: UG
  country_name: Uganda
  state_code: '122'
  type: district
  latitude: "-0.09528310"
  longitude: '31.76513620'
- id: 382
  name: Kampala
  country_id: 229
  country_code: UG
  country_name: Uganda
  state_code: '102'
  type: city
  latitude: '0.34759640'
  longitude: '32.58251970'
- id: 334
  name: Kamuli
  country_id: 229
  country_code: UG
  country_name: Uganda
  state_code: '205'
  type: district
  latitude: '0.91871070'
  longitude: '33.12390490'
- id: 360
  name: Kamwenge
  country_id: 229
  country_code: UG
  country_name: Uganda
  state_code: '413'
  type: district
  latitude: '0.22579300'
  longitude: '30.48184460'
- id: 373
  name: Kanungu
  country_id: 229
  country_code: UG
  country_name: Uganda
  state_code: '414'
  type: district
  latitude: "-0.81952530"
  longitude: '29.74260400'
- id: 432
  name: Kapchorwa
  country_id: 229
  country_code: UG
  country_name: Uganda
  state_code: '206'
  type: district
  latitude: '1.33502050'
  longitude: '34.39763560'
- id: 5351
  name: Kapelebyong
  country_id: 229
  country_code: UG
  country_name: Uganda
  state_code: '236'
  type: district
  latitude: '2.19597360'
  longitude: '33.37213830'
- id: 5355
  name: Karenga
  country_id: 229
  country_code: UG
  country_name: Uganda
  state_code: '335'
  type: district
  latitude: '3.58770480'
  longitude: '33.55711290'
- id: 5349
  name: Kasanda
  country_id: 229
  country_code: UG
  country_name: Uganda
  state_code: '126'
  type: district
  latitude: '0.52794910'
  longitude: '31.64774850'
- id: 440
  name: Kasese
  country_id: 229
  country_code: UG
  country_name: Uganda
  state_code: '406'
  type: district
  latitude: '0.06462850'
  longitude: '30.06652360'
- id: 420
  name: Katakwi
  country_id: 229
  country_code: UG
  country_name: Uganda
  state_code: '207'
  type: district
  latitude: '1.97310300'
  longitude: '34.06414190'
- id: 368
  name: Kayunga
  country_id: 229
  country_code: UG
  country_name: Uganda
  state_code: '112'
  type: district
  latitude: '0.98601820'
  longitude: '32.85357550'
- id: 5360
  name: Kazo
  country_id: 229
  country_code: UG
  country_name: Uganda
  state_code: '433'
  type: district
  latitude: "-0.05131600"
  longitude: '30.75170880'
- id: 436
  name: Kibaale
  country_id: 229
  country_code: UG
  country_name: Uganda
  state_code: '407'
  type: district
  latitude: '0.90668020'
  longitude: '31.07937050'
- id: 347
  name: Kiboga
  country_id: 229
  country_code: UG
  country_name: Uganda
  state_code: '103'
  type: district
  latitude: '0.96575900'
  longitude: '31.71954590'
- id: 338
  name: Kibuku
  country_id: 229
  country_code: UG
  country_name: Uganda
  state_code: '227'
  type: district
  latitude: '1.04528740'
  longitude: '33.79925360'
- id: 5359
  name: Kikuube
  country_id: 229
  country_code: UG
  country_name: Uganda
  state_code: '432'
  type: district
  latitude: '1.31021900'
  longitude: '30.32356340'
- id: 355
  name: Kiruhura
  country_id: 229
  country_code: UG
  country_name: Uganda
  state_code: '419'
  type: district
  latitude: "-0.19279980"
  longitude: '30.80394740'
- id: 346
  name: Kiryandongo
  country_id: 229
  country_code: UG
  country_name: Uganda
  state_code: '421'
  type: district
  latitude: '2.01799070'
  longitude: '32.08374450'
- id: 409
  name: Kisoro
  country_id: 229
  country_code: UG
  country_name: Uganda
  state_code: '408'
  type: district
  latitude: "-1.22094300"
  longitude: '29.64991620'
- id: 5361
  name: Kitagwenda
  country_id: 229
  country_code: UG
  country_name: Uganda
  state_code: '434'
  type: district
  latitude: '0.01432970'
  longitude: '30.18058940'
- id: 348
  name: Kitgum
  country_id: 229
  country_code: UG
  country_name: Uganda
  state_code: '305'
  type: district
  latitude: '3.33968290'
  longitude: '33.16888830'
- id: 345
  name: Koboko
  country_id: 229
  country_code: UG
  country_name: Uganda
  state_code: '319'
  type: district
  latitude: '3.52370580'
  longitude: '31.03351000'
- id: 401
  name: Kole
  country_id: 229
  country_code: UG
  country_name: Uganda
  state_code: '325'
  type: district
  latitude: '2.37010970'
  longitude: '32.76330360'
- id: 443
  name: Kotido
  country_id: 229
  country_code: UG
  country_name: Uganda
  state_code: '306'
  type: district
  latitude: '3.04156790'
  longitude: '33.88577470'
- id: 425
  name: Kumi
  country_id: 229
  country_code: UG
  country_name: Uganda
  state_code: '208'
  type: district
  latitude: '1.48769990'
  longitude: '33.93039910'
- id: 5353
  name: Kwania
  country_id: 229
  country_code: UG
  country_name: Uganda
  state_code: '333'
  type: district
  latitude: '1.90119710'
  longitude: '32.41264920'
- id: 369
  name: Kween
  country_id: 229
  country_code: UG
  country_name: Uganda
  state_code: '228'
  type: district
  latitude: '1.44387900'
  longitude: '34.59713200'
- id: 325
  name: Kyankwanzi
  country_id: 229
  country_code: UG
  country_name: Uganda
  state_code: '123'
  type: district
  latitude: '1.09660370'
  longitude: '31.71954590'
- id: 437
  name: Kyegegwa
  country_id: 229
  country_code: UG
  country_name: Uganda
  state_code: '422'
  type: district
  latitude: '0.48181930'
  longitude: '31.05500930'
- id: 402
  name: Kyenjojo
  country_id: 229
  country_code: UG
  country_name: Uganda
  state_code: '415'
  type: district
  latitude: '0.60929230'
  longitude: '30.64012310'
- id: 448
  name: Kyotera
  country_id: 229
  country_code: UG
  country_name: Uganda
  state_code: '125'
  type: district
  latitude: "-0.63589880"
  longitude: '31.54556370'
- id: 411
  name: Lamwo
  country_id: 229
  country_code: UG
  country_name: Uganda
  state_code: '326'
  type: district
  latitude: '3.57075680'
  longitude: '32.53727410'
- id: 342
  name: Lira
  country_id: 229
  country_code: UG
  country_name: Uganda
  state_code: '307'
  type: district
  latitude: '2.23161690'
  longitude: '32.94376670'
- id: 445
  name: Luuka
  country_id: 229
  country_code: UG
  country_name: Uganda
  state_code: '229'
  type: district
  latitude: '0.72505990'
  longitude: '33.30371430'
- id: 433
  name: Luwero
  country_id: 229
  country_code: UG
  country_name: Uganda
  state_code: '104'
  type: district
  latitude: '0.82711180'
  longitude: '32.62774550'
- id: 417
  name: Lwengo
  country_id: 229
  country_code: UG
  country_name: Uganda
  state_code: '124'
  type: district
  latitude: "-0.41652880"
  longitude: '31.39989950'
- id: 376
  name: Lyantonde
  country_id: 229
  country_code: UG
  country_name: Uganda
  state_code: '114'
  type: district
  latitude: "-0.22406960"
  longitude: '31.21684660'
- id: 5356
  name: Madi-Okollo
  country_id: 229
  country_code: UG
  country_name: Uganda
  state_code: '336'
  type: district
  latitude: '2.86773070'
  longitude: '30.92752690'
- id: 438
  name: Manafwa
  country_id: 229
  country_code: UG
  country_name: Uganda
  state_code: '223'
  type: district
  latitude: '0.90635990'
  longitude: '34.28660910'
- id: 421
  name: Maracha
  country_id: 229
  country_code: UG
  country_name: Uganda
  state_code: '320'
  type: district
  latitude: '3.28731270'
  longitude: '30.94030230'
- id: 356
  name: Masaka
  country_id: 229
  country_code: UG
  country_name: Uganda
  state_code: '105'
  type: district
  latitude: "-0.44636910"
  longitude: '31.90179540'
- id: 354
  name: Masindi
  country_id: 229
  country_code: UG
  country_name: Uganda
  state_code: '409'
  type: district
  latitude: '1.49203630'
  longitude: '31.71954590'
- id: 418
  name: Mayuge
  country_id: 229
  country_code: UG
  country_name: Uganda
  state_code: '214'
  type: district
  latitude: "-0.21829820"
  longitude: '33.57280270'
- id: 350
  name: Mbale
  country_id: 229
  country_code: UG
  country_name: Uganda
  state_code: '209'
  type: district
  latitude: '1.03442740'
  longitude: '34.19768820'
- id: 415
  name: Mbarara
  country_id: 229
  country_code: UG
  country_name: Uganda
  state_code: '410'
  type: district
  latitude: "-0.60715960"
  longitude: '30.65450220'
- id: 435
  name: Mitooma
  country_id: 229
  country_code: UG
  country_name: Uganda
  state_code: '423'
  type: district
  latitude: "-0.61932760"
  longitude: '30.02029640'
- id: 364
  name: Mityana
  country_id: 229
  country_code: UG
  country_name: Uganda
  state_code: '115'
  type: district
  latitude: '0.44548450'
  longitude: '32.08374450'
- id: 395
  name: Moroto
  country_id: 229
  country_code: UG
  country_name: Uganda
  state_code: '308'
  type: district
  latitude: '2.61685450'
  longitude: '34.59713200'
- id: 363
  name: Moyo
  country_id: 229
  country_code: UG
  country_name: Uganda
  state_code: '309'
  type: district
  latitude: '3.56964640'
  longitude: '31.67393710'
- id: 327
  name: Mpigi
  country_id: 229
  country_code: UG
  country_name: Uganda
  state_code: '106'
  type: district
  latitude: '0.22735280'
  longitude: '32.32492360'
- id: 371
  name: Mubende
  country_id: 229
  country_code: UG
  country_name: Uganda
  state_code: '107'
  type: district
  latitude: '0.57727580'
  longitude: '31.53700030'
- id: 410
  name: Mukono
  country_id: 229
  country_code: UG
  country_name: Uganda
  state_code: '108'
  type: district
  latitude: '0.28354760'
  longitude: '32.76330360'
- id: 5354
  name: Nabilatuk
  country_id: 229
  country_code: UG
  country_name: Uganda
  state_code: '334'
  type: district
  latitude: '2.03870330'
  longitude: '34.17750230'
- id: 393
  name: Nakapiripirit
  country_id: 229
  country_code: UG
  country_name: Uganda
  state_code: '311'
  type: district
  latitude: '1.96061730'
  longitude: '34.59713200'
- id: 423
  name: Nakaseke
  country_id: 229
  country_code: UG
  country_name: Uganda
  state_code: '116'
  type: district
  latitude: '1.22308480'
  longitude: '32.08374450'
- id: 406
  name: Nakasongola
  country_id: 229
  country_code: UG
  country_name: Uganda
  state_code: '109'
  type: district
  latitude: '1.34897210'
  longitude: '32.44672380'
- id: 351
  name: Namayingo
  country_id: 229
  country_code: UG
  country_name: Uganda
  state_code: '230'
  type: district
  latitude: "-0.28035750"
  longitude: '33.75177230'
- id: 400
  name: Namisindwa
  country_id: 229
  country_code: UG
  country_name: Uganda
  state_code: '234'
  type: district
  latitude: '0.90710100'
  longitude: '34.35740370'
- id: 337
  name: Namutumba
  country_id: 229
  country_code: UG
  country_name: Uganda
  state_code: '224'
  type: district
  latitude: '0.84926100'
  longitude: '33.66233010'
- id: 430
  name: Napak
  country_id: 229
  country_code: UG
  country_name: Uganda
  state_code: '327'
  type: district
  latitude: '2.36299450'
  longitude: '34.24215970'
- id: 446
  name: Nebbi
  country_id: 229
  country_code: UG
  country_name: Uganda
  state_code: '310'
  type: district
  latitude: '2.44093920'
  longitude: '31.35416310'
- id: 424
  name: Ngora
  country_id: 229
  country_code: UG
  country_name: Uganda
  state_code: '231'
  type: district
  latitude: '1.49081150'
  longitude: '33.75177230'
- id: 332
  name: Northern
  country_id: 229
  country_code: UG
  country_name: Uganda
  state_code: "N"
  type: region
  latitude: '9.54392690'
  longitude: "-0.90566230"
- id: 422
  name: Ntoroko
  country_id: 229
  country_code: UG
  country_name: Uganda
  state_code: '424'
  type: district
  latitude: '1.07881780'
  longitude: '30.38966510'
- id: 404
  name: Ntungamo
  country_id: 229
  country_code: UG
  country_name: Uganda
  state_code: '411'
  type: district
  latitude: "-0.98073410"
  longitude: '30.25127280'
- id: 378
  name: Nwoya
  country_id: 229
  country_code: UG
  country_name: Uganda
  state_code: '328'
  type: district
  latitude: '2.56244400'
  longitude: '31.90179540'
- id: 5357
  name: Obongi
  country_id: 229
  country_code: UG
  country_name: Uganda
  state_code: '337'
  type: district
  latitude: '3.36393610'
  longitude: '31.43316460'
- id: 374
  name: Omoro
  country_id: 229
  country_code: UG
  country_name: Uganda
  state_code: '331'
  type: district
  latitude: '2.71522300'
  longitude: '32.49200880'
- id: 390
  name: Otuke
  country_id: 229
  country_code: UG
  country_name: Uganda
  state_code: '329'
  type: district
  latitude: '2.52140590'
  longitude: '33.34861470'
- id: 397
  name: Oyam
  country_id: 229
  country_code: UG
  country_name: Uganda
  state_code: '321'
  type: district
  latitude: '2.27762810'
  longitude: '32.44672380'
- id: 408
  name: Pader
  country_id: 229
  country_code: UG
  country_name: Uganda
  state_code: '312'
  type: district
  latitude: '2.94306820'
  longitude: '32.80844960'
- id: 357
  name: Pakwach
  country_id: 229
  country_code: UG
  country_name: Uganda
  state_code: '332'
  type: district
  latitude: '2.46071410'
  longitude: '31.49417380'
- id: 412
  name: Pallisa
  country_id: 229
  country_code: UG
  country_name: Uganda
  state_code: '210'
  type: district
  latitude: '1.23242060'
  longitude: '33.75177230'
- id: 439
  name: Rakai
  country_id: 229
  country_code: UG
  country_name: Uganda
  state_code: '110'
  type: district
  latitude: "-0.70691350"
  longitude: '31.53700030'
- id: 358
  name: Rubanda
  country_id: 229
  country_code: UG
  country_name: Uganda
  state_code: '429'
  type: district
  latitude: "-1.18611900"
  longitude: '29.84535760'
- id: 442
  name: Rubirizi
  country_id: 229
  country_code: UG
  country_name: Uganda
  state_code: '425'
  type: district
  latitude: "-0.26424100"
  longitude: '30.10840330'
- id: 331
  name: Rukiga
  country_id: 229
  country_code: UG
  country_name: Uganda
  state_code: '431'
  type: district
  latitude: "-1.13263370"
  longitude: '30.04341200'
- id: 324
  name: Rukungiri
  country_id: 229
  country_code: UG
  country_name: Uganda
  state_code: '412'
  type: district
  latitude: "-0.75184900"
  longitude: '29.92779470'
- id: 5362
  name: Rwampara
  country_id: 229
  country_code: UG
  country_name: Uganda
  state_code: '435'
  type: district
  latitude: "-0.73456010"
  longitude: '30.32019320'
- id: 427
  name: Sembabule
  country_id: 229
  country_code: UG
  country_name: Uganda
  state_code: '111'
  type: district
  latitude: '0.06377150'
  longitude: '31.35416310'
- id: 333
  name: Serere
  country_id: 229
  country_code: UG
  country_name: Uganda
  state_code: '232'
  type: district
  latitude: '1.49940330'
  longitude: '33.54900780'
- id: 407
  name: Sheema
  country_id: 229
  country_code: UG
  country_name: Uganda
  state_code: '426'
  type: district
  latitude: "-0.55152980"
  longitude: '30.38966510'
- id: 429
  name: Sironko
  country_id: 229
  country_code: UG
  country_name: Uganda
  state_code: '215'
  type: district
  latitude: '1.23022740'
  longitude: '34.24910640'
- id: 444
  name: Soroti
  country_id: 229
  country_code: UG
  country_name: Uganda
  state_code: '211'
  type: district
  latitude: '1.72291170'
  longitude: '33.52800720'
- id: 359
  name: Tororo
  country_id: 229
  country_code: UG
  country_name: Uganda
  state_code: '212'
  type: district
  latitude: '0.68709940'
  longitude: '34.06414190'
- id: 362
  name: Wakiso
  country_id: 229
  country_code: UG
  country_name: Uganda
  state_code: '113'
  type: district
  latitude: '0.06301900'
  longitude: '32.44672380'
- id: 370
  name: Western
  country_id: 229
  country_code: UG
  country_name: Uganda
  state_code: W
  type: region
  latitude: '40.76672150'
  longitude: "-111.88772030"
- id: 330
  name: Yumbe
  country_id: 229
  country_code: UG
  country_name: Uganda
  state_code: '313'
  type: district
  latitude: '3.46980230'
  longitude: '31.24832910'
- id: 379
  name: Zombo
  country_id: 229
  country_code: UG
  country_name: Uganda
  state_code: '330'
  type: district
  latitude: '2.55442930'
  longitude: '30.94173680'
