---
- id: 3794
  name: An Giang
  country_id: 240
  country_code: VN
  country_name: Vietnam
  state_code: '44'
  type: province
  latitude: '10.52158360'
  longitude: '105.12589550'
- id: 3770
  name: Bà Rịa-Vũng Tàu
  country_id: 240
  country_code: VN
  country_name: Vietnam
  state_code: '43'
  type: province
  latitude: '10.54173970'
  longitude: '107.24299760'
- id: 3815
  name: Bắc Giang
  country_id: 240
  country_code: VN
  country_name: Vietnam
  state_code: '54'
  type: province
  latitude: '21.28199210'
  longitude: '106.19747690'
- id: 3822
  name: Bắc Kạn
  country_id: 240
  country_code: VN
  country_name: Vietnam
  state_code: '53'
  type: province
  latitude: '22.30329230'
  longitude: '105.87600400'
- id: 3804
  name: Bạc Liêu
  country_id: 240
  country_code: VN
  country_name: Vietnam
  state_code: '55'
  type: province
  latitude: '9.29400270'
  longitude: '105.72156630'
- id: 3791
  name: Bắc Ninh
  country_id: 240
  country_code: VN
  country_name: Vietnam
  state_code: '56'
  type: province
  latitude: '21.12144400'
  longitude: '106.11105010'
- id: 3796
  name: Bến Tre
  country_id: 240
  country_code: VN
  country_name: Vietnam
  state_code: '50'
  type: province
  latitude: '10.24335560'
  longitude: '106.37555100'
- id: 3785
  name: Bình Dương
  country_id: 240
  country_code: VN
  country_name: Vietnam
  state_code: '57'
  type: province
  latitude: '11.32540240'
  longitude: '106.47701700'
- id: 3830
  name: Bình Định
  country_id: 240
  country_code: VN
  country_name: Vietnam
  state_code: '31'
  type: province
  latitude: '14.16653240'
  longitude: '108.90268300'
- id: 3797
  name: Bình Phước
  country_id: 240
  country_code: VN
  country_name: Vietnam
  state_code: '58'
  type: province
  latitude: '11.75118940'
  longitude: '106.72346390'
- id: 3787
  name: Bình Thuận
  country_id: 240
  country_code: VN
  country_name: Vietnam
  state_code: '40'
  type: province
  latitude: '11.09037030'
  longitude: '108.07207810'
- id: 3778
  name: Cà Mau
  country_id: 240
  country_code: VN
  country_name: Vietnam
  state_code: '59'
  type: province
  latitude: '9.15267280'
  longitude: '105.19607950'
- id: 4925
  name: Cần Thơ
  country_id: 240
  country_code: VN
  country_name: Vietnam
  state_code: CT
  type: municipality
  latitude: '10.03418510'
  longitude: '105.72255070'
- id: 3782
  name: Cao Bằng
  country_id: 240
  country_code: VN
  country_name: Vietnam
  state_code: '04'
  type: province
  latitude: '22.63568900'
  longitude: '106.25221430'
- id: 3806
  name: Đà Nẵng
  country_id: 240
  country_code: VN
  country_name: Vietnam
  state_code: DN
  type: municipality
  latitude: '16.05440680'
  longitude: '108.20216670'
- id: 3829
  name: Đắk Lắk
  country_id: 240
  country_code: VN
  country_name: Vietnam
  state_code: '33'
  type: province
  latitude: '12.71001160'
  longitude: '108.23775190'
- id: 3823
  name: Đắk Nông
  country_id: 240
  country_code: VN
  country_name: Vietnam
  state_code: '72'
  type: province
  latitude: '12.26464760'
  longitude: '107.60980600'
- id: 3773
  name: Điện Biên
  country_id: 240
  country_code: VN
  country_name: Vietnam
  state_code: '71'
  type: province
  latitude: '21.80423090'
  longitude: '103.10765250'
- id: 3821
  name: Đồng Nai
  country_id: 240
  country_code: VN
  country_name: Vietnam
  state_code: '39'
  type: province
  latitude: '11.06863050'
  longitude: '107.16759760'
- id: 3769
  name: Đồng Tháp
  country_id: 240
  country_code: VN
  country_name: Vietnam
  state_code: '45'
  type: province
  latitude: '10.49379890'
  longitude: '105.68817880'
- id: 3813
  name: Gia Lai
  country_id: 240
  country_code: VN
  country_name: Vietnam
  state_code: '30'
  type: province
  latitude: '13.80789430'
  longitude: '108.10937500'
- id: 3779
  name: Hà Giang
  country_id: 240
  country_code: VN
  country_name: Vietnam
  state_code: '03'
  type: province
  latitude: '22.80255880'
  longitude: '104.97844940'
- id: 3802
  name: Hà Nam
  country_id: 240
  country_code: VN
  country_name: Vietnam
  state_code: '63'
  type: province
  latitude: '20.58351960'
  longitude: '105.92299000'
- id: 3810
  name: Hà Nội
  country_id: 240
  country_code: VN
  country_name: Vietnam
  state_code: HN
  type: municipality
  latitude: '21.02776440'
  longitude: '105.83415980'
- id: 3816
  name: Hà Tĩnh
  country_id: 240
  country_code: VN
  country_name: Vietnam
  state_code: '23'
  type: province
  latitude: '18.35595370'
  longitude: '105.88774940'
- id: 3827
  name: Hải Dương
  country_id: 240
  country_code: VN
  country_name: Vietnam
  state_code: '61'
  type: province
  latitude: '20.93734130'
  longitude: '106.31455420'
- id: 3783
  name: Hải Phòng
  country_id: 240
  country_code: VN
  country_name: Vietnam
  state_code: HP
  type: province
  latitude: '20.84491150'
  longitude: '106.68808410'
- id: 3777
  name: Hậu Giang
  country_id: 240
  country_code: VN
  country_name: Vietnam
  state_code: '73'
  type: province
  latitude: '9.75789800'
  longitude: '105.64125270'
- id: 3811
  name: Hồ Chí Minh
  country_id: 240
  country_code: VN
  country_name: Vietnam
  state_code: SG
  type: province
  latitude: '10.82309890'
  longitude: '106.62966380'
- id: 3799
  name: Hòa Bình
  country_id: 240
  country_code: VN
  country_name: Vietnam
  state_code: '14'
  type: province
  latitude: '20.68612650'
  longitude: '105.31311850'
- id: 3768
  name: Hưng Yên
  country_id: 240
  country_code: VN
  country_name: Vietnam
  state_code: '66'
  type: province
  latitude: '20.85257110'
  longitude: '106.01699710'
- id: 3793
  name: Khánh Hòa
  country_id: 240
  country_code: VN
  country_name: Vietnam
  state_code: '34'
  type: province
  latitude: '12.25850980'
  longitude: '109.05260760'
- id: 3800
  name: Kiên Giang
  country_id: 240
  country_code: VN
  country_name: Vietnam
  state_code: '47'
  type: province
  latitude: '9.82495870'
  longitude: '105.12589550'
- id: 3772
  name: Kon Tum
  country_id: 240
  country_code: VN
  country_name: Vietnam
  state_code: '28'
  type: province
  latitude: '14.34974030'
  longitude: '108.00046060'
- id: 3825
  name: Lai Châu
  country_id: 240
  country_code: VN
  country_name: Vietnam
  state_code: '01'
  type: province
  latitude: '22.38622270'
  longitude: '103.47026310'
- id: 3818
  name: Lâm Đồng
  country_id: 240
  country_code: VN
  country_name: Vietnam
  state_code: '35'
  type: province
  latitude: '11.57527910'
  longitude: '108.14286690'
- id: 3792
  name: Lạng Sơn
  country_id: 240
  country_code: VN
  country_name: Vietnam
  state_code: '09'
  type: province
  latitude: '21.85370800'
  longitude: '106.76151900'
- id: 3817
  name: Lào Cai
  country_id: 240
  country_code: VN
  country_name: Vietnam
  state_code: '02'
  type: province
  latitude: '22.48094310'
  longitude: '103.97549590'
- id: 3808
  name: Long An
  country_id: 240
  country_code: VN
  country_name: Vietnam
  state_code: '41'
  type: province
  latitude: '10.56071680'
  longitude: '106.64976230'
- id: 3789
  name: Nam Định
  country_id: 240
  country_code: VN
  country_name: Vietnam
  state_code: '67'
  type: province
  latitude: '20.43882250'
  longitude: '106.16210530'
- id: 3780
  name: Nghệ An
  country_id: 240
  country_code: VN
  country_name: Vietnam
  state_code: '22'
  type: province
  latitude: '19.23424890'
  longitude: '104.92003650'
- id: 3786
  name: Ninh Bình
  country_id: 240
  country_code: VN
  country_name: Vietnam
  state_code: '18'
  type: province
  latitude: '20.25061490'
  longitude: '105.97445360'
- id: 3788
  name: Ninh Thuận
  country_id: 240
  country_code: VN
  country_name: Vietnam
  state_code: '36'
  type: province
  latitude: '11.67387670'
  longitude: '108.86295720'
- id: 3801
  name: Phú Thọ
  country_id: 240
  country_code: VN
  country_name: Vietnam
  state_code: '68'
  type: province
  latitude: '21.26844300'
  longitude: '105.20455730'
- id: 3824
  name: Phú Yên
  country_id: 240
  country_code: VN
  country_name: Vietnam
  state_code: '32'
  type: province
  latitude: '13.08818610'
  longitude: '109.09287640'
- id: 3809
  name: Quảng Bình
  country_id: 240
  country_code: VN
  country_name: Vietnam
  state_code: '24'
  type: province
  latitude: '17.61027150'
  longitude: '106.34874740'
- id: 3776
  name: Quảng Nam
  country_id: 240
  country_code: VN
  country_name: Vietnam
  state_code: '27'
  type: province
  latitude: '15.53935380'
  longitude: '108.01910200'
- id: 3828
  name: Quảng Ngãi
  country_id: 240
  country_code: VN
  country_name: Vietnam
  state_code: '29'
  type: province
  latitude: '15.12138730'
  longitude: '108.80441450'
- id: 3814
  name: Quảng Ninh
  country_id: 240
  country_code: VN
  country_name: Vietnam
  state_code: '13'
  type: province
  latitude: '21.00638200'
  longitude: '107.29251440'
- id: 3803
  name: Quảng Trị
  country_id: 240
  country_code: VN
  country_name: Vietnam
  state_code: '25'
  type: province
  latitude: '16.74030740'
  longitude: '107.18546790'
- id: 3819
  name: Sóc Trăng
  country_id: 240
  country_code: VN
  country_name: Vietnam
  state_code: '52'
  type: province
  latitude: '9.60252100'
  longitude: '105.97390490'
- id: 3812
  name: Sơn La
  country_id: 240
  country_code: VN
  country_name: Vietnam
  state_code: '05'
  type: province
  latitude: '21.10222840'
  longitude: '103.72891670'
- id: 3826
  name: Tây Ninh
  country_id: 240
  country_code: VN
  country_name: Vietnam
  state_code: '37'
  type: province
  latitude: '11.33515540'
  longitude: '106.10988540'
- id: 3775
  name: Thái Bình
  country_id: 240
  country_code: VN
  country_name: Vietnam
  state_code: '20'
  type: province
  latitude: '20.44634710'
  longitude: '106.33658280'
- id: 3807
  name: Thái Nguyên
  country_id: 240
  country_code: VN
  country_name: Vietnam
  state_code: '69'
  type: province
  latitude: '21.56715590'
  longitude: '105.82520380'
- id: 3771
  name: Thanh Hóa
  country_id: 240
  country_code: VN
  country_name: Vietnam
  state_code: '21'
  type: province
  latitude: '19.80669200'
  longitude: '105.78518160'
- id: 3798
  name: Thừa Thiên-Huế
  country_id: 240
  country_code: VN
  country_name: Vietnam
  state_code: '26'
  type: province
  latitude: '16.46739700'
  longitude: '107.59053260'
- id: 3781
  name: Tiền Giang
  country_id: 240
  country_code: VN
  country_name: Vietnam
  state_code: '46'
  type: province
  latitude: '10.44933240'
  longitude: '106.34205040'
- id: 3805
  name: Trà Vinh
  country_id: 240
  country_code: VN
  country_name: Vietnam
  state_code: '51'
  type: province
  latitude: '9.81274100'
  longitude: '106.29929120'
- id: 3795
  name: Tuyên Quang
  country_id: 240
  country_code: VN
  country_name: Vietnam
  state_code: '07'
  type: province
  latitude: '21.77672460'
  longitude: '105.22801960'
- id: 3790
  name: Vĩnh Long
  country_id: 240
  country_code: VN
  country_name: Vietnam
  state_code: '49'
  type: province
  latitude: '10.23957400'
  longitude: '105.95719280'
- id: 3774
  name: Vĩnh Phúc
  country_id: 240
  country_code: VN
  country_name: Vietnam
  state_code: '70'
  type: province
  latitude: '21.36088050'
  longitude: '105.54743730'
- id: 3784
  name: Yên Bái
  country_id: 240
  country_code: VN
  country_name: Vietnam
  state_code: '06'
  type: province
  latitude: '21.71676890'
  longitude: '104.89858780'
