---
- id: 4775
  name: Malampa
  country_id: 237
  country_code: VU
  country_name: Vanuatu
  state_code: MAP
  type: province
  latitude: "-16.40114050"
  longitude: '167.60778650'
- id: 4773
  name: Penama
  country_id: 237
  country_code: VU
  country_name: Vanuatu
  state_code: PAM
  type: province
  latitude: "-15.37957580"
  longitude: '167.90531820'
- id: 4776
  name: Sanma
  country_id: 237
  country_code: VU
  country_name: Vanuatu
  state_code: SAM
  type: province
  latitude: "-15.48400170"
  longitude: '166.91820970'
- id: 4774
  name: Shefa
  country_id: 237
  country_code: VU
  country_name: Vanuatu
  state_code: SEE
  type: province
  latitude: '32.80576500'
  longitude: '35.16997100'
- id: 4777
  name: Tafea
  country_id: 237
  country_code: VU
  country_name: Vanuatu
  state_code: TAE
  type: province
  latitude: "-18.72378270"
  longitude: '169.06450560'
- id: 4772
  name: Torba
  country_id: 237
  country_code: VU
  country_name: Vanuatu
  state_code: TOB
  type: province
  latitude: '37.07653000'
  longitude: '27.45657300'
