---
- id: 4763
  name: A'ana
  country_id: 191
  country_code: WS
  country_name: Samoa
  state_code: AA
  type: district
  latitude: "-13.89841800"
  longitude: "-171.97529950"
- id: 4761
  name: Aiga-i-le-Tai
  country_id: 191
  country_code: WS
  country_name: Samoa
  state_code: AL
  type: district
  latitude: "-13.85137910"
  longitude: "-172.03254010"
- id: 4765
  name: Atua
  country_id: 191
  country_code: WS
  country_name: Samoa
  state_code: AT
  type: district
  latitude: "-13.97870530"
  longitude: "-171.62542830"
- id: 4764
  name: Fa'asaleleaga
  country_id: 191
  country_code: WS
  country_name: Samoa
  state_code: FA
  type: district
  latitude: "-13.63076380"
  longitude: "-172.23659810"
- id: 4769
  name: Gaga'emauga
  country_id: 191
  country_code: WS
  country_name: Samoa
  state_code: GE
  type: district
  latitude: "-13.54286660"
  longitude: "-172.36688700"
- id: 4771
  name: Gaga'ifomauga
  country_id: 191
  country_code: WS
  country_name: Samoa
  state_code: GI
  type: district
  latitude: "-13.54680070"
  longitude: "-172.49693310"
- id: 4767
  name: Palauli
  country_id: 191
  country_code: WS
  country_name: Samoa
  state_code: PA
  type: district
  latitude: "-13.72945790"
  longitude: "-172.45361150"
- id: 4762
  name: Satupa'itea
  country_id: 191
  country_code: WS
  country_name: Samoa
  state_code: SA
  type: district
  latitude: "-13.65382140"
  longitude: "-172.61592710"
- id: 4770
  name: Tuamasaga
  country_id: 191
  country_code: WS
  country_name: Samoa
  state_code: TU
  type: district
  latitude: "-13.91635920"
  longitude: "-171.82243620"
- id: 4768
  name: Va'a-o-Fonoti
  country_id: 191
  country_code: WS
  country_name: Samoa
  state_code: VF
  type: district
  latitude: "-13.94709030"
  longitude: "-171.54318720"
- id: 4766
  name: Vaisigano
  country_id: 191
  country_code: WS
  country_name: Samoa
  state_code: VS
  type: district
  latitude: "-13.54138270"
  longitude: "-172.70233830"
